timestamp,gyro.x,gyro.y,gyro.z,acc.x,acc.y,acc.z,controller.actuatorThrust,controller.pitch,controller.roll,controller.yaw,pid_attitude.pitch_output,pid_attitude.roll_output,pid_attitude.yaw_output,pid_attitude.pitch_outI,pid_attitude.roll_outI,pid_attitude.yaw_outI,pid_rate.pitch_output,pid_rate.roll_output,pid_rate.yaw_output,pid_rate.pitch_outI,pid_rate.roll_outI,pid_rate.yaw_outI,stateEstimate.pitch,stateEstimate.roll,stateEstimate.yaw,snn_control.torque_pitch,snn_control.torque_roll
392568.114,-0.14069074392318726,0.01864113099873066,0.09341706335544586,0.006164953578263521,0.005245600361377001,1.0007388591766357,0.0,-0.4000000059604645,0.4000000059604645,-17.633594512939453,-4.989831924438477,0.7103065848350525,0.0,-0.004984847269952297,0.0007095970213413239,0.0,-7461.7578125,1277.3468017578125,0,-4.97119140625,0.8509973287582397,-0.0031201301608234644,0.43080782890319824,0.28173384070396423,-17.633594512939453,0,0
392570.128,-0.03824217617511749,-0.041128452867269516,0.21146458387374878,0.006601519417017698,0.0054617589339613914,1.0009658336639404,0.0,-0.4000000059604645,0.4000000059604645,-17.63278579711914,-4.989082336425781,0.7106094360351562,-0.14637917280197144,-0.004984098952263594,0.0007098995847627521,-1.617431735212449e-06,-7550.3466796875,1124.0262451171875,0,-5.030210971832275,0.7488516569137573,-0.011951982043683529,0.43068307638168335,0.28168341517448425,-17.63278579711914,0,0
392572.073,0.10476121306419373,-0.08239281177520752,0.16171765327453613,0.006977601442486048,0.0053029656410217285,1.0010188817977905,0.0,-0.4000000059604645,0.4000000059604645,-17.63278579711914,-4.989082336425781,0.7106094360351562,0.0,-0.004984098952263594,0.0007098995847627521,0.0,-7612.283203125,909.3780517578125,0,-5.071475028991699,0.6058481931686401,-0.005401370115578175,0.43068307638168335,0.28168341517448425,-17.63278579711914,0,0
392574.056,0.19011569023132324,0.03296380490064621,0.01809244602918625,0.006976574193686247,0.005018051713705063,1.000943660736084,0.0,-0.4000000059604645,0.4000000059604645,-17.63274383544922,-4.98674201965332,0.705632746219635,-0.007595145143568516,-0.004981759935617447,0.0007049278356134892,-8.392334649443001e-08,-7435.62060546875,773.7910766601562,0,-4.953778266906738,0.5155170559883118,-0.0008579656132496893,0.4302932918071747,0.28251203894615173,-17.63274383544922,0,0
392576.048,0.15368522703647614,0.12628555297851562,-0.19015149772167206,0.006727784406393766,0.004808360710740089,1.0006555318832397,0.0,-0.4000000059604645,0.4000000059604645,-17.63274383544922,-4.98674201965332,0.705632746219635,0.0,-0.004981759935617447,0.0007049278356134892,0.0,-7295.544921875,828.4732055664062,0,-4.860456466674805,0.5519475936889648,0.006351060699671507,0.4302932918071747,0.28251203894615173,-17.63274383544922,0,0
392578.004,0.11612347513437271,-0.03148692846298218,-0.16460146009922028,0.006482734810560942,0.004272341262549162,1.0002599954605103,0.0,-0.4000000059604645,0.4000000059604645,-17.633441925048828,-4.985660076141357,0.7028132081031799,0.1263556033372879,-0.004980679601430893,0.0007021111669018865,1.396179300172662e-06,-7530.7373046875,880.6212158203125,0,-5.017147541046143,0.5866897702217102,0.009717966429889202,0.4301132261753082,0.2829814851284027,-17.633441925048828,0,0
392580.002,0.1883973479270935,-0.2961832880973816,0.15800133347511292,0.006204225588589907,0.0032776514999568462,0.999980092048645,0.0,-0.4000000059604645,0.4000000059604645,-17.633441925048828,-4.985660076141357,0.7028132081031799,0.0,-0.004980679601430893,0.0007021111669018865,0.0,-7928.04638671875,772.1381225585938,0,-5.281843185424805,0.5144159197807312,-0.0052772448398172855,0.4301132261753082,0.2829814851284027,-17.633441925048828,0,0
392581.968,0.13210523128509521,-0.18036438524723053,0.2129475176334381,0.0057641263119876385,0.00252922042272985,0.9998334050178528,0.0,-0.4000000059604645,0.4000000059604645,-17.632625579833984,-4.987799167633057,0.7006338238716125,-0.14776010811328888,-0.004982816521078348,0.0006999339093454182,-1.6326905551977688e-06,-7757.41357421875,853.3613891601562,0,-5.168164253234863,0.5685285925865173,-0.012047636322677135,0.4304693937301636,0.2833443582057953,-17.632625579833984,0,0
392583.932,0.08403779566287994,0.10670661926269531,-0.040075384080410004,0.005516193341463804,0.002468803199008107,0.999853789806366,0.0,-0.4000000059604645,0.4000000059604645,-17.632625579833984,-4.987799167633057,0.7006338238716125,0.0,-0.004982816521078348,0.0006999339093454182,0.0,-7326.51953125,925.5106201171875,0,-4.8810930252075195,0.6165961027145386,0.0013385178754106164,0.4304693937301636,0.2833443582057953,-17.632625579833984,0,0
392585.95,0.0547085739672184,0.09087477624416351,-0.20920725166797638,0.005695765838027,0.002927499357610941,1.0000735521316528,0.0,-0.4000000059604645,0.4000000059604645,-17.633495330810547,-4.9833526611328125,0.7000240087509155,0.157426655292511,-0.00497837457805872,0.0006993247079662979,1.7395020677213324e-06,-7343.60888671875,968.618408203125,0,-4.8924784660339355,0.6453154683113098,0.012245573103427887,0.4297291040420532,0.28344589471817017,-17.633495330810547,0,0
392587.882,-0.046213362365961075,-0.025955477729439735,-0.20456978678703308,0.006017173640429974,0.003429953008890152,1.0001630783081055,0.0,-0.4000000059604645,0.4000000059604645,-17.633495330810547,-4.9833526611328125,0.7000240087509155,0.0,-0.00497837457805872,0.0006993247079662979,0.0,-7518.9716796875,1120.102294921875,0,-5.009308338165283,0.7462373971939087,0.006832631304860115,0.4297291040420532,0.28344589471817017,-17.633495330810547,0,0
392589.909,0.01873709261417389,-0.03131382167339325,-0.17394739389419556,0.006423051469027996,0.003958096727728844,0.9998159408569336,0.0,-0.4000000059604645,0.4000000059604645,-17.634227752685547,-4.982240676879883,0.6997218728065491,0.1325698047876358,-0.004977263975888491,0.0006990229012444615,1.4648437627329258e-06,-7525.34521484375,1022.1581420898438,0,-5.01355504989624,0.6809847950935364,0.010237675160169601,0.42954394221305847,0.2834962010383606,-17.634227752685547,0,0
392591.833,0.20296457409858704,-0.18031828105449677,-0.13278856873512268,0.006970660295337439,0.004598676227033138,0.9994814991950989,0.0,-0.4000000059604645,0.4000000059604645,-17.634227752685547,-4.982240676879883,0.6997218728065491,0.0,-0.004977263975888491,0.0006990229012444615,0.0,-7749.00048828125,745.6326904296875,0,-5.162559509277344,0.4967573285102844,0.004435138311237097,0.42954394221305847,0.2834962010383606,-17.634227752685547,0,0
392593.821,0.24906723201274872,-0.3480774462223053,0.11498545855283737,0.007397160865366459,0.005311521701514721,0.9995623230934143,0.0,-0.4000000059604645,0.4000000059604645,-17.63381004333496,-4.9892802238464355,0.6931995153427124,-0.07560621947050095,-0.004984296392649412,0.0006925070774741471,-8.354187457371154e-07,-8011.37353515625,666.6425170898438,0,-5.337357997894287,0.4441322684288025,-0.006365762557834387,0.43071597814559937,0.2845821678638458,-17.63381004333496,0,0
392595.844,0.1465461701154709,-0.19228996336460114,0.2753991484642029,0.007368460297584534,0.006003080401569605,0.9997456073760986,0.0,-0.4000000059604645,0.4000000059604645,-17.63381004333496,-4.9892802238464355,0.6931995153427124,0.0,-0.004984296392649412,0.0006925070774741471,0.0,-7777.53662109375,820.526611328125,0,-5.181570053100586,0.5466533303260803,-0.009198332205414772,0.43071597814559937,0.2845821678638458,-17.63381004333496,0,0
392597.779,0.08147622644901276,-0.04243626818060875,0.13830332458019257,0.007143492344766855,0.0064619253389537334,1.0000123977661133,0.0,-0.4000000059604645,0.4000000059604645,-17.6332950592041,-4.988852500915527,0.6900913119316101,-0.09321315586566925,-0.004983868449926376,0.0006894019898027182,-1.0299683026460116e-06,-7551.96435546875,913.53125,0,-5.031289100646973,0.6086151003837585,-0.007732651196420193,0.430644690990448,0.28509968519210815,-17.6332950592041,0,0
392599.78,0.07197502255439758,-0.16975457966327667,-0.025467656552791595,0.007156625855714083,0.006532607134431601,1.0003509521484375,0.0,-0.4000000059604645,0.4000000059604645,-17.6332950592041,-4.988852500915527,0.6900913119316101,0.0,-0.004983868449926376,0.0006894019898027182,0.0,-7743.0693359375,927.7924194335938,0,-5.158607482910156,0.6181163191795349,0.0008506198064424098,0.430644690990448,0.28509968519210815,-17.6332950592041,0,0
392601.738,0.02126816101372242,-0.3831208348274231,-0.04237360134720802,0.007266382221132517,0.006262795068323612,1.0007678270339966,0.0,-0.4000000059604645,0.4000000059604645,-17.63350486755371,-4.996623992919922,0.6885126233100891,0.0379757285118103,-0.004991632420569658,0.0006878247950226068,4.196167253667227e-07,-8074.9970703125,1001.5338134765625,0,-5.3797454833984375,0.6672444939613342,0.0026836676988750696,0.4319387674331665,0.2853625416755676,-17.63350486755371,0,0
392603.711,-0.035023514181375504,-0.39643341302871704,0.0723157525062561,0.007448641117662191,0.0058896285481750965,1.0011236667633057,0.0,-0.4000000059604645,0.4000000059604645,-17.63350486755371,-4.996623992919922,0.6885126233100891,0.0,-0.004991632420569658,0.0006878247950226068,0.0,-8094.978515625,1086.0277099609375,0,-5.393057823181152,0.7235361933708191,-0.002415346447378397,0.4319387674331665,0.2853625416755676,-17.63350486755371,0,0
392605.748,0.002966594183817506,-0.21517972648143768,0.06287599354982376,0.0075279525481164455,0.005696346051990986,1.0012880563735962,0.0,-0.4000000059604645,0.4000000059604645,-17.633291244506836,-5.000516891479492,0.6877062320709229,-0.038666196167469025,-0.004995521157979965,0.0006870192592032254,-4.272461069376732e-07,-7828.76123046875,1027.794189453125,0,-5.215696811676025,0.6847396492958069,-0.003391509409993887,0.4325869083404541,0.2854968011379242,-17.633291244506836,0,0
392607.671,-4.392528353491798e-05,-0.05620512738823891,0.019956160336732864,0.007227947469800711,0.005478553473949432,1.0013608932495117,0.0,-0.4000000059604645,0.4000000059604645,-17.633291244506836,-5.000516891479492,0.6877062320709229,0.0,-0.004995521157979965,0.0006870192592032254,0.0,-7590.14013671875,1032.3128662109375,0,-5.056722640991211,0.6877501606941223,-0.0006665358087047935,0.4325869083404541,0.2854968011379242,-17.633291244506836,0,0
392609.68,0.0014612809754908085,-0.08936932682991028,-0.049707867205142975,0.00683178473263979,0.005166205111891031,1.0013762712478638,0.0,-0.4000000059604645,0.4000000059604645,-17.633529663085938,-5.000998020172119,0.6872063279151917,0.04315423592925072,-0.004996002186089754,0.0006865198374725878,4.76837158203125e-07,-7640.64111328125,1029.3033447265625,0,-5.090367317199707,0.685745120048523,0.003101594280451536,0.43266698718070984,0.285580039024353,-17.633529663085938,0,0
392611.624,-0.033207204192876816,-0.27203574776649475,-0.050416138023138046,0.006566653959453106,0.00503303250297904,1.0013391971588135,0.0,-0.4000000059604645,0.4000000059604645,-17.633529663085938,-5.000998020172119,0.6872063279151917,0.0,-0.004996002186089754,0.0006865198374725878,0.0,-7914.82275390625,1081.3406982421875,0,-5.27303409576416,0.7204135060310364,0.001683899201452732,0.43266698718070984,0.285580039024353,-17.633529663085938,0,0
392613.611,-0.23821021616458893,-0.39005377888679504,0.11153167486190796,0.0064005316235125065,0.005102131050080061,1.0014944076538086,0.0,-0.4000000059604645,0.4000000059604645,-17.63312530517578,-5.008462429046631,0.6925293803215027,-0.07318958640098572,-0.005003458820283413,0.0006918375729583204,-8.087158676062245e-07,-8103.17236328125,1397.0401611328125,0,-5.398516654968262,0.9307396411895752,-0.006169690750539303,0.4339098036289215,0.28469374775886536,-17.63312530517578,0,0
392615.63,-0.35108739137649536,-0.5136822462081909,0.028601566329598427,0.006397891789674759,0.005289440043270588,1.001831293106079,0.0,-0.4000000059604645,0.4000000059604645,-17.63312530517578,-5.008462429046631,0.6925293803215027,0.0,-0.005003458820283413,0.0006918375729583204,0.0,-8288.7392578125,1566.4686279296875,0,-5.522144794464111,1.043616771697998,-0.0009552923729643226,0.4339098036289215,0.28469374775886536,-17.63312530517578,0,0
392617.569,-0.2337619513273239,-0.49500590562820435,-0.09995408356189728,0.006645319052040577,0.005538625176995993,1.0020509958267212,0.0,-0.4000000059604645,0.4000000059604645,-17.63357162475586,-5.018533706665039,0.697461724281311,0.08078473061323166,-0.005013520363718271,0.0006967650260776281,8.926392069952271e-07,-8275.8232421875,1397.7667236328125,0,-5.513539791107178,0.9312237501144409,0.006036676932126284,0.43558672070503235,0.28387251496315,-17.63357162475586,0,0
392849.132,-0.018978791311383247,0.03201296180486679,-0.2039450854063034,0.007974616251885891,0.0047143069095909595,1.000105381011963,0.0,-0.4000000059604645,0.4000000059604645,-17.631135940551758,-5.017589569091797,0.7133464217185974,0.0,-0.005012577399611473,0.0007126338314265013,0.0,-7483.349609375,1099.2200927734375,0,-4.98557710647583,0.7323252558708191,0.006811766419559717,0.43542951345443726,0.281227707862854,-17.631135940551758,0,0
392851.11,-0.12614145874977112,0.07330361008644104,-0.12219616770744324,0.007915196940302849,0.004623354412615299,1.000076174736023,0.0,-0.4000000059604645,0.4000000059604645,-17.63166046142578,-5.014735221862793,0.7161505222320557,0.09493932873010635,-0.0050097256898880005,0.0007154351333156228,1.0490417707842425e-06,-7417.08837890625,1264.2801513671875,0,-4.941431999206543,0.8422919511795044,0.007252326235175133,0.4349542260169983,0.28076082468032837,-17.63166046142578,0,0
392853.124,-0.23119983077049255,0.2144998461008072,0.1105501800775528,0.007896863855421543,0.004510513041168451,1.0002285242080688,0.0,-0.4000000059604645,0.4000000059604645,-17.63166046142578,-5.014735221862793,0.7161505222320557,0.0,-0.0050097256898880005,0.0007154351333156228,0.0,-7205.15283203125,1421.9730224609375,0,-4.800235271453857,0.9473503828048706,-0.0036923764273524284,0.4349542260169983,0.28076082468032837,-17.63166046142578,0,0
392855.069,-0.1646401584148407,0.15841031074523926,0.1721823364496231,0.008143014274537563,0.004616411868482828,1.0003215074539185,0.0,-0.4000000059604645,0.4000000059604645,-17.63100242614746,-5.01000452041626,0.7199335098266602,-0.11910568922758102,-0.0050050001591444016,0.0007192143239080906,-1.3160706657799892e-06,-7282.2421875,1327.7449951171875,0,-4.851593971252441,0.884573757648468,-0.009729021228849888,0.4341665804386139,0.28013095259666443,-17.63100242614746,0,0
392857.074,-0.07832413166761398,-0.11708265542984009,-0.025257762521505356,0.008433809503912926,0.004798586014658213,1.0004020929336548,0.0,-0.4000000059604645,0.4000000059604645,-17.63100242614746,-5.01000452041626,0.7199335098266602,0.0,-0.0050050001591444016,0.0007192143239080906,0.0,-7695.7568359375,1198.1846923828125,0,-5.127087116241455,0.7982577085494995,0.0008436093339696527,0.4341665804386139,0.28013095259666443,-17.63100242614746,0,0
392859.029,-0.03253939747810364,-0.2578510642051697,-0.15252739191055298,0.008520466275513172,0.004754180088639259,1.0007129907608032,0.0,-0.4000000059604645,0.4000000059604645,-17.63165283203125,-5.015413284301758,0.7204030156135559,0.11772475391626358,-0.005010403227061033,0.0007196833612397313,1.3008118457946694e-06,-7915.169921875,1130.16650390625,0,-5.2732648849487305,0.7529424428939819,0.009026422165334225,0.43506717681884766,0.2800527811050415,-17.63165283203125,0,0
392860.995,-0.031561460345983505,-0.19399501383304596,-0.1776091754436493,0.008371327072381973,0.0044061834923923016,1.0014312267303467,0.0,-0.4000000059604645,0.4000000059604645,-17.63165283203125,-5.015413284301758,0.7204030156135559,0.0,-0.005010403227061033,0.0007196833612397313,0.0,-7819.32177734375,1128.6986083984375,0,-5.209408760070801,0.7519644498825073,0.005932147148996592,0.43506717681884766,0.2800527811050415,-17.63165283203125,0,0
392863.034,-0.05369597673416138,-0.09687116742134094,-0.009793312288820744,0.008097103796899319,0.003970684949308634,1.0019240379333496,0.0,-0.4000000059604645,0.4000000059604645,-17.631731033325195,-5.016740322113037,0.7218360304832458,0.014154590666294098,-0.005011728964745998,0.0007211149204522371,1.5640259221072483e-07,-7675.53076171875,1164.073486328125,0,-5.113611698150635,0.775532066822052,0.0007998599903658032,0.43528810143470764,0.2798141837120056,-17.631731033325195,0,0
392864.957,-0.08437878638505936,0.037651192396879196,0.1792861819267273,0.007912691682577133,0.0036279086489230394,1.0021682977676392,0.0,-0.4000000059604645,0.4000000059604645,-17.631731033325195,-5.016740322113037,0.7218360304832458,0.0,-0.005011728964745998,0.0007211149204522371,0.0,-7473.61279296875,1210.12841796875,0,-4.979089260101318,0.8062148690223694,-0.005988158751279116,0.43528810143470764,0.2798141837120056,-17.631731033325195,0,0
392866.973,-0.1920817643404007,0.2390492558479309,0.17265307903289795,0.007905018515884876,0.003361539216712117,1.0024183988571167,0.0,-0.4000000059604645,0.4000000059604645,-17.631067276000977,-5.009937286376953,0.7269584536552429,-0.12014138698577881,-0.005004933103919029,0.0007262323051691055,-1.3275147239255602e-06,-7161.10205078125,1379.479248046875,0,-4.770887851715088,0.9190402626991272,-0.009779335930943489,0.4341554343700409,0.27896130084991455,-17.631067276000977,0,0
392868.921,-0.04899809882044792,0.23892521858215332,0.159586563706398,0.007841484621167183,0.0032607701141387224,1.0024787187576294,0.0,-0.4000000059604645,0.4000000059604645,-17.631067276000977,-5.009937286376953,0.7269584536552429,0.0,-0.005004933103919029,0.0007262323051691055,0.0,-7161.2890625,1164.7108154296875,0,-4.771012306213379,0.7759566307067871,-0.005330191925168037,0.4341554343700409,0.27896130084991455,-17.631067276000977,0,0
392870.91,0.11144246906042099,-0.06362453103065491,0.16277842223644257,0.007745835464447737,0.003434725571423769,1.0020878314971924,0.0,-0.4000000059604645,0.4000000059604645,-17.630451202392578,-5.010306358337402,0.7247380614280701,-0.11151055246591568,-0.00500530144199729,0.0007240140694193542,-1.2321472695475677e-06,-7615.96923828125,920.5567016601562,0,-5.0739312171936035,0.6132956743240356,-0.009161252528429031,0.43421682715415955,0.2793309986591339,-17.630451202392578,0,0
392872.917,-0.03642886132001877,-0.1358153373003006,0.11898249387741089,0.00761900981888175,0.0035996059887111187,1.0013619661331177,0.0,-0.4000000059604645,0.4000000059604645,-17.630451202392578,-5.010306358337402,0.7247380614280701,0.0,-0.00500530144199729,0.0007240140694193542,0.0,-7724.32763671875,1142.511474609375,0,-5.146121501922607,0.7611669898033142,-0.003974015824496746,0.43421682715415955,0.2793309986591339,-17.630451202392578,0,0
392874.864,-0.17132672667503357,-0.09275374561548233,0.07864038646221161,0.007526294328272343,0.0036355569027364254,1.00062096118927,0.0,-0.4000000059604645,0.4000000059604645,-17.630172729492188,-5.0112481117248535,0.7291865348815918,-0.050404153764247894,-0.005006242077797651,0.0007284581661224365,-5.569458494392165e-07,-7661.10693359375,1351.67041015625,0,-5.104001998901367,0.9005132913589478,-0.004310087766498327,0.4343736469745636,0.2785903215408325,-17.630172729492188,0,0
392876.858,0.010700587183237076,-0.29153650999069214,-0.045519787818193436,0.0076402341946959496,0.0035934525076299906,1.0000814199447632,0.0,-0.4000000059604645,0.4000000059604645,-17.630172729492188,-5.0112481117248535,0.7291865348815918,0.0,-0.005006242077797651,0.0007284581661224365,0.0,-7959.4794921875,1078.4473876953125,0,-5.302784442901611,0.718485951423645,0.001520361052826047,0.4343736469745636,0.2785903215408325,-17.630172729492188,0,0
392878.825,0.1270749568939209,-0.33952099084854126,-0.1396716684103012,0.00770023837685585,0.003439834341406822,1.0000731945037842,0.0,-0.4000000059604645,0.4000000059604645,-17.630773544311523,-5.018168926239014,0.7265247702598572,0.10874868184328079,-0.005013156216591597,0.0007257990073412657,1.2016297432637657e-06,-8041.89208984375,899.7741088867188,0,-5.357690334320068,0.599449872970581,0.008297240361571312,0.4355259835720062,0.27903351187705994,-17.630773544311523,0,0
392880.785,0.05363867059350014,-0.08414197713136673,-0.14891301095485687,0.007520646322518587,0.003301806515082717,1.0003894567489624,0.0,-0.4000000059604645,0.4000000059604645,-17.630773544311523,-5.018168926239014,0.7265247702598572,0.0,-0.005013156216591597,0.0007257990073412657,0.0,-7658.56884765625,1010.001953125,0,-5.102311134338379,0.672886073589325,0.004973695147782564,0.4355259835720062,0.27903351187705994,-17.630773544311523,0,0
392882.818,-0.020936157554388046,0.1920643001794815,-0.04155638813972473,0.007452995982021093,0.0033689329866319895,1.000415325164795,0.0,-0.4000000059604645,0.4000000059604645,-17.630970001220703,-5.012226581573486,0.727480947971344,0.03555908799171448,-0.00500721950083971,0.0007267541950568557,3.929138472358318e-07,-7235.0634765625,1123.3740234375,0,-4.820162296295166,0.7484170794487,0.002575657097622752,0.43453654646873474,0.27887430787086487,-17.630970001220703,0,0
392884.749,-0.016637641936540604,0.24397355318069458,0.06547250598669052,0.00758007075637579,0.003382145194336772,1.0002591609954834,0.0,-0.4000000059604645,0.4000000059604645,-17.630970001220703,-5.012226581573486,0.727480947971344,0.0,-0.00500721950083971,0.0007267541950568557,0.0,-7157.14697265625,1116.9219970703125,0,-4.768253326416016,0.7441185712814331,-0.002186781959608197,0.43453654646873474,0.27887430787086487,-17.630970001220703,0,0
392886.77,0.03793536126613617,0.12454797327518463,-0.016898227855563164,0.007735810708254576,0.003318237839266658,1.000158667564392,0.0,-0.4000000059604645,0.4000000059604645,-17.63106918334961,-5.0080671310424805,0.7270528078079224,0.01795216090977192,-0.005003064870834351,0.0007263264851644635,1.9836426190522616e-07,-7330.162109375,1034.3651123046875,0,-4.883519172668457,0.6891174912452698,0.0011640030425041914,0.43384408950805664,0.27894559502601624,-17.63106918334961,0,0
392888.713,0.010742902755737305,0.06975502520799637,-0.06798698008060455,0.00805862620472908,0.0034985358361154795,1.0004130601882935,0.0,-0.4000000059604645,0.4000000059604645,-17.63106918334961,-5.0080671310424805,0.7270528078079224,0.0,-0.005003064870834351,0.0007263264851644635,0.0,-7412.40673828125,1075.18115234375,0,-4.938312530517578,0.7163099646568298,0.00227076536975801,0.43384408950805664,0.27894559502601624,-17.63106918334961,0,0
392890.696,0.04738848656415939,0.07742862403392792,-0.03153418004512787,0.008412093855440617,0.003739096922799945,1.0011054277420044,0.0,-0.4000000059604645,0.4000000059604645,-17.6312255859375,-5.005405902862549,0.7261678576469421,0.028309181332588196,-0.005000405013561249,0.0007254424272105098,3.1280518442144967e-07,-7396.89306640625,1018.8477783203125,0,-4.927977561950684,0.6787793636322021,0.0019987684208899736,0.43340086936950684,0.279092937707901,-17.6312255859375,0,0
392892.702,0.12936852872371674,-0.0016860892064869404,-0.06210821866989136,0.008376159705221653,0.003748595016077161,1.0018850564956665,0.0,-0.4000000059604645,0.4000000059604645,-17.6312255859375,-5.005405902862549,0.7261678576469421,0.0,-0.005000405013561249,0.0007254424272105098,0.0,-7515.64501953125,895.7957153320312,0,-5.007092475891113,0.596799373626709,0.0020744146313518286,0.43340086936950684,0.279092937707901,-17.6312255859375,0,0
393262.774,-0.026107987388968468,-0.15225617587566376,0.2567826211452484,0.007814030162990093,0.004459424410015345,1.0019824504852295,0.0,-0.4000000059604645,0.4000000059604645,-17.631858825683594,-5.0436506271362305,0.7538317441940308,-0.1795216202735901,-0.0050386120565235615,0.0007530786097049713,-1.9836427327390993e-06,-7799.05517578125,1170.689453125,0,-5.195906639099121,0.7799397706985474,-0.014572562649846077,0.43976861238479614,0.2744868993759155,-17.631858825683594,0,0
393264.713,0.021528974175453186,-0.2923930287361145,0.25937148928642273,0.00776557857170701,0.004503277130424976,1.0020349025726318,0.0,-0.4000000059604645,0.4000000059604645,-17.631858825683594,-5.0436506271362305,0.7538317441940308,0.0,-0.0050386120565235615,0.0007530786097049713,0.0,-8009.4013671875,1099.1864013671875,0,-5.336043834686279,0.7323028445243835,-0.00866300892084837,0.43976861238479614,0.2744868993759155,-17.631858825683594,0,0
393266.7,-0.028961479663848877,-0.34855180978775024,0.0698542520403862,0.007552380207926035,0.004701670259237289,1.0024197101593018,0.0,-0.4000000059604645,0.4000000059604645,-17.631622314453125,-5.0506696701049805,0.7542351484298706,-0.042809002101421356,-0.005045624449849129,0.000753481755964458,-4.7302248162850447e-07,-8104.23095703125,1175.578125,0,-5.399221420288086,0.7831966280937195,-0.003762952983379364,0.440937340259552,0.27441972494125366,-17.631622314453125,0,0
393268.723,-0.06454239785671234,-0.26210835576057434,-0.15637750923633575,0.007274108473211527,0.004865172319114208,1.0026615858078003,0.0,-0.4000000059604645,0.4000000059604645,-17.631622314453125,-5.0506696701049805,0.7542351484298706,0.0,-0.005045624449849129,0.000753481755964458,0.0,-7974.4794921875,1228.9849853515625,0,-5.312777996063232,0.8187776207923889,0.005223009269684553,0.440937340259552,0.27441972494125366,-17.631622314453125,0,0
393270.665,-0.1904972940683365,-0.05685844272375107,-0.1636909544467926,0.007206008769571781,0.005117746535688639,1.0025207996368408,0.0,-0.4000000059604645,0.4000000059604645,-17.632312774658203,-5.050478458404541,0.7582491040229797,0.12497466057538986,-0.005045433063060045,0.0007574916235171258,1.380920480187342e-06,-7666.1123046875,1424.0682373046875,0,-5.10733699798584,0.9487464427947998,0.009641433134675026,0.44090548157691956,0.2737514078617096,-17.632312774658203,0,0
393272.657,-0.41955965757369995,0.11682073771953583,-0.19471405446529388,0.007222285028547049,0.005246391519904137,1.0024696588516235,0.0,-0.4000000059604645,0.4000000059604645,-17.632312774658203,-5.050478458404541,0.7582491040229797,0.0,-0.005045433063060045,0.0007574916235171258,0.0,-7405.41943359375,1767.890869140625,0,-4.933658123016357,1.1778088808059692,0.006503450218588114,0.44090548157691956,0.2737514078617096,-17.632312774658203,0,0
393274.617,-0.4500805139541626,0.028411608189344406,-0.13104966282844543,0.006999237462878227,0.005158529616892338,1.0026987791061401,0.0,-0.4000000059604645,0.4000000059604645,-17.63287353515625,-5.0481367111206055,0.7684770822525024,0.10149877518415451,-0.0050430940464138985,0.0007677094545215368,1.1215209951842553e-06,-7534.60693359375,1829.0548095703125,0,-5.019725799560547,1.2185577154159546,0.007767118513584137,0.4405156075954437,0.2720484435558319,-17.63287353515625,0,0
393276.588,-0.26118430495262146,-0.1703752875328064,0.0644264966249466,0.006742255762219429,0.0049501932226121426,1.0029842853546143,0.0,-0.4000000059604645,0.4000000059604645,-17.63287353515625,-5.0481367111206055,0.7684770822525024,0.0,-0.0050430940464138985,0.0007677094545215368,0.0,-7832.986328125,1545.5216064453125,0,-5.218512535095215,1.0296615362167358,-0.0021518452558666468,0.4405156075954437,0.2720484435558319,-17.63287353515625,0,0
393278.618,-0.060978520661592484,-0.278115838766098,-0.044660162180662155,0.006540221627801657,0.004811444785445929,1.0032442808151245,0.0,-0.4000000059604645,0.4000000059604645,-17.633092880249023,-5.0528974533081055,0.7695472836494446,0.03970189765095711,-0.005047849379479885,0.0007687785546295345,4.3869019350495364e-07,-8001.85107421875,1246.6192626953125,0,-5.331013202667236,0.8305258750915527,0.002817693166434765,0.44130823016166687,0.2718702554702759,-17.633092880249023,0,0
393280.558,0.08000385761260986,-0.3514443039894104,-0.23380789160728455,0.006449482869356871,0.005012884736061096,1.00343918800354,0.0,-0.4000000059604645,0.4000000059604645,-17.633092880249023,-5.0528974533081055,0.7695472836494446,0.0,-0.005047849379479885,0.0007687785546295345,0.0,-8111.91650390625,1035.004638671875,0,-5.404342174530029,0.6895434260368347,0.007809184491634369,0.44130823016166687,0.2718702554702759,-17.633092880249023,0,0
393282.565,0.13568811118602753,-0.1730608344078064,-0.1580243706703186,0.0064575280994176865,0.005503181368112564,1.0036201477050781,0.0,-0.4000000059604645,0.4000000059604645,-17.63376235961914,-5.0550761222839355,0.7654948830604553,0.12117709219455719,-0.0050500258803367615,0.0007647301536053419,1.3389587820711313e-06,-7847.43310546875,945.3399047851562,0,-5.228137016296387,0.6298067569732666,0.009325329214334488,0.4416709542274475,0.2725449800491333,-17.63376235961914,0,0
393284.51,0.058274224400520325,0.07440212368965149,-0.05516781657934189,0.006515196058899164,0.005831407383084297,1.0037323236465454,0.0,-0.4000000059604645,0.4000000059604645,-17.63376235961914,-5.0550761222839355,0.7654948830604553,0.0,-0.0050500258803367615,0.0007647301536053419,0.0,-7475.99072265625,1061.538330078125,0,-4.980673789978027,0.7072206735610962,0.0018426052993163466,0.4416709542274475,0.2725449800491333,-17.63376235961914,0,0
393286.492,-0.012594792991876602,0.04459379240870476,-0.14292114973068237,0.00667595025151968,0.005814018193632364,1.0037323236465454,0.0,-0.4000000059604645,0.4000000059604645,-17.634366989135742,-5.052158832550049,0.7648453116416931,0.10943914949893951,-0.00504711177200079,0.0007640812546014786,1.209259039569588e-06,-7516.3544921875,1166.9375,0,-5.007565498352051,0.7774401307106018,0.00842883437871933,0.44118523597717285,0.27265313267707825,-17.634366989135742,0,0
393288.507,-0.04220713675022125,-0.022311648353934288,-0.11262183636426926,0.00699033634737134,0.005512209143489599,1.0036652088165283,0.0,-0.4000000059604645,0.4000000059604645,-17.634366989135742,-5.052158832550049,0.7648453116416931,0.0,-0.00504711177200079,0.0007640812546014786,0.0,-7616.7802734375,1211.385498046875,0,-5.0744709968566895,0.807052493095398,0.0037615697365254164,0.44118523597717285,0.27265313267707825,-17.634366989135742,0,0
393551.69,-0.3446836769580841,-0.10156746208667755,-0.07943814247846603,0.006982313934713602,0.005178252700716257,1.002474308013916,0.0,-0.4000000059604645,0.4000000059604645,-17.62813377380371,-5.017181873321533,0.8082361817359924,0.06386826932430267,-0.005012169945985079,0.0008074288489297032,7.05719003235572e-07,-7683.24267578125,1730.53271484375,0,-5.118749618530273,1.1529200077056885,0.004786434583365917,0.4353615939617157,0.2654285430908203,-17.62813377380371,0,0
393553.654,-0.08027242869138718,-0.06713473051786423,0.023983463644981384,0.007160049397498369,0.004898812156170607,1.0023006200790405,0.0,-0.4000000059604645,0.4000000059604645,-17.62813377380371,-5.017181873321533,0.8082361817359924,0.0,-0.005012169945985079,0.0008074288489297032,0.0,-7631.55908203125,1333.6514892578125,0,-5.084317207336426,0.888508677482605,-0.0008010477758944035,0.4353615939617157,0.2654285430908203,-17.62813377380371,0,0
393555.699,0.15321309864521027,-0.15737555921077728,0.08450810611248016,0.007518762722611427,0.004707103595137596,1.0020356178283691,0.0,-0.4000000059604645,0.4000000059604645,-17.627836227416992,-5.019650459289551,0.8041748404502869,-0.053856492042541504,-0.005014636553823948,0.0008033715421333909,-5.950927857156785e-07,-7770.71533203125,977.093505859375,0,-5.177026271820068,0.6509617567062378,-0.004621377680450678,0.43577268719673157,0.2661047577857971,-17.627836227416992,0,0
393557.619,0.15340693295001984,-0.22023458778858185,0.005404830444604158,0.008076784200966358,0.004282788839191198,1.0019105672836304,0.0,-0.4000000059604645,0.4000000059604645,-17.627836227416992,-5.019650459289551,0.8041748404502869,0.0,-0.005014636553823948,0.0008033715421333909,0.0,-7865.06689453125,976.8026123046875,0,-5.239885330200195,0.6507679224014282,-0.00018052135419566184,0.43577268719673157,0.2661047577857971,-17.627836227416992,0,0
393559.629,0.03825557976961136,-0.21590544283390045,-0.007441146764904261,0.008464696817100048,0.0036395404022186995,1.0018304586410522,0.0,-0.4000000059604645,0.4000000059604645,-17.627904891967773,-5.024021148681641,0.8034459948539734,0.012428420595824718,-0.005019002128392458,0.0008026433642953634,1.3732910986163915e-07,-7865.12939453125,1148.55078125,0,-5.239927291870117,0.7651904821395874,0.000663643644656986,0.43650034070014954,0.2662261128425598,-17.627904891967773,0,0
393561.575,-0.1342964470386505,-0.1499146670103073,0.03453413024544716,0.008653251454234123,0.0032004218082875013,1.0017691850662231,0.0,-0.4000000059604645,0.4000000059604645,-17.627904891967773,-5.024021148681641,0.8034459948539734,0.0,-0.005019002128392458,0.0008026433642953634,0.0,-7766.0771484375,1407.5513916015625,0,-5.173935890197754,0.9377425312995911,-0.0011534400982782245,0.43650034070014954,0.2662261128425598,-17.627904891967773,0,0
393563.56,-0.10877267271280289,0.005639469716697931,0.1045185998082161,0.008940846659243107,0.0029074703343212605,1.001754641532898,0.0,-0.4000000059604645,0.4000000059604645,-17.627519607543945,-5.023351192474365,0.8066700100898743,-0.06973724067211151,-0.005018332973122597,0.0008058642270043492,-7.705688744863437e-07,-7531.58447265625,1374.0794677734375,0,-5.017711639404297,0.9154427647590637,-0.005820145830512047,0.4363887906074524,0.26568931341171265,-17.627519607543945,0,0
393565.577,0.12317011505365372,0.08084133267402649,0.17716236412525177,0.009059745818376541,0.002515263156965375,1.0016216039657593,0.0,-0.4000000059604645,0.4000000059604645,-17.627519607543945,-5.023351192474365,0.8066700100898743,0.0,-0.005018332973122597,0.0008058642270043492,0.0,-7418.70654296875,1025.9332275390625,0,-4.942509651184082,0.6834999322891235,-0.005917223636060953,0.4363887906074524,0.26568931341171265,-17.627519607543945,0,0
393567.556,0.27533966302871704,0.08154179900884628,0.08286964893341064,0.008900556713342667,0.0023122611455619335,1.0013827085494995,0.0,-0.4000000059604645,0.4000000059604645,-17.627220153808594,-5.020842552185059,0.8009814620018005,-0.054201725870370865,-0.0050158267840743065,0.0008001812966540456,-5.989074907120084e-07,-7413.89013671875,788.9883422851562,0,-4.939301013946533,0.5256418585777283,-0.004578183870762587,0.43597108125686646,0.266636461019516,-17.627220153808594,0,0
393569.548,0.1627599596977234,0.14111456274986267,-0.08314532786607742,0.008528181351721287,0.0023637565318495035,1.001168131828308,0.0,-0.4000000059604645,0.4000000059604645,-17.627220153808594,-5.020842552185059,0.8009814620018005,0.0,-0.0050158267840743065,0.0008001812966540456,0.0,-7324.47119140625,957.970458984375,0,-4.879727840423584,0.6382215023040771,0.0027770542073994875,0.43597108125686646,0.266636461019516,-17.627220153808594,0,0
393571.51,0.011970254592597485,0.13321155309677124,-0.049790289252996445,0.00792222935706377,0.002950061345472932,1.0011733770370483,0.0,-0.4000000059604645,0.4000000059604645,-17.627450942993164,-5.0165557861328125,0.8012561798095703,0.04177330061793327,-0.0050115445628762245,0.0008004558039829135,4.61578395061224e-07,-7329.89892578125,1184.7181396484375,0,-4.8833441734313965,0.7892859578132629,0.003058224217966199,0.4352574348449707,0.2665907144546509,-17.627450942993164,0,0
393573.476,0.0019653108902275562,0.00524728512391448,0.038733720779418945,0.007113359868526459,0.003986909985542297,1.001379370689392,0.0,-0.4000000059604645,0.4000000059604645,-17.627450942993164,-5.0165557861328125,0.8012561798095703,0.0,-0.0050115445628762245,0.0008004558039829135,0.0,-7521.97412109375,1199.735595703125,0,-5.0113091468811035,0.7992909550666809,-0.0012937064748257399,0.4352574348449707,0.2665907144546509,-17.627450942993164,0,0
393575.479,0.04598613083362579,-0.08175113797187805,-0.08756696432828903,0.006615891121327877,0.005147370509803295,1.0015203952789307,0.0,-0.4000000059604645,0.4000000059604645,-17.627838134765625,-5.016706943511963,0.7995092272758484,0.07008247822523117,-0.005011695437133312,0.0007987106218934059,7.743835794826737e-07,-7652.78564453125,1131.0380859375,0,-5.098458290100098,0.7535231709480286,0.0052654920145869255,0.43528252840042114,0.2668815851211548,-17.627838134765625,0,0
393577.426,0.10489276051521301,-0.1992381364107132,-0.12931601703166962,0.0067068058997392654,0.006065677385777235,1.0014079809188843,0.0,-0.4000000059604645,0.4000000059604645,-17.627838134765625,-5.016706943511963,0.7995092272758484,0.0,-0.005011695437133312,0.0007987106218934059,0.0,-7829.13330078125,1042.619140625,0,-5.215945720672607,0.694616436958313,0.0043191551230847836,0.43528252840042114,0.2668815851211548,-17.627838134765625,0,0
393579.439,0.09456746280193329,-0.31414204835891724,6.128731911303475e-05,0.007165356073528528,0.006637312471866608,1.001234531402588,0.0,-0.4000000059604645,0.4000000059604645,-17.62788200378418,-5.022731304168701,0.7958003282546997,0.007940378971397877,-0.0050177136436104774,0.0007950053550302982,8.773804438533261e-08,-8010.646484375,1052.5504150390625,0,-5.336873531341553,0.7012328505516052,0.00026316166622564197,0.4362855553627014,0.2674991190433502,-17.62788200378418,0,0
393581.385,0.060287002474069595,-0.2915182411670685,0.02565572038292885,0.007697621360421181,0.007159105036407709,1.0013813972473145,0.0,-0.4000000059604645,0.4000000059604645,-17.62788200378418,-5.022731304168701,0.7958003282546997,0.0,-0.0050177136436104774,0.0007950053550302982,0.0,-7976.6884765625,1104.00537109375,0,-5.314249515533447,0.7355133295059204,-0.0008569011115469038,0.4362855553627014,0.2674991190433502,-17.62788200378418,0,0
393583.366,0.13098163902759552,-0.28725138306617737,0.02476629614830017,0.00819436740130186,0.007584122009575367,1.001625418663025,0.0,-0.4000000059604645,0.4000000059604645,-17.627822875976562,-5.028662204742432,0.790712833404541,-0.010702250525355339,-0.005023638717830181,0.0007899229531176388,-1.1825562040712612e-07,-7979.1865234375,990.2565307617188,0,-5.315913677215576,0.6597312092781067,-0.0011846496490761638,0.43727314472198486,0.2683461904525757,-17.627822875976562,0,0
393585.364,0.17537906765937805,-0.23673224449157715,0.047113414853811264,0.008677573874592781,0.007761920802295208,1.0015649795532227,0.0,-0.4000000059604645,0.4000000059604645,-17.627822875976562,-5.028662204742432,0.790712833404541,0.0,-0.005023638717830181,0.0007899229531176388,0.0,-7903.35693359375,923.615966796875,0,-5.265394687652588,0.6153338551521301,-0.0015735881170257926,0.43727314472198486,0.2683461904525757,-17.627822875976562,0,0
393587.324,0.03574245795607567,-0.12713107466697693,0.07765018939971924,0.009028633125126362,0.007666171528398991,1.0015522241592407,0.0,-0.4000000059604645,0.4000000059604645,-17.627553939819336,-5.031209945678711,0.7878857851028442,-0.04867798089981079,-0.005026184022426605,0.0007870987756177783,-5.378723244575667e-07,-7742.6689453125,1128.9671630859375,0,-5.158340930938721,0.752143383026123,-0.004219361115247011,0.43769726157188416,0.26881688833236694,-17.627553939819336,0,0
393589.313,-0.19746838510036469,-0.1547350138425827,0.014233026653528214,0.008998130448162556,0.00713048130273819,1.0017718076705933,0.0,-0.4000000059604645,0.4000000059604645,-17.627553939819336,-5.031209945678711,0.7878857851028442,0.0,-0.005026184022426605,0.0007870987756177783,0.0,-7784.103515625,1479.0164794921875,0,-5.185945510864258,0.9853541851043701,-0.0004753831308335066,0.43769726157188416,0.26881688833236694,-17.627553939819336,0,0
393591.274,-0.2209853082895279,-0.1880447119474411,0.016949646174907684,0.00867027323693037,0.00633269501850009,1.0021717548370361,0.0,-0.4000000059604645,0.4000000059604645,-17.627525329589844,-5.035006999969482,0.7919487357139587,-0.005178508348762989,-0.005029977299273014,0.0007911575958132744,-5.7220461258111754e-08,-7839.80029296875,1520.4139404296875,0,-5.22305154800415,1.0129340887069702,-0.0007390804239548743,0.4383294880390167,0.26814040541648865,-17.627525329589844,0,0
393593.24,-0.09369401633739471,-0.14667969942092896,0.09265898913145065,0.008308466523885727,0.005381286144256592,1.002471685409546,0.0,-0.4000000059604645,0.4000000059604645,-17.627525329589844,-5.035006999969482,0.7919487357139587,0.0,-0.005029977299273014,0.0007911575958132744,0.0,-7777.7119140625,1329.349609375,0,-5.181686878204346,0.8856428265571594,-0.003094810526818037,0.4383294880390167,0.26814040541648865,-17.627525329589844,0,0
393595.268,0.03749094158411026,-0.16628026962280273,0.13419224321842194,0.008104315027594566,0.004388936795294285,1.0025091171264648,0.0,-0.4000000059604645,0.4000000059604645,-17.627025604248047,-5.03798246383667,0.7908772826194763,-0.09045127779245377,-0.005032949615269899,0.0007900872733443975,-9.994507763622096e-07,-7811.59765625,1130.8328857421875,0,-5.204263210296631,0.753386378288269,-0.0075030941516160965,0.43882492184638977,0.2683188021183014,-17.627025604248047,0,0
393985.122,-0.2637559473514557,-0.024416644126176834,-2.0843515396118164,0.010331394150853157,0.013490704819560051,0.9887568950653076,33749.0,0.47562962770462036,-0.4476819634437561,-17.631196975708008,0.168580561876297,-4.553300857543945,0.17907419800758362,-0.0842374861240387,-0.019742142409086227,0.0003861465665977448,830.1905517578125,-1298.957763671875,0,-95.23098754882812,-33.450103759765625,0.7270169258117676,0.4334932863712311,0.3079112470149994,-17.660978317260742,0,0
393987.077,0.3325813114643097,-0.18548324704170227,-1.724134922027588,0.008326680399477482,0.012359729036688805,0.9890063405036926,33749.0,0.47562962770462036,-0.4476819634437561,-17.631196975708008,0.16540870070457458,-4.5703887939453125,1.4350945949554443,-0.08398809283971786,-0.024288244545459747,0.00045958711416460574,-305.5677795410156,-2030.877197265625,0,-95.25106048583984,-38.35307312011719,0.8325352668762207,0.43406349420547485,0.310001403093338,-17.667917251586914,0,0
393989.048,1.0464450120925903,0.11441470682621002,-1.1370607614517212,0.006321292370557785,0.012635527178645134,0.9893791675567627,33749.0,0.47562962770462036,-0.4476819634437561,-17.631196975708008,0.165658101439476,-4.574934959411621,0.22085468471050262,-0.08373869955539703,-0.028834344819188118,0.0005330276908352971,350.2314147949219,-2347.331298828125,0,-94.97098541259766,-43.974456787109375,0.8778896331787109,0.43406349420547485,0.310001403093338,-17.667917251586914,0,0
393991.081,1.2830688953399658,0.4044327437877655,-0.7723711729049683,-0.0014414298348128796,0.012295297347009182,0.9931898713111877,33749.0,0.47562962770462036,-0.7801629304885864,-17.631196975708008,0.18186111748218536,-6.611490249633789,0.786076009273529,-0.08347336947917938,-0.035410426557064056,0.0006127129308879375,434.965087890625,-4866.982421875,0,-94.38468933105469,-51.869014739990234,0.9299417734146118,0.43140721321105957,0.3158504068851471,-17.671039581298828,0,0
393993.007,1.1357272863388062,0.31907862424850464,-0.12264329195022583,-0.002064546337351203,0.01413035485893488,0.9946798086166382,33749.0,0.47562962770462036,-0.7801629304885864,-17.631196975708008,0.18212644755840302,-6.618066310882568,0.2397480309009552,-0.08320803940296173,-0.041986506432294846,0.000692398170940578,-74.94319152832031,-1822.11474609375,0,-93.88348388671875,-59.62281036376953,0.9420456290245056,0.43140721321105957,0.3158504068851471,-17.671039581298828,0,0
393995.018,1.2267649173736572,0.7163557410240173,0.005813441704958677,-0.00593908503651619,0.013586294837296009,0.9969847202301025,33749.0,0.47562962770462036,-0.7801629304885864,-17.631196975708008,0.20813649892807007,-6.658902645111084,0.24051818251609802,-0.0829169824719429,-0.048596810549497604,0.0007720910361967981,667.2730102539062,-2203.76806640625,0,-92.95899200439453,-67.50847625732422,0.9498847126960754,0.42712071537971497,0.32155463099479675,-17.671043395996094,0,0
393996.963,0.9646925926208496,0.4345640242099762,0.40738874673843384,-0.0029976230580359697,0.010360261425375938,1.0005621910095215,33749.0,0.47562962770462036,-0.7801629304885864,-17.631196975708008,0.2084275484085083,-6.665513038635254,0.23993030190467834,-0.08262592554092407,-0.05520711466670036,0.0008517839014530182,-283.4439697265625,-1663.3623046875,0,-92.31600189208984,-75.13867950439453,0.9442915916442871,0.42712071537971497,0.32155463099479675,-17.671043395996094,0,0
393998.948,0.2750157415866852,0.8760005235671997,0.21995054185390472,-0.0014941999688744545,0.01232985034584999,0.999935507774353,33749.0,0.47562962770462036,-0.7801629304885864,-17.631196975708008,0.23578964173793793,-6.682717323303223,0.0839642807841301,-0.082307830452919,-0.06182800233364105,0.0009297524811699986,772.7415771484375,-980.939208984375,0,-91.20420837402344,-82.0964126586914,0.9397496581077576,0.42261338233947754,0.32331857085227966,-17.670181274414062,0,0
394000.974,-0.8066800236701965,0.03684807941317558,0.1595144122838974,-0.0016583034303039312,0.01132990512996912,1.005074381828308,33749.0,0.47562962770462036,-0.7801629304885864,-17.631196975708008,0.236107736825943,-6.689338207244873,0.23491351306438446,-0.08198973536491394,-0.06844888627529144,0.001007721060886979,-1071.2352294921875,-214.79974365234375,0,-90.9312515258789,-87.97907257080078,0.9422680139541626,0.42261338233947754,0.32331857085227966,-17.670181274414062,0,0
394002.918,-0.7458890080451965,-0.099551260471344,0.16411732137203217,-0.002653124276548624,0.017741572111845016,0.9990118741989136,33749.0,0.47562962770462036,-0.7801629304885864,-17.631196975708008,0.24073490500450134,-6.6849846839904785,0.12451662868261337,-0.08166733384132385,-0.07505881786346436,0.0010844689095392823,-220.2093505859375,-1649.239013671875,0,-90.79006958007812,-93.91816711425781,0.9409453868865967,0.42189592123031616,0.3214913010597229,-17.669570922851562,0,0
394004.904,-0.5768409371376038,-1.1244245767593384,0.10690904408693314,-0.004516707267612219,0.01977458782494068,0.999377429485321,33749.0,0.47562962770462036,-0.7801629304885864,-17.631196975708008,0.24105730652809143,-6.69159460067749,0.23140490055084229,-0.08134493231773376,-0.08166873455047607,0.0011612167581915855,-1593.203857421875,-1848.294189453125,0,-91.6734390258789,-100.03292083740234,0.9451035261154175,0.42189592123031616,0.3214913010597229,-17.669570922851562,0,0
394006.864,-0.1833428591489792,-1.0749716758728027,0.03454731032252312,-0.0009006655309349298,0.025841722264885902,0.9925379157066345,33749.0,0.47562962770462036,-0.7801629304885864,-17.631196975708008,0.2213939130306244,-6.705301284790039,0.21939845383167267,-0.08104249089956284,-0.08828575164079666,0.001237831194885075,-268.68450927734375,-2246.05029296875,0,-92.52701568603516,-106.55487060546875,0.9512775540351868,0.42522355914115906,0.3226729929447174,-17.669504165649414,0,0
394008.835,-0.6098867058753967,-1.8682265281677246,-0.5040397047996521,0.0016190779861062765,0.02165294997394085,0.9858754873275757,33749.0,0.47562962770462036,-0.7801629304885864,-17.631196975708008,0.22169634699821472,-6.711918354034424,0.231157585978508,-0.0807400569319725,-0.09490276873111725,0.0013144456315785646,-1496.99658203125,-1113.2564697265625,0,-94.17355346679688,-112.65690612792969,0.9758331179618835,0.42522355914115906,0.3226729929447174,-17.669504165649414,0,0
394022.699,-1.441253662109375,-1.6039708852767944,-3.1833550930023193,0.013749932870268822,0.012833830900490284,1.0065771341323853,33749.0,0.153749480843544,-0.7801629304885864,-17.631196975708008,-1.8753347396850586,-6.669771671295166,2.6956787109375,-0.0927361473441124,-0.1408957690000534,0.002092609414830804,-899.4111328125,-1045.21044921875,0,-118.05768585205078,-150.40261840820312,1.8232203722000122,0.4508492350578308,0.3079831004142761,-17.706565856933594,0,0
394024.694,-1.3065422773361206,-0.7196950912475586,-2.8997714519500732,0.012235261499881744,0.012632234022021294,0.997052788734436,33749.0,0.153749480843544,-0.7801629304885864,-17.631196975708008,-1.877117395401001,-6.676300525665283,0.454456627368927,-0.09451874345541,-0.1474246382713318,0.0022433472331613302,333.25897216796875,-1674.7620849609375,0,-120.65449523925781,-155.77236938476562,1.9352517127990723,0.4508492350578308,0.3079831004142761,-17.706565856933594,0,0
394026.657,-1.1454704999923706,-0.18953937292099,-2.372377634048462,0.013092225417494774,0.017532801255583763,1.00003981590271,33749.0,0.153749480843544,-0.7801629304885864,-17.631196975708008,-1.8847168684005737,-6.662757873535156,2.180777072906494,-0.09630715101957321,-0.15393346548080444,0.0024131585378199816,11.902534484863281,-1725.0228271484375,0,-122.72875213623047,-161.28965759277344,2.087327003479004,0.45181775093078613,0.30464115738868713,-17.716102600097656,0,0
394028.632,-0.151727095246315,0.1822514832019806,-1.6837877035140991,0.01299923937767744,0.01619432121515274,1.0009331703186035,33749.0,0.153749480843544,-0.7801629304885864,-17.631196975708008,-1.8865052461624146,-6.669266700744629,0.5120167136192322,-0.09809555858373642,-0.1604422926902771,0.002582969842478633,-87.99346160888672,-3047.50732421875,0,-124.4330062866211,-167.8072052001953,2.1606667041778564,0.45181775093078613,0.30464115738868713,-17.716102600097656,0,0
394030.666,0.9839699864387512,-0.22402845323085785,-0.9167149662971497,0.011657504364848137,0.016347600147128105,1.015052080154419,33749.0,0.153749480843544,-0.7801629304885864,-17.631196975708008,-1.8942387104034424,-6.7058424949646,1.1847021579742432,-0.09988991171121597,-0.16698116064071655,0.002760212169960141,-1173.634521484375,-3563.29150390625,0,-126.55126953125,-175.4970245361328,2.230854034423828,0.45280763506889343,0.3096473217010498,-17.719818115234375,0,0
394032.593,2.588733434677124,-0.07054167240858078,-0.2991742491722107,0.00903510395437479,0.013148177415132523,1.0065327882766724,33749.0,0.153749480843544,-0.7801629304885864,-17.631196975708008,-1.8960330486297607,-6.712381362915039,0.5346642732620239,-0.10168426483869553,-0.1735200136899948,0.0029374544974416494,-430.5460510253906,-4524.205078125,0,-128.51785278320312,-184.7981414794922,2.25870418548584,0.45280763506889343,0.3096473217010498,-17.719818115234375,0,0
394034.598,3.3531839847564697,0.017561879009008408,-0.1152382642030716,0.009922118857502937,0.013878768309950829,1.0038623809814453,33749.0,0.153749480843544,-0.7801629304885864,-17.631196975708008,-1.8972102403640747,-6.804457664489746,0.6259832978248596,-0.10347799211740494,-0.18014433979988098,0.0031157038174569607,-491.6516418457031,-3805.024169921875,0,-130.39749145507812,-194.95578002929688,2.283461093902588,0.45270487666130066,0.32388925552368164,-17.720321655273438,0,0
394036.555,3.3142008781433105,1.1575381755828857,-0.0121659180149436,0.012030884623527527,0.01057552918791771,1.002610206604004,33749.0,0.153749480843544,-0.7801629304885864,-17.631196975708008,-1.8990039825439453,-6.811081886291504,0.5380420088768005,-0.10527171939611435,-0.18676865100860596,0.003293953137472272,1106.2227783203125,-2695.95263671875,0,-131.1389617919922,-205.0810546875,2.3018381595611572,0.45270487666130066,0.32388925552368164,-17.720321655273438,0,0
394038.535,2.6656830310821533,1.8791955709457397,0.014305716380476952,0.013335535302758217,0.01096257008612156,1.0065540075302124,33749.0,0.153749480843544,-0.7801629304885864,-17.631196975708008,-1.8574585914611816,-6.88496208190918,0.5268275737762451,-0.10702215135097504,-0.19346016645431519,0.00347207672894001,828.3204345703125,-1883.99609375,0,-131.11721801757812,-214.6317138671875,2.3189563751220703,0.4454888701438904,0.33508747816085815,-17.720258712768555,0,0
394040.554,2.378150701522827,3.2083380222320557,0.00931311771273613,0.013669085688889027,0.00966047402471304,0.9960019588470459,33749.0,0.153749480843544,-0.7801629304885864,-17.631196975708008,-1.8592090606689453,-6.891653537750244,0.5380206108093262,-0.10877258330583572,-0.20015166699886322,0.0036502003204077482,1866.754150390625,-2190.301513671875,0,-129.76808166503906,-223.90150451660156,2.3366153240203857,0.4454888701438904,0.33508747816085815,-17.720258712768555,0,0
394042.489,1.9832797050476074,3.402940511703491,0.2130066305398941,0.018592284992337227,0.013537055812776089,0.9839781522750854,33749.0,0.153749480843544,-0.7801629304885864,-17.631196975708008,-1.7843043804168701,-6.950625419616699,0.3766292631626129,-0.11044643819332123,-0.2068953812122345,0.0038265385664999485,613.3935546875,-2046.4373779296875,0,-128.14944458007812,-232.83541870117188,2.3420803546905518,0.43272578716278076,0.3437921106815338,-17.7193660736084,0,0
394044.485,1.1306370496749878,3.2856104373931885,0.07544852793216705,0.015905503183603287,0.011430167593061924,0.9761980175971985,33749.0,0.153749480843544,-0.7801629304885864,-17.631196975708008,-1.7859781980514526,-6.957369327545166,0.5330174565315247,-0.11212029308080673,-0.21363911032676697,0.004002876579761505,99.50338745117188,-1205.5517578125,0,-126.64981079101562,-240.9234161376953,2.357362985610962,0.43272578716278076,0.3437921106815338,-17.7193660736084,0,0
394046.446,0.3842651844024658,1.7653522491455078,0.002338775433599949,0.014097064733505249,0.01267612911760807,0.968681275844574,33749.0,0.153749480843544,-0.7801629304885864,-17.631196975708008,-1.74793541431427,-6.977569580078125,0.5307771563529968,-0.11375447362661362,-0.2203962802886963,0.004179188050329685,-1975.04736328125,-1181.029541015625,0,-126.63239288330078,-248.28524780273438,2.3750128746032715,0.42611297965049744,0.34603258967399597,-17.71935272216797,0,0
394048.421,-0.06794688105583191,0.07744336873292923,-0.07145921140909195,0.009806663729250431,0.011812913231551647,0.9640567302703857,33749.0,0.153749480843544,-0.7801629304885864,-17.631196975708008,-1.7495695352554321,-6.9843268394470215,0.5332899689674377,-0.1153886541724205,-0.2271534651517868,0.004355499520897865,-2658.2646484375,-1427.4783935546875,0,-128.30450439453125,-255.20164489746094,2.395211696624756,0.42611297965049744,0.34603258967399597,-17.71935272216797,0,0
394050.479,-0.23343999683856964,-1.5285799503326416,-0.1643918752670288,0.009843751788139343,0.015578948892652988,0.9602092504501343,33749.0,0.153749480843544,-0.7801629304885864,-17.631196975708008,-1.7880518436431885,-6.991428375244141,0.6667265892028809,-0.11705964803695679,-0.23391097784042358,0.0045332834124565125,-3016.410888671875,-1753.46728515625,0,-131.6211395263672,-261.9596252441406,2.42297101020813,0.43224817514419556,0.3460899293422699,-17.720088958740234,0,0
394052.375,-0.6794654726982117,-1.8666220903396606,-0.47506043314933777,0.00550526287406683,0.016076602041721344,0.9696903824806213,33749.0,0.153749480843544,-0.7801629304885864,-17.631196975708008,-1.7897229194641113,-6.998185634613037,0.5380629897117615,-0.11873064190149307,-0.24066849052906036,0.00471106730401516,-1474.0050048828125,-1298.873291015625,0,-135.27748107910156,-268.2783203125,2.4568092823028564,0.43224817514419556,0.3460899293422699,-17.720088958740234,0,0
394054.39,-1.341307520866394,-1.8074737787246704,-0.8709062933921814,0.00437739584594965,0.020404694601893425,0.977471649646759,33749.0,0.153749480843544,-0.7801629304885864,-17.631196975708008,-1.8316181898117065,-6.9813385009765625,1.1845186948776245,-0.12044180929660797,-0.24740242958068848,0.004895992577075958,-1027.1234130859375,-835.564208984375,0,-138.91656494140625,-273.9183654785156,2.5254604816436768,0.43894556164741516,0.3421597182750702,-17.72365951538086,0,0
394056.335,-1.5979795455932617,-2.0142860412597656,-1.5002771615982056,-0.0011181625304743648,0.01825864426791668,0.9880489110946655,33749.0,0.153749480843544,-0.7801629304885864,-17.631196975708008,-1.833329439163208,-6.988072872161865,0.5598561763763428,-0.12215298414230347,-0.2541363537311554,0.005080917850136757,-1365.3223876953125,-1314.409912109375,0,-142.76417541503906,-279.3084716796875,2.594268798828125,0.43894556164741516,0.3421597182750702,-17.72365951538086,0,0
394058.32,-1.1799049377441406,-2.014956474304199,-1.7155752182006836,-0.004985031206160784,0.017532408237457275,0.9908275008201599,33749.0,0.153749480843544,-0.7801629304885864,-17.631196975708008,-1.8748761415481567,-6.973540306091309,1.8187638521194458,-0.12390395253896713,-0.2608490586280823,0.005279751494526863,-1171.8834228515625,-2237.9384765625,0,-146.6540069580078,-285.10211181640625,2.712315559387207,0.4455781877040863,0.33861902356147766,-17.730613708496094,0,0
394060.351,-0.937835156917572,-1.9643521308898926,-1.6812113523483276,-0.007451842539012432,0.0161505788564682,1.0000619888305664,33749.0,0.153749480843544,-0.7801629304885864,-17.631196975708008,-1.8766270875930786,-6.980253219604492,0.6019789576530457,-0.1256549209356308,-0.26756173372268677,0.005478585138916969,-1049.6729736328125,-2112.727294921875,0,-150.4949951171875,-291.14453125,2.78857421875,0.4455781877040863,0.33861902356147766,-17.730613708496094,0,0
394062.28,-0.3847942054271698,-0.9157575368881226,-1.4133981466293335,-0.00817448366433382,0.013347262516617775,1.0080914497375488,33749.0,0.153749480843544,-0.7801629304885864,-17.631196975708008,-1.890200138092041,-6.982351779937744,1.6371890306472778,-0.1274176985025406,-0.27426984906196594,0.005688854958862066,438.9862060546875,-2641.05615234375,0,-153.3009490966797,-297.7420654296875,2.8904640674591064,0.4475465714931488,0.3378506302833557,-17.736331939697266,0,0
394064.275,-0.29907646775245667,-0.28758561611175537,-0.8532951474189758,-0.009797259233891964,0.011572720482945442,1.01752769947052,33749.0,0.153749480843544,-0.7801629304885864,-17.631196975708008,-1.891963005065918,-6.9890594482421875,0.6367089152336121,-0.12918049097061157,-0.28097793459892273,0.005899124778807163,82.64352416992188,-2092.45947265625,0,-155.48049926757812,-304.43206787109375,2.940230131149292,0.4475465714931488,0.3378506302833557,-17.736331939697266,0,0
394066.237,0.2799241542816162,1.3007135391235352,-0.20830117166042328,-0.01291684526950121,0.012918321415781975,1.0192539691925049,33749.0,0.153749480843544,-0.7801629304885864,-17.631196975708008,-1.8501431941986084,-7.006593227386475,0.7891673445701599,-0.13089972734451294,-0.28769683837890625,0.006111077032983303,1744.261474609375,-2879.015625,0,-156.02993774414062,-311.7185974121094,2.973545551300049,0.44029003381729126,0.3396530747413635,-17.737173080444336,0,0
394068.216,-0.1468985378742218,2.182689905166626,0.3873532712459564,-0.010889843106269836,0.013960018754005432,1.020134687423706,33749.0,0.153749480843544,-0.7801629304885864,-17.631196975708008,-1.8518624305725098,-7.013312339782715,0.6421796679496765,-0.1326189637184143,-0.2944157123565674,0.006323029287159443,1027.3291015625,-1510.05908203125,0,-155.69911193847656,-318.58502197265625,2.9820566177368164,0.44029003381729126,0.3396530747413635,-17.737173080444336,0,0
394070.247,0.08090411126613617,3.726576566696167,1.2254279851913452,-0.00881196092814207,0.016551796346902847,1.0184231996536255,33749.0,0.153749480843544,-0.7801629304885864,-17.631196975708008,-1.754379153251648,-7.027747631072998,-0.25314515829086304,-0.1342391073703766,-0.30114230513572693,0.006525086238980293,2391.034912109375,-2405.654052734375,0,-153.72691345214844,-325.69366455078125,2.9326722621917725,0.42377281188964844,0.34093791246414185,-17.73222541809082,0,0
394072.17,0.4860251247882843,3.653174877166748,1.9495455026626587,-0.00427926704287529,0.01466932613402605,1.0173357725143433,33749.0,0.153749480843544,-1.5569156408309937,-17.631196975708008,-1.7559993267059326,-11.699650764465332,0.6128978133201599,-0.13585925102233887,-0.31252944469451904,0.006727143190801144,228.68682861328125,-9730.578125,0,-151.82974243164062,-337.87933349609375,2.888028144836426,0.42377281188964844,0.34093791246414185,-17.73222541809082,0,0
394074.182,1.4768482446670532,3.7233023643493652,2.339141845703125,-0.0038626177702099085,0.0092551214620471,1.0193558931350708,33749.0,0.153749480843544,-1.5569156408309937,-17.631196975708008,-1.6614627838134766,-11.748174667358398,-1.0902843475341797,-0.1373833268880844,-0.32395365834236145,0.0069103785790503025,571.5220336914062,-4956.544921875,0,-149.7678985595703,-351.1043395996094,2.7734854221343994,0.40776270627975464,0.34712111949920654,-17.722814559936523,0,0
394076.159,1.622778058052063,2.1798665523529053,2.5415592193603516,-0.0035568438470363617,0.006663525011390448,1.0178142786026,33749.0,0.153749480843544,-1.5569156408309937,-17.631196975708008,-1.6629868745803833,-11.759598731994629,0.5567991137504578,-0.13890740275382996,-0.33537787199020386,0.007093613967299461,-1951.2308349609375,-3906.772705078125,0,-149.2510223388672,-364.4867248535156,2.7071943283081055,0.40776270627975464,0.34712111949920654,-17.722814559936523,0,0
