timestamp,gyro.x,gyro.y,gyro.z,acc.x,acc.y,acc.z,controller.actuatorThrust,controller.pitch,controller.roll,controller.yaw,pid_attitude.pitch_output,pid_attitude.roll_output,pid_attitude.yaw_output,pid_attitude.pitch_outI,pid_attitude.roll_outI,pid_attitude.yaw_outI,pid_rate.pitch_output,pid_rate.roll_output,pid_rate.yaw_output,pid_rate.pitch_outI,pid_rate.roll_outI,pid_rate.yaw_outI,stateEstimate.pitch,stateEstimate.roll,stateEstimate.yaw,pid_rate.pitch_output_snn
123956.051,8.11294937133789,87.43569946289062,-0.6146553754806519,0.01609223149716854,-0.010118129663169384,0.954209566116333,41789.0,-9.342870712280273,4.573455333709717,-4.113684177398682,-37.33174133300781,32.94203186035156,18.447315216064453,-0.0,0.0,4.558818340301514,-8117.72802734375,11454.787109375,2499,-15046.11328125,9160.3037109375,279.90521240234375,-3.1209137439727783,-0.9168827533721924,-6.191000461578369,4418
123958.013,9.35208797454834,86.7901611328125,-0.810840904712677,0.01911834441125393,-0.001719823805615306,0.9618979096412659,41789.0,-9.342870712280273,4.573455333709717,-4.113684177398682,-37.33174133300781,32.94203186035156,17.026870727539062,-0.0,0.0,4.5629730224609375,-9217.8134765625,11358.17578125,3073,-14996.654296875,9183.89453125,280.19061279296875,-3.1209137439727783,-0.9168827533721924,-6.191000461578369,6185
123960.026,10.515954971313477,85.94843292236328,-0.7928248047828674,0.023853179067373276,0.004092629533261061,0.9685150384902954,41789.0,-9.342870712280273,4.573455333709717,-4.113684177398682,-35.32014465332031,32.68114471435547,18.56170654296875,-0.0,0.0,4.567144393920898,-7886.3212890625,11086.2373046875,2849,-14946.025390625,9206.0595703125,280.5002746582031,-3.4561800956726074,-0.8734022974967957,-6.199457168579102,7011
123962.012,11.83610725402832,84.94795989990234,-0.7697135806083679,0.024573832750320435,0.0005975824315100908,0.969135046005249,41789.0,-9.342870712280273,4.573455333709717,-4.113684177398682,-35.32014465332031,32.68114471435547,17.085952758789062,-0.0,0.0,4.571315765380859,-9318.2158203125,11007.439453125,1981,-14896.3974609375,9226.9052734375,280.7859802246094,-3.4561800956726074,-0.8734022974967957,-6.199457168579102,5100
123963.956,12.763301849365234,83.49422454833984,-0.7998056411743164,0.023923151195049286,-0.008478506468236446,0.96437007188797,41789.0,-9.342870712280273,4.573455333709717,-4.113684177398682,-33.37049102783203,32.37399673461914,18.560476303100586,-0.0,0.0,4.575503349304199,-8270.857421875,10926.388671875,2641,-14846.2734375,9246.515625,281.0957336425781,-3.7811222076416016,-0.8222105503082275,-6.20758056640625,7869
123965.937,13.79111385345459,81.64791870117188,-0.6956063508987427,0.020669203251600266,-0.018215572461485863,0.9580823183059692,41789.0,-9.342870712280273,4.573455333709717,-4.113684177398682,-33.37049102783203,32.37399673461914,17.143070220947266,-0.0,0.0,4.579690933227539,-9917.2578125,10945.576171875,2837,-14797.9951171875,9265.0986328125,281.38116455078125,-3.7811222076416016,-0.8222105503082275,-6.20758056640625,5466
123967.914,15.219571113586426,79.5412368774414,-0.4886990785598755,0.016338441520929337,-0.025956150144338608,0.9519845247268677,41789.0,-9.342870712280273,4.573455333709717,-4.113684177398682,-31.514225006103516,32.01801681518555,18.315183639526367,-0.0,0.0,4.583891868591309,-8903.1015625,10266.4306640625,1355,-14749.96875,9281.896484375,281.6820373535156,-4.0904998779296875,-0.762880802154541,-6.214033126831055,6338
123969.949,16.769166946411133,77.2095947265625,-0.33150753378868103,0.015064864419400692,-0.027943067252635956,0.949686586856842,41789.0,-9.342870712280273,4.573455333709717,-4.113684177398682,-31.514225006103516,32.01801681518555,17.190185546875,-0.0,0.0,4.588092803955078,-10449.62890625,10234.75390625,2314,-14704.2734375,9297.1455078125,281.9623718261719,-4.0904998779296875,-0.762880802154541,-6.214033126831055,5403
123971.918,18.23299789428711,75.21171569824219,-0.23918089270591736,0.015423046424984932,-0.02597355656325817,0.9505469799041748,41789.0,-9.342870712280273,4.573455333709717,-4.113684177398682,-29.763835906982422,31.589818954467773,18.078357696533203,-0.0,0.0,4.592303276062012,-9132.521484375,9797.587890625,1910,-14658.8251953125,9310.5029296875,282.2554626464844,-4.38223123550415,-0.6915143132209778,-6.218916893005371,4591
123973.869,19.491161346435547,73.2052230834961,-0.21836604177951813,0.01809963397681713,-0.021879464387893677,0.9526272416114807,41789.0,-9.342870712280273,4.573455333709717,-4.113684177398682,-29.763835906982422,31.589818954467773,17.227909088134766,-0.0,0.0,4.596513748168945,-10439.267578125,10048.58203125,3008,-14615.3828125,9322.6015625,282.53460693359375,-4.38223123550415,-0.6915143132209778,-6.218916893005371,6394
123975.844,20.134111404418945,70.88981628417969,-0.17769981920719147,0.02252114750444889,-0.017242364585399628,0.9558291435241699,41789.0,-9.342870712280273,4.573455333709717,-4.113684177398682,-28.12350845336914,31.11134147644043,17.955299377441406,-0.0,0.0,4.600732326507568,-9648.751953125,10004.83984375,1856,-14572.6162109375,9333.578125,282.8247375488281,-4.655619144439697,-0.6117680668830872,-6.222912311553955,4563
123977.796,20.530183792114258,67.96172332763672,-0.12431953102350235,0.025054270401597023,-0.015707897022366524,0.9575724005699158,41789.0,-9.342870712280273,4.573455333709717,-4.113684177398682,-28.12350845336914,31.11134147644043,17.260318756103516,-0.0,0.0,4.604950904846191,-11383.0595703125,10419.2587890625,1401,-14532.7783203125,9344.1591796875,283.1029052734375,-4.655619144439697,-0.6117680668830872,-6.222912311553955,4902
123979.819,21.220138549804688,64.47095489501953,-0.07026835530996323,0.026384342461824417,-0.01685703545808792,0.958186149597168,41789.0,-9.342870712280273,4.573455333709717,-4.113684177398682,-26.641387939453125,30.60688018798828,17.79188346862793,-0.0,0.0,4.609175205230713,-11021.658203125,9780.37890625,2029,-14494.94921875,9353.5458984375,283.3887023925781,-4.902639389038086,-0.5276911854743958,-6.225825786590576,4490
123981.805,22.068941116333008,60.965003967285156,0.00635070726275444,0.024950917810201645,-0.01959666609764099,0.9588645696640015,41789.0,-9.342870712280273,4.573455333709717,-4.113684177398682,-26.641387939453125,30.60688018798828,17.2862491607666,-0.0,0.0,4.613399505615234,-12361.392578125,9898.8251953125,2191,-14460.6259765625,9362.083984375,283.6651916503906,-4.902639389038086,-0.5276911854743958,-6.225825786590576,5822
123983.748,22.75771141052246,57.778465270996094,0.012319394387304783,0.021286310628056526,-0.021622514352202415,0.9602795839309692,41789.0,-9.342870712280273,4.573455333709717,-4.113684177398682,-25.318721771240234,30.06859016418457,17.6556453704834,-0.0,0.0,4.6176276206970215,-11535.6171875,9516.3427734375,1941,-14428.1650390625,9369.3955078125,283.9474792480469,-5.123083591461182,-0.4379761815071106,-6.227843284606934,4187
123985.712,23.354902267456055,54.44247817993164,-0.060190942138433456,0.019038207828998566,-0.020350530743598938,0.9610056281089783,41789.0,-9.342870712280273,4.573455333709717,-4.113684177398682,-25.318721771240234,30.06859016418457,17.30681037902832,-0.0,0.0,4.621855735778809,-12843.564453125,9842.076171875,2580,-14399.0419921875,9376.109375,284.225341796875,-5.123083591461182,-0.4379761815071106,-6.227843284606934,4028
123987.7,24.258438110351562,50.81727600097656,-0.196182981133461,0.018140939995646477,-0.018695704638957977,0.958582878112793,41789.0,-9.342870712280273,4.573455333709717,-4.113684177398682,-24.16292953491211,29.49368667602539,17.7243709564209,-0.0,0.0,4.626088619232178,-12583.9755859375,9111.7265625,2287,-14372.3876953125,9381.3447265625,284.5120849609375,-5.315715789794922,-0.3421591818332672,-6.230126857757568,2990
123989.701,25.29633903503418,46.93141174316406,-0.41742199659347534,0.01857738383114338,-0.016516614705324173,0.9554460048675537,41789.0,-9.342870712280273,4.573455333709717,-4.113684177398682,-24.16292953491211,29.49368667602539,17.328977584838867,-0.0,0.0,4.630321502685547,-13932.224609375,9261.5224609375,2380,-14349.6201171875,9385.5419921875,284.7960205078125,-5.315715789794922,-0.3421591818332672,-6.230126857757568,1138
123991.711,26.06014060974121,42.859378814697266,-0.564682126045227,0.018925806507468224,-0.014104780741035938,0.952422022819519,41789.0,-9.342870712280273,4.573455333709717,-4.113684177398682,-23.199867248535156,28.874481201171875,17.917173385620117,-0.0,0.0,4.634561061859131,-13815.62890625,8875.76953125,1699,-14329.9609375,9388.3564453125,285.09173583984375,-5.476226329803467,-0.23895850777626038,-6.233353137969971,2920
123993.639,26.617706298828125,39.11964416503906,-0.5307729840278625,0.017679261043667793,-0.014709112234413624,0.947892963886261,41789.0,-9.342870712280273,4.573455333709717,-4.113684177398682,-23.199867248535156,28.874481201171875,17.356815338134766,-0.0,0.0,4.638800621032715,-14661.40234375,9324.23046875,1586,-14314.041015625,9390.6123046875,285.3779296875,-5.476226329803467,-0.23895850777626038,-6.233353137969971,1836
123995.627,26.78364372253418,35.144691467285156,-0.3616980314254761,0.016840055584907532,-0.014835567213594913,0.9475236535072327,41789.0,-9.342870712280273,4.573455333709717,-4.113684177398682,-22.421682357788086,28.238704681396484,17.727001190185547,-0.0,0.0,4.6430439949035645,-14708.921875,9072.8798828125,1761,-14301.318359375,9392.068359375,285.6673583984375,-5.605923652648926,-0.1329958289861679,-6.235374927520752,1182
123997.587,26.906217575073242,31.148107528686523,-0.44419682025909424,0.015581545419991016,-0.016029173508286476,0.9470053315162659,41789.0,-9.342870712280273,4.573455333709717,-4.113684177398682,-22.421682357788086,28.238704681396484,17.377431869506836,-0.0,0.0,4.647287368774414,-15699.6533203125,9483.3525390625,2119,-14292.591796875,9393.400390625,285.9525146484375,-5.605923652648926,-0.1329958289861679,-6.235374927520752,1172
123999.598,27.3403263092041,27.066242218017578,-0.7124155163764954,0.015499366447329521,-0.016259364783763885,0.9458749890327454,41789.0,-9.342870712280273,4.573455333709717,-4.113684177398682,-21.83719825744629,27.59210968017578,17.953296661376953,-0.0,0.0,4.65153694152832,-15819.595703125,8749.685546875,2258,-14287.36328125,9393.65234375,286.25115966796875,-5.703337669372559,-0.025229254737496376,-6.238533020019531,-531
124001.588,28.17836570739746,23.19519805908203,-0.8381842970848083,0.017964590340852737,-0.01885000243782997,0.9462743401527405,41789.0,-9.342870712280273,4.573455333709717,-4.113684177398682,-21.83719825744629,27.59210968017578,17.40488052368164,-0.0,0.0,4.655786514282227,-16535.65625,8796.0087890625,2002,-14286.0048828125,9393.0654296875,286.5430603027344,-5.703337669372559,-0.025229254737496376,-6.238533020019531,-2488
124003.543,28.79949188232422,19.701379776000977,-0.8902130722999573,0.021013176068663597,-0.022795218974351883,0.9452365636825562,41789.0,-9.342870712280273,4.573455333709717,-4.113684177398682,-21.432903289794922,26.91566276550293,18.090274810791016,-0.0,0.0,4.660043716430664,-16435.12890625,8344.7197265625,2331,-14287.7373046875,9391.181640625,286.84674072265625,-5.7707200050354,0.08751150965690613,-6.24229621887207,-2519
124005.502,28.90785026550293,15.323586463928223,-1.1610409021377563,0.02396583743393421,-0.025878163054585457,0.9452036023139954,41789.0,-9.342870712280273,4.573455333709717,-4.113684177398682,-21.432903289794922,26.91566276550293,17.43597412109375,-0.0,0.0,4.664300918579102,-17793.630859375,9072.4423828125,1001,-14293.845703125,9389.189453125,287.144287109375,-5.7707200050354,0.08751150965690613,-6.24229621887207,-2647
124007.489,28.652851104736328,10.615113258361816,-1.4311859607696533,0.025595752522349358,-0.029955144971609116,0.9459018111228943,41789.0,-9.342870712280273,4.573455333709717,-4.113684177398682,-21.24909782409668,26.24925994873047,18.520122528076172,-0.0,0.0,4.668570041656494,-18461.64453125,8829.2099609375,1297,-14304.48046875,9386.7861328125,287.4635009765625,-5.80135440826416,0.19857892394065857,-6.248262405395508,-4349
124009.487,28.186565399169922,6.714941501617432,-1.6267727613449097,0.025796743109822273,-0.029466765001416206,0.9440491199493408,41789.0,-9.342870712280273,4.573455333709717,-4.113684177398682,-21.24909782409668,26.24925994873047,17.480308532714844,-0.0,0.0,4.672839164733887,-18573.392578125,9434.115234375,1774,-14319.0146484375,9384.849609375,287.76922607421875,-5.80135440826416,0.19857892394065857,-6.248262405395508,-4178
124011.492,27.665138244628906,3.607297897338867,-1.6652120351791382,0.026142241433262825,-0.02644832618534565,0.9421774744987488,41789.0,-9.342870712280273,4.573455333709717,-4.113684177398682,-21.233488082885742,25.606266021728516,18.7401065826416,-0.0,0.0,4.677122116088867,-18472.435546875,9049.453125,1206,-14336.640625,9382.791015625,288.095703125,-5.803956031799316,0.3057441711425781,-6.255198955535889,-6418
124013.416,27.36104965209961,0.47414425015449524,-1.674311637878418,0.026026874780654907,-0.024027273058891296,0.9393711090087891,41789.0,-9.020027160644531,4.573455333709717,-4.113684177398682,-19.29642677307129,25.606266021728516,17.530494689941406,-0.0,0.0,4.681405067443848,-17455.806640625,9351.7431640625,2737,-14355.462890625,9381.0361328125,288.4029846191406,-5.803956031799316,0.3057441711425781,-6.255198955535889,-4909
124015.405,27.380685806274414,-3.2274723052978516,-1.8487765789031982,0.026475610211491585,-0.019574087113142014,0.9368863105773926,41789.0,-9.020027160644531,4.573455333709717,-4.113684177398682,-19.44451141357422,24.967727661132812,18.941173553466797,-0.0,0.0,4.685703754425049,-19618.1953125,8665.64453125,2481,-14378.134765625,9378.623046875,288.7356262207031,-5.779275417327881,0.4121675193309784,-6.262969017028809,-8196
124017.374,27.50310707092285,-6.870540142059326,-2.0494470596313477,0.02701655961573124,-0.016933515667915344,0.9361076354980469,41789.0,-9.020027160644531,4.573455333709717,-4.113684177398682,-19.44451141357422,24.967727661132812,17.585712432861328,-0.0,0.0,4.69000244140625,-19970.748046875,8982.6513671875,2725,-14404.44921875,9376.0869140625,289.0497741699219,-5.779275417327881,0.4121675193309784,-6.262969017028809,-5423
124019.387,27.296464920043945,-10.265274047851562,-2.1209371089935303,0.02699008397758007,-0.015155568718910217,0.9382765889167786,41789.0,-9.020027160644531,4.573455333709717,-4.113684177398682,-19.760822296142578,24.330413818359375,19.235395431518555,-0.0,0.0,4.694319248199463,-20507.140625,8733.1953125,1620,-14434.4755859375,9373.12109375,289.3914794921875,-5.726556777954102,0.5183866024017334,-6.272059440612793,-6539
124021.38,26.737253189086914,-13.849145889282227,-2.1580896377563477,0.02688155137002468,-0.01258353516459465,0.9434253573417664,41789.0,-9.020027160644531,4.573455333709717,-4.113684177398682,-19.760822296142578,24.330413818359375,17.648887634277344,-0.0,0.0,4.698636054992676,-20909.25390625,9419.3662109375,2351,-14468.0859375,9370.7138671875,289.7084045410156,-5.726556777954102,0.5183866024017334,-6.272059440612793,-7008
124023.326,26.043380737304688,-16.713104248046875,-2.3321335315704346,0.02426452375948429,-0.013198948465287685,0.9493669867515564,41789.0,-8.69814682006836,4.573455333709717,-4.113684177398682,-18.29766845703125,23.723594665527344,19.510648727416992,-0.0,0.0,4.702973365783691,-19754.9453125,9132.8291015625,3052,-14503.0966796875,9368.39453125,290.0578918457031,-5.648535251617432,0.6195228099822998,-6.282321453094482,-7620
124025.289,24.972782135009766,-19.13811683654785,-2.406963586807251,0.02454506605863571,-0.015381722711026669,0.9528174996376038,41789.0,-8.69814682006836,4.573455333709717,-4.113684177398682,-18.29766845703125,23.723594665527344,17.719135284423828,-0.0,0.0,4.707310676574707,-20735.63671875,9880.12109375,2161,-14540.5322265625,9367.1455078125,290.3799133300781,-5.648535251617432,0.6195228099822998,-6.282321453094482,-8852
124027.282,24.067649841308594,-21.526336669921875,-2.223405122756958,0.025551358237862587,-0.01852724701166153,0.9528107643127441,41789.0,-8.69814682006836,4.573455333709717,-4.113684177398682,-18.880754470825195,23.168046951293945,19.574270248413086,-0.0,0.0,4.711668491363525,-21488.890625,9472.2861328125,2249,-14580.939453125,9366.24609375,290.7286682128906,-5.55135440826416,0.7121140360832214,-6.29254674911499,-9050
124029.274,23.41101837158203,-23.32170295715332,-1.8242839574813843,0.026587538421154022,-0.021703364327549934,0.9507443308830261,41789.0,-8.69814682006836,4.573455333709717,-4.113684177398682,-18.880754470825195,23.168046951293945,17.789201736450195,-0.0,0.0,4.716026306152344,-21020.5546875,9746.0263671875,2462,-14623.1416015625,9366.0029296875,291.04248046875,-5.55135440826416,0.7121140360832214,-6.29254674911499,-9145
124031.31,22.73587417602539,-25.106809616088867,-1.5067511796951294,0.029332594946026802,-0.021963942795991898,0.9481490254402161,41789.0,-8.69814682006836,4.573455333709717,-4.113684177398682,-19.55091094970703,22.64580535888672,19.18942642211914,-0.0,0.0,4.720399379730225,-21784.5546875,9450.21875,2775,-14667.798828125,9365.9130859375,291.3736267089844,-5.439661502838135,0.79915452003479,-6.300258636474609,-8925
124033.209,21.93166160583496,-26.66004180908203,-1.3912867307662964,0.027491260319948196,-0.020564505830407143,0.950361967086792,41789.0,-8.69814682006836,4.573455333709717,-4.113684177398682,-19.55091094970703,22.64580535888672,17.844219207763672,-0.0,0.0,4.7247724533081055,-21461.1484375,9958.5283203125,2173,-14714.009765625,9366.6279296875,291.681396484375,-5.439661502838135,0.79915452003479,-6.300258636474609,-9309
124035.194,20.938947677612305,-28.268972396850586,-1.4245625734329224,0.023816049098968506,-0.018761884421110153,0.9543113708496094,41789.0,-8.69814682006836,4.573455333709717,-4.113684177398682,-20.292360305786133,22.16550636291504,19.240230560302734,-0.0,0.0,4.729160785675049,-22301.724609375,9841.43359375,2225,-14762.5712890625,9367.8544921875,292.01202392578125,-5.316086769104004,0.8792041540145874,-6.307947158813477,-9772
124037.163,20.180545806884766,-29.82982063293457,-1.4433135986328125,0.0192867424339056,-0.016943976283073425,0.9609230160713196,41789.0,-8.69814682006836,4.573455333709717,-4.113684177398682,-20.292360305786133,22.16550636291504,17.899127960205078,-0.0,0.0,4.733549118041992,-22053.49609375,10091.9599609375,2444,-14812.693359375,9369.8388671875,292.3215026855469,-5.316086769104004,0.8792041540145874,-6.307947158813477,-10311
124039.176,19.63463020324707,-30.766752243041992,-1.294736385345459,0.014376559294760227,-0.016373006626963615,0.9671487212181091,41789.0,-8.69814682006836,4.573455333709717,-4.113684177398682,-21.086868286132812,21.715557098388672,19.25389862060547,-0.0,0.0,4.737952709197998,-22428.400390625,9692.0146484375,2308,-14864.546875,9371.919921875,292.6502685546875,-5.183668613433838,0.9541958570480347,-6.315407752990723,-9818
124041.192,18.70916175842285,-31.5504207611084,-1.0643128156661987,0.01130196824669838,-0.01611855812370777,0.9706913232803345,41789.0,-8.69814682006836,4.573455333709717,-4.113684177398682,-21.086868286132812,21.715557098388672,17.95269775390625,-0.0,0.0,4.742356300354004,-21986.63671875,10329.142578125,3950,-14917.18359375,9374.92578125,292.95452880859375,-5.183668613433838,0.9541958570480347,-6.315407752990723,-10030
124043.109,17.3619384765625,-32.001441955566406,-0.944463312625885,0.009832865558564663,-0.016237787902355194,0.9729740619659424,41789.0,-7.083927631378174,4.573455333709717,-4.113684177398682,-12.221855163574219,21.32000732421875,19.095596313476562,-0.0,0.0,4.746772289276123,-15230.572265625,10468.4384765625,2972,-14961.40625,9378.8837890625,293.2751770019531,-5.046951770782471,1.0201208591461182,-6.32169771194458,-9983
124045.081,16.19313621520996,-32.176246643066406,-1.1034742593765259,0.01140637043863535,-0.011879065074026585,0.9689468741416931,41789.0,-7.083927631378174,4.573455333709717,-4.113684177398682,-12.221855163574219,21.32000732421875,17.999269485473633,-0.0,0.0,4.751188278198242,-20664.8203125,10755.37109375,2650,-15005.8046875,9384.0107421875,293.580810546875,-5.046951770782471,1.0201208591461182,-6.32169771194458,-9957
124047.07,15.357969284057617,-32.72346878051758,-1.1984280347824097,0.015660490840673447,-0.0031149399001151323,0.9613903164863586,41789.0,-7.083927631378174,4.573455333709717,-4.113684177398682,-13.061345100402832,20.96636962890625,19.3421573638916,-0.0,0.0,4.755619049072266,-21641.38671875,10391.625,2708,-15051.58984375,9389.619140625,293.9094543457031,-4.907036781311035,1.0790605545043945,-6.329092502593994,-9780
124049.066,14.714653015136719,-32.964210510253906,-0.9202969670295715,0.020294848829507828,0.004765667486935854,0.9541547894477844,41789.0,-7.083927631378174,4.573455333709717,-4.113684177398682,-13.061345100402832,20.96636962890625,18.052499771118164,-0.0,0.0,4.760049819946289,-21001.2734375,10579.4072265625,2694,-15097.615234375,9395.8701171875,294.2130126953125,-4.907036781311035,1.0790605545043945,-6.329092502593994,-10311
124051.079,13.63181209564209,-32.358123779296875,-0.49803993105888367,0.02529570274055004,0.01027547474950552,0.946780264377594,41789.0,-7.083927631378174,4.573455333709717,-4.113684177398682,-13.89675521850586,20.645524978637695,18.885147094726562,-0.0,0.0,4.764489650726318,-21069.05859375,10755.845703125,2790,-15143.8701171875,9402.8837890625,294.52313232421875,-4.767801761627197,1.132534384727478,-6.333668231964111,-10301
124052.998,12.21039867401123,-30.931116104125977,-0.11830193549394608,0.027749037370085716,0.003864501602947712,0.946101188659668,41789.0,-6.655075550079346,3.57601261138916,-4.113684177398682,-11.32364273071289,14.660868644714355,18.08883285522461,-0.0,0.0,4.768929481506348,-17967.896484375,6859.6162109375,2848,-15186.125,9405.333984375,294.814453125,-4.767801761627197,1.132534384727478,-6.333668231964111,-10257
124054.98,10.83056640625,-29.307016372680664,0.09962606430053711,0.02822672575712204,-0.00933705735951662,0.9486684203147888,41789.0,-6.655075550079346,3.57601261138916,-4.113684177398682,-12.08664608001709,14.417781829833984,18.491069793701172,-0.0,0.0,4.773374080657959,-19863.5390625,10567.7890625,2147,-15227.5185546875,9408.9208984375,295.10870361328125,-4.640634536743164,1.1730488538742065,-6.3358659744262695,-9740
124056.952,9.124323844909668,-28.398855209350586,0.43423333764076233,0.027621380984783173,-0.02227030321955681,0.9500686526298523,41789.0,-6.655075550079346,3.57601261138916,-4.113684177398682,-12.08664608001709,14.417781829833984,18.11090850830078,-0.0,0.0,4.77781867980957,-19761.08984375,11142.298828125,2754,-15268.00390625,9414.21484375,295.39154052734375,-4.640634536743164,1.1730488538742065,-6.3358659744262695,-9376
124058.964,7.223850250244141,-27.416465759277344,0.8624277114868164,0.025400971993803978,-0.03077372908592224,0.9520007967948914,41789.0,-6.655075550079346,3.57601261138916,-4.113684177398682,-12.80189037322998,14.272388458251953,17.972686767578125,-0.0,0.0,4.782261371612549,-20168.55078125,11399.255859375,2056,-15308.2216796875,9421.263671875,295.6653137207031,-4.521427154541016,1.1972811222076416,-6.33507776260376,-8609
124060.961,5.835699081420898,-26.221628189086914,1.3741586208343506,0.023699000477790833,-0.02734282612800598,0.9540022611618042,41789.0,-6.655075550079346,3.57601261138916,-4.113684177398682,-12.80189037322998,14.272388458251953,18.115066528320312,-0.0,0.0,4.786704063415527,-19478.41015625,11351.8818359375,2495,-15347.2451171875,9429.701171875,295.93316650390625,-4.521427154541016,1.1972811222076416,-6.33507776260376,-8457
124062.958,5.090673923492432,-25.249340057373047,1.7834579944610596,0.02289317175745964,-0.016007166355848312,0.9568034410476685,41789.0,-6.655075550079346,3.0218775272369385,-4.113684177398682,-13.463170051574707,10.843297958374023,17.260393142700195,-0.0,0.0,4.791137218475342,-20030.640625,8476.990234375,1990,-15385.9580078125,9435.453125,296.1807861328125,-4.4112138748168945,1.2146611213684082,-6.330331325531006,-8459
124065.0,4.217413902282715,-23.46242904663086,1.7077327966690063,0.022914031520485878,-0.005681570153683424,0.9602504372596741,41789.0,-6.655075550079346,3.0218775272369385,-4.113684177398682,-13.463170051574707,10.843297958374023,18.0954532623291,-0.0,0.0,4.795570373535156,-18921.763671875,10816.1015625,2070,-15422.8828125,9442.0791015625,296.4429931640625,-4.4112138748168945,1.2146611213684082,-6.330331325531006,-8770
124066.891,2.986163377761841,-21.180152893066406,1.4677894115447998,0.02275763638317585,-0.0010150413727387786,0.9604870676994324,41789.0,-6.655075550079346,3.0218775272369385,-4.113684177398682,-14.025830268859863,10.781601905822754,17.39060401916504,-0.0,0.0,4.7999958992004395,-18784.076171875,11155.2763671875,2196,-15458.0888671875,9449.875,296.69775390625,-4.317437171936035,1.2249438762664795,-6.326412677764893,-8055
124068.883,1.4936494827270508,-18.558923721313477,1.4173413515090942,0.022142071276903152,-0.006390134803950787,0.9578742384910583,41789.0,-6.655075550079346,3.0218775272369385,-4.113684177398682,-14.025830268859863,10.781601905822754,18.080791473388672,-0.0,0.0,4.804421424865723,-17925.501953125,11552.978515625,1670,-15490.673828125,9459.1630859375,296.96435546875,-4.317437171936035,1.2249438762664795,-6.326412677764893,-7100
124070.864,-0.20865485072135925,-15.986945152282715,1.7657742500305176,0.022130819037556648,-0.018844671547412872,0.9515663385391235,41789.0,-6.655075550079346,3.0218775272369385,-4.113684177398682,-14.463337898254395,10.806239128112793,17.102941513061523,-0.0,0.0,4.808835983276367,-17993.365234375,11926.376953125,2673,-15521.1240234375,9470.177734375,297.2097473144531,-4.244519233703613,1.2208377122879028,-6.320985794067383,-8516
124072.911,-1.8713281154632568,-13.877128601074219,2.284904718399048,0.022258371114730835,-0.03088846057653427,0.9439504146575928,41789.0,-5.902415752410889,2.6884329319000244,-4.113684177398682,-9.947379112243652,8.805571556091309,18.05706024169922,-0.0,0.0,4.813250541687012,-14381.90234375,10604.2216796875,1866,-15544.9482421875,9480.85546875,297.46209716796875,-4.244519233703613,1.2208377122879028,-6.320985794067383,-8113
124074.797,-3.213469982147217,-11.886016845703125,2.611781597137451,0.022640638053417206,-0.040432412177324295,0.9372952580451965,41789.0,-5.902415752410889,2.6884329319000244,-4.113684177398682,-10.286999702453613,8.913416862487793,16.427654266357422,-0.0,0.0,4.8176469802856445,-17306.564453125,11915.083984375,1959,-15567.12109375,9492.9814453125,297.6831359863281,-4.187915802001953,1.2028634548187256,-6.311959266662598,-7844
124076.764,-4.373917102813721,-9.666911125183105,2.688542604446411,0.023588057607412338,-0.0407719686627388,0.9332013726234436,41789.0,-5.902415752410889,2.6884329319000244,-4.113684177398682,-10.286999702453613,8.913416862487793,18.011693954467773,-0.0,0.0,4.822043418884277,-16694.373046875,11892.466796875,1692,-15587.0751953125,9506.26953125,297.9283142089844,-4.187915802001953,1.2028634548187256,-6.311959266662598,-7675
124078.779,-5.54919958114624,-7.260426044464111,2.61860990524292,0.024719050154089928,-0.03336797282099724,0.932339072227478,41789.0,-5.902415752410889,2.6884329319000244,-4.113684177398682,-10.516748428344727,9.072998046875,16.29389190673828,-0.0,0.0,4.826420783996582,-16466.5390625,12182.9560546875,1379,-15604.8525390625,9520.8916015625,298.1471252441406,-4.149624347686768,1.1762666702270508,-6.3024444580078125,-6487
124080.741,-6.777636528015137,-4.574512004852295,2.53427791595459,0.026869680732488632,-0.0253768153488636,0.9357611536979675,41789.0,-5.902415752410889,2.6884329319000244,-4.113684177398682,-10.516748428344727,9.072998046875,17.963359832763672,-0.0,0.0,4.830798149108887,-15827.6552734375,12285.84375,1570,-15619.943359375,9536.7421875,298.39398193359375,-4.149624347686768,1.1762666702270508,-6.3024444580078125,-6190
124082.722,-8.25163459777832,-1.4482884407043457,2.4305851459503174,0.029234420508146286,-0.018155019730329514,0.9432549476623535,41789.0,-5.902415752410889,2.6884329319000244,-4.113684177398682,-10.609482765197754,9.288274765014648,16.272380828857422,-0.0,0.0,4.8351569175720215,-15243.2919921875,12802.5673828125,1630,-15632.0009765625,9554.2822265625,298.6154479980469,-4.13416862487793,1.1403871774673462,-6.2930779457092285,-7311
124084.769,-9.774698257446289,2.0771801471710205,2.4738965034484863,0.02984749898314476,-0.011315633542835712,0.9520106315612793,41789.0,-3.9663162231445312,1.9126439094543457,-4.113684177398682,1.0071144104003906,4.633540153503418,17.915878295898438,-0.0,0.0,4.839515686035156,-5779.5888671875,9412.42578125,1997,-15628.9169921875,9568.6904296875,298.8625183105469,-4.13416862487793,1.1403871774673462,-6.2930779457092285,-6904
124086.656,-11.242825508117676,5.249307632446289,2.5587456226348877,0.02826131507754326,-0.00881844200193882,0.9583598971366882,41789.0,-3.9663162231445312,1.9126439094543457,-4.113684177398682,1.0755243301391602,4.914308547973633,16.023435592651367,-0.0,0.0,4.84385347366333,-12806.65234375,12697.5498046875,2207,-15622.591796875,9584.84765625,299.07794189453125,-4.145570278167725,1.0935925245285034,-6.282598495483398,-7865
124088.654,-12.685930252075195,7.992955684661865,2.3400747776031494,0.024815456941723824,-0.006901925895363092,0.9611186981201172,41789.0,-3.9663162231445312,1.9126439094543457,-4.113684177398682,1.0755243301391602,4.914308547973633,17.861677169799805,-0.0,0.0,4.848191261291504,-12765.18359375,12704.4169921875,1133,-15613.5234375,9602.447265625,299.3262939453125,-4.145570278167725,1.0935925245285034,-6.282598495483398,-6536
124090.646,-14.131895065307617,10.874853134155273,1.8704344034194946,0.021908283233642578,-0.005580227356404066,0.9621331095695496,41789.0,-3.9663162231445312,1.9126439094543457,-4.113684177398682,1.282364845275879,5.26310920715332,16.39091682434082,-0.0,0.0,4.852512836456299,-12151.251953125,13167.947265625,2505,-15601.3662109375,9621.8427734375,299.5586242675781,-4.180043697357178,1.035459041595459,-6.274448871612549,-2621
124092.672,-15.550426483154297,14.02180004119873,1.4829529523849487,0.02061261422932148,-0.008097559213638306,0.9609434604644775,41789.0,-3.9663162231445312,1.9126439094543457,-4.113684177398682,1.282364845275879,5.26310920715332,17.821422576904297,-0.0,0.0,4.856834411621094,-11706.19921875,13130.9296875,2044,-15586.0615234375,9642.65625,299.8200378417969,-4.180043697357178,1.035459041595459,-6.274448871612549,-1243
124094.563,-16.635189056396484,17.013538360595703,1.3121134042739868,0.020293213427066803,-0.010336588136851788,0.957714855670929,41789.0,-3.42952823638916,1.4683722257614136,-4.113684177398682,4.857539176940918,3.0093178749084473,16.69199562072754,-0.0,0.0,4.861143589019775,-8725.984375,11387.220703125,1835,-15564.1904296875,9662.30078125,300.06610107421875,-4.2391180992126465,0.9668192267417908,-6.268185138702393,-2342
124096.532,-17.708925247192383,19.734525680541992,1.5583122968673706,0.02103477716445923,-0.013552752323448658,0.9534174799919128,41789.0,-3.42952823638916,1.4683722257614136,-4.113684177398682,4.857539176940918,3.0093178749084473,17.792457580566406,-0.0,0.0,4.865452766418457,-10764.974609375,12943.884765625,1723,-15539.5986328125,9683.01953125,300.3258361816406,-4.2391180992126465,0.9668192267417908,-6.268185138702393,16
124098.56,-19.151512145996094,22.502704620361328,1.7614095211029053,0.022390903905034065,-0.015542237088084221,0.9468836784362793,41789.0,-3.42952823638916,1.4683722257614136,-4.113684177398682,5.341226577758789,3.482996940612793,16.293704986572266,-0.0,0.0,4.869745254516602,-9998.8466796875,13732.634765625,2291,-15511.7548828125,9705.654296875,300.558349609375,-4.319732666015625,0.8878727555274963,-6.259881019592285,-653
124100.572,-20.43704605102539,25.85341453552246,1.8075337409973145,0.023396028205752373,-0.01585027389228344,0.9435843825340271,41789.0,-3.42952823638916,1.4683722257614136,-4.113684177398682,5.341226577758789,3.482996940612793,17.751218795776367,-0.0,0.0,4.874037742614746,-9487.037109375,13523.0380859375,1236,-15480.560546875,9729.57421875,300.8134460449219,-4.319732666015625,0.8878727555274963,-6.259881019592285,-1108
124102.472,-21.397016525268555,29.01142120361328,1.8717414140701294,0.024375198408961296,-0.014682849869132042,0.9365001916885376,41789.0,-3.42952823638916,1.4683722257614136,-4.113684177398682,5.978528022766113,4.00901460647583,16.124195098876953,-0.0,0.0,4.878312110900879,-8699.759765625,13859.4765625,1444,-15445.5703125,9754.98046875,301.0414733886719,-4.425949573516846,0.8002031445503235,-6.250868320465088,-184
124104.448,-21.870807647705078,31.38968276977539,2.0530364513397217,0.024256492033600807,-0.011985888704657555,0.9322465658187866,41789.0,-2.56893253326416,1.02506422996521,-4.113684177398682,11.142102241516113,1.3491665124893188,17.705692291259766,-0.0,0.0,4.882586479187012,-5372.91796875,11314.412109375,543,-15403.0380859375,9778.2001953125,301.2919006347656,-4.425949573516846,0.8002031445503235,-6.250868320465088,-772
124106.435,-22.248498916625977,33.812034606933594,1.9712417125701904,0.023204389959573746,-0.008338361978530884,0.9324002265930176,41789.0,-2.56893253326416,1.02506422996521,-4.113684177398682,11.893856048583984,1.8907603025436401,15.983105659484863,-0.0,0.0,4.886841773986816,-7660.279296875,13394.30078125,2178,-15357.33203125,9802.33984375,301.5160827636719,-4.551241874694824,0.7099375128746033,-6.24132776260376,494
124108.438,-22.94660758972168,36.019927978515625,1.6906790733337402,0.019862735643982887,-0.01039635855704546,0.935688853263855,41789.0,-2.56893253326416,1.02506422996521,-4.113684177398682,11.893856048583984,1.8907603025436401,17.656959533691406,-0.0,0.0,4.891097068786621,-7940.2626953125,13368.166015625,1704,-15309.4189453125,9827.1767578125,301.77154541015625,-4.551241874694824,0.7099375128746033,-6.24132776260376,2559
124110.463,-23.255481719970703,37.91059875488281,1.5800496339797974,0.015684915706515312,-0.016639243811368942,0.9430757164955139,41789.0,-2.56893253326416,1.02506422996521,-4.113684177398682,12.74714469909668,2.4610586166381836,16.2337589263916,-0.0,0.0,4.895336627960205,-7211.56787109375,13616.9443359375,1637,-15258.76171875,9852.8935546875,302.0060119628906,-4.693456649780273,0.6148877739906311,-6.233441352844238,2212
124112.362,-23.51139259338379,39.63322830200195,1.4162145853042603,0.0126634007319808,-0.024849634617567062,0.9494583010673523,41789.0,-2.56893253326416,1.02506422996521,-4.113684177398682,12.74714469909668,2.4610586166381836,17.618118286132812,-0.0,0.0,4.899576187133789,-7582.193359375,13285.365234375,1530,-15206.380859375,9878.8662109375,302.2652282714844,-4.693456649780273,0.6148877739906311,-6.233441352844238,2452
124114.353,-24.020036697387695,41.40241241455078,1.2173471450805664,0.009343386627733707,-0.03482941538095474,0.9544758796691895,41789.0,-2.138152837753296,1.02506422996521,-4.113684177398682,16.271196365356445,3.059760332107544,16.504491806030273,-0.0,0.0,4.90380334854126,-4631.234375,13983.01171875,1523,-15148.70703125,9905.9453125,302.50982666015625,-4.8500189781188965,0.5151041746139526,-6.227265357971191,2573
124116.318,-24.45945930480957,43.33993148803711,1.0667508840560913,0.008067532442510128,-0.03895535320043564,0.9577742218971252,41789.0,-2.138152837753296,1.02506422996521,-4.113684177398682,16.271196365356445,3.059760332107544,17.58951759338379,-0.0,0.0,4.9080305099487305,-6426.7529296875,13648.0068359375,2013,-15089.095703125,9933.46484375,302.7742004394531,-4.8500189781188965,0.5151041746139526,-6.227265357971191,2832
124118.329,-24.677106857299805,44.549766540527344,1.1082228422164917,0.009100359864532948,-0.03603792190551758,0.9581362009048462,41789.0,-2.138152837753296,1.02506422996521,-4.113684177398682,17.28462028503418,3.674102306365967,16.590408325195312,-0.0,0.0,4.9122467041015625,-5908.42578125,14025.7099609375,2184,-15027.26171875,9961.8154296875,303.02191162109375,-5.018922805786133,0.41271382570266724,-6.22172212600708,2920
124120.32,-24.42013168334961,45.345924377441406,1.3453381061553955,0.009971225634217262,-0.029991747811436653,0.9590396881103516,41789.0,-2.138152837753296,1.02506422996521,-4.113684177398682,17.28462028503418,3.674102306365967,17.56468963623047,-0.0,0.0,4.9164628982543945,-6638.2138671875,13341.080078125,2286,-14964.630859375,9989.91015625,303.28143310546875,-5.018922805786133,0.41271382570266724,-6.22172212600708,3069
124122.339,-24.0428466796875,45.672916412353516,1.485666036605835,0.01379882451146841,-0.020245134830474854,0.9592731595039368,41789.0,-2.138152837753296,1.02506422996521,-4.113684177398682,18.320621490478516,4.262450218200684,16.318124771118164,-0.0,0.0,4.920665264129639,-6049.576171875,13688.291015625,1813,-14900.6376953125,10018.21484375,303.51873779296875,-5.191589832305908,0.31465592980384827,-6.2148118019104,2765
124124.239,-23.524185180664062,45.8015251159668,1.250946283340454,0.018225708976387978,-0.009348188526928425,0.9591137170791626,41789.0,-1.8162726163864136,1.02506422996521,-4.113684177398682,20.251903533935547,4.262450218200684,17.531633377075195,-0.0,0.0,4.924867630004883,-5290.4736328125,13195.1669921875,2762,-14834.583984375,10046.0009765625,303.77923583984375,-5.191589832305908,0.31465592980384827,-6.2148118019104,2403
124126.224,-22.752574920654297,46.2530632019043,0.9436767101287842,0.019426770508289337,-0.006502447184175253,0.9594055414199829,41789.0,-1.8162726163864136,1.02506422996521,-4.113684177398682,21.297077178955078,4.812284469604492,16.70882797241211,-0.0,0.0,4.929060935974121,-5387.8212890625,13380.5634765625,2885,-14767.0341796875,10073.56640625,304.0314636230469,-5.365785598754883,0.2230168879032135,-6.210242748260498,3191
124128.222,-21.904006958007812,46.3463134765625,0.956922173500061,0.018594641238451004,-0.00710105849429965,0.9586494565010071,41789.0,-1.8162726163864136,1.02506422996521,-4.113684177398682,21.297077178955078,4.812284469604492,17.512605667114258,-0.0,0.0,4.933254241943359,-6185.6884765625,12909.4638671875,1357,-14699.3916015625,10100.2822265625,304.2963562011719,-5.365785598754883,0.2230168879032135,-6.210242748260498,3016
124130.231,-20.906248092651367,46.36738204956055,1.3266428709030151,0.0155116505920887,-0.011413796804845333,0.9577982425689697,41789.0,-1.8162726163864136,1.02506422996521,-4.113684177398682,22.345531463623047,5.318943500518799,16.468841552734375,-0.0,0.0,4.937435626983643,-5373.109375,13097.71875,2327,-14630.677734375,10126.5078125,304.53863525390625,-5.540527820587158,0.13857364654541016,-6.204452991485596,3865
124132.148,-19.86466407775879,46.17682647705078,1.6641826629638672,0.013040709309279919,-0.017410123720765114,0.9552669525146484,41789.0,-1.8162726163864136,1.02506422996521,-4.113684177398682,22.345531463623047,5.318943500518799,17.486228942871094,-0.0,0.0,4.941617012023926,-6115.9609375,12648.65234375,1885,-14562.1552734375,10151.69140625,304.7917785644531,-5.540527820587158,0.13857364654541016,-6.204452991485596,4546
124134.134,-18.845903396606445,45.53466033935547,1.8699657917022705,0.0140009680762887,-0.01617528311908245,0.9548457860946655,41789.0,-1.8162726163864136,1.02506422996521,-4.113684177398682,23.373249053955078,5.776863098144531,16.10188102722168,-0.0,0.0,4.9457831382751465,-5638.7841796875,12903.634765625,1957,-14493.248046875,10176.314453125,305.0195007324219,-5.7118144035339355,0.06225370988249779,-6.196781635284424,3666
124136.105,-17.799457550048828,44.705894470214844,2.087599754333496,0.016268139705061913,-0.012040036730468273,0.9547713994979858,41789.0,-1.8162726163864136,1.02506422996521,-4.113684177398682,23.373249053955078,5.776863098144531,17.44853401184082,-0.0,0.0,4.949949264526367,-6433.25390625,12492.90234375,1843,-14425.1689453125,10199.890625,305.2652893066406,-5.7118144035339355,0.06225370988249779,-6.196781635284424,4909
124138.16,-16.693063735961914,43.73489761352539,2.192725658416748,0.020733937621116638,-0.006167244166135788,0.9534990787506104,41789.0,-1.8162726163864136,1.02506422996521,-4.113684177398682,24.35251235961914,6.175854682922363,15.852195739746094,-0.0,0.0,4.954097747802734,-5840.9912109375,12639.2490234375,1601,-14357.0810546875,10222.759765625,305.48382568359375,-5.875024795532227,-0.004244911018759012,-6.187939167022705,5535
124140.109,-15.238187789916992,42.305450439453125,2.2384374141693115,0.026064010336995125,2.495120861567557e-05,0.9538518786430359,41789.0,-1.8162726163864136,1.02506422996521,-4.113684177398682,24.35251235961914,6.175854682922363,17.403776168823242,-0.0,0.0,4.958246231079102,-6851.58544921875,12011.6318359375,2495,-14290.423828125,10244.173828125,305.7264709472656,-5.875024795532227,-0.004244911018759012,-6.187939167022705,5019
124142.049,-13.670792579650879,40.75468444824219,2.419093608856201,0.02643134631216526,-0.00036884460132569075,0.9551767110824585,41789.0,-1.8162726163864136,1.02506422996521,-4.113684177398682,25.25580596923828,6.497733116149902,15.662508010864258,-0.0,0.0,4.962375640869141,-6377.76953125,12006.9599609375,1998,-14224.4130859375,10264.3427734375,305.9383544921875,-6.02557373046875,-0.05789127200841904,-6.178296089172363,3582
124144.027,-12.202455520629883,39.03834533691406,2.426260471343994,0.02342342585325241,-0.002285056049004197,0.9565291404724121,41789.0,-1.3854929208755493,1.02506422996521,-4.113684177398682,27.840484619140625,6.497733116149902,17.354175567626953,-0.0,0.0,4.96650505065918,-5254.9677734375,11702.85546875,2648,-14157.533203125,10283.04296875,306.1772155761719,-6.02557373046875,-0.05789127200841904,-6.178296089172363,3080
124146.01,-10.522459030151367,37.102169036865234,2.0796990394592285,0.01720379665493965,-0.005043973680585623,0.9588314294815063,41789.0,-1.3854929208755493,1.02506422996521,-4.113684177398682,28.660293579101562,6.747011661529541,15.887782096862793,-0.0,0.0,4.97061824798584,-6569.18994140625,11564.7978515625,2798,-14091.771484375,10300.3125,306.39813232421875,-6.162208557128906,-0.09943770617246628,-6.170171737670898,4071
124148.005,-8.950310707092285,34.91762161254883,1.842228651046753,0.011133186519145966,-0.006895516067743301,0.9586843848228455,41789.0,-1.3854929208755493,1.02506422996521,-4.113684177398682,28.660293579101562,6.747011661529541,17.313655853271484,-0.0,0.0,4.9747314453125,-7446.29833984375,11295.5830078125,2217,-14028.193359375,10316.009765625,306.6456604003906,-6.162208557128906,-0.09943770617246628,-6.170171737670898,3243
124150.012,-7.1236958503723145,32.706417083740234,1.9694913625717163,0.009335292503237724,-0.00697567593306303,0.9587005972862244,41789.0,-1.3854929208755493,1.02506422996521,-4.113684177398682,29.37812042236328,6.915643692016602,15.940028190612793,-0.0,0.0,4.978829383850098,-7138.90283203125,11048.7265625,1764,-13966.109375,10330.048828125,306.86920166015625,-6.281846046447754,-0.12754307687282562,-6.162559986114502,3582
124151.936,-4.772361755371094,30.66151237487793,2.2661261558532715,0.01012639980763197,-0.008080295287072659,0.9588263034820557,41789.0,-1.3854929208755493,1.02506422996521,-4.113684177398682,29.37812042236328,6.915643692016602,17.276182174682617,-0.0,0.0,4.982927322387695,-7679.1796875,10333.1533203125,2425,-13906.0693359375,10341.736328125,307.109375,-6.281846046447754,-0.12754307687282562,-6.162559986114502,3139
124153.925,-2.4793713092803955,28.329254150390625,2.3759469985961914,0.013507727533578873,-0.006621204316616058,0.9578689932823181,41789.0,-0.6328330636024475,1.02506422996521,-4.113684177398682,34.503746032714844,6.971169948577881,15.605550765991211,-0.0,0.0,4.987006664276123,-4243.2587890625,10134.08984375,1577,-13843.2373046875,10351.1875,307.321044921875,-6.383457660675049,-0.13679738342761993,-6.1533074378967285,3030
124155.893,-0.7541810274124146,26.16864013671875,2.250325918197632,0.01744118519127369,-0.004330901429057121,0.9578262567520142,41789.0,-0.6328330636024475,1.02506422996521,-4.113684177398682,34.503746032714844,6.971169948577881,17.228824615478516,-0.0,0.0,4.991086006164551,-7548.89990234375,10246.337890625,915,-13782.564453125,10358.9130859375,307.5606994628906,-6.383457660675049,-0.13679738342761993,-6.1533074378967285,3222
124157.932,0.6885532140731812,23.564668655395508,2.1274142265319824,0.020048169419169426,-0.005934514105319977,0.9583870768547058,41789.0,-0.6328330636024475,1.02506422996521,-4.113684177398682,34.99480438232422,6.95073938369751,15.730446815490723,-0.0,0.0,4.995148658752441,-7724.642578125,10233.4697265625,905,-13724.0048828125,10365.1748046875,307.7783508300781,-6.4653000831604,-0.13339227437973022,-6.1450066566467285,2936
124159.897,2.5951762199401855,20.018253326416016,2.191293478012085,0.02021733671426773,-0.008251897059381008,0.9599595665931702,41789.0,-0.6328330636024475,1.02506422996521,-4.113684177398682,34.99480438232422,6.95073938369751,17.187145233154297,-0.0,0.0,4.999211311340332,-9008.8681640625,9722.3359375,1470,-13668.9921875,10369.5302734375,308.0182800292969,-6.4653000831604,-0.13339227437973022,-6.1450066566467285,3332
124161.847,4.870787620544434,16.56756019592285,2.4278810024261475,0.018487200140953064,-0.01409444585442543,0.9618908762931824,41789.0,-0.6328330636024475,1.02506422996521,-4.113684177398682,35.31867980957031,6.833674907684326,15.471598625183105,-0.0,0.0,5.0032548904418945,-9085.587890625,9121.431640625,956,-13617.10546875,10371.4931640625,308.22698974609375,-6.519279479980469,-0.11388161778450012,-6.1355061531066895,2744
124163.81,6.8017473220825195,13.185517311096191,2.515939712524414,0.016571728512644768,-0.02040719985961914,0.9644595384597778,41789.0,-0.4000000059604645,1.02506422996521,-4.113684177398682,36.715675354003906,6.833674907684326,17.138229370117188,-0.0,0.0,5.007298469543457,-8570.208984375,9168.666015625,1596,-13567.2041015625,10371.5244140625,308.4609375,-6.519279479980469,-0.11388161778450012,-6.1355061531066895,803
124165.813,8.182427406311035,10.16183090209961,2.3822360038757324,0.014681483618915081,-0.023569339886307716,0.9664638042449951,41789.0,-0.4000000059604645,1.02506422996521,-4.113684177398682,36.888004302978516,6.642693042755127,15.461761474609375,-0.0,0.0,5.01132345199585,-9421.0234375,9195.228515625,1613,-13520.1552734375,10369.984375,308.6701965332031,-6.548000812530518,-0.08205123245716095,-6.126221656799316,1541
124167.793,9.009117126464844,7.5409135818481445,1.9242945909500122,0.012813303619623184,-0.027537034824490547,0.9663887619972229,41789.0,-0.4000000059604645,1.02506422996521,-4.113684177398682,36.888004302978516,6.642693042755127,17.090572357177734,-0.0,0.0,5.015348434448242,-9560.185546875,9555.1337890625,1295,-13475.7265625,10367.6181640625,308.912841796875,-6.548000812530518,-0.08205123245716095,-6.126221656799316,1256
124169.804,9.993332862854004,4.254678726196289,1.3525359630584717,0.011098267510533333,-0.0253453329205513,0.964712381362915,41789.0,-0.4000000059604645,1.02506422996521,-4.113684177398682,36.920692443847656,6.412386417388916,16.16022300720215,-0.0,0.0,5.0193634033203125,-10321.095703125,9157.341796875,1047,-13434.5498046875,10364.037109375,309.1497497558594,-6.5534491539001465,-0.0436667874455452,-6.121059417724609,1216
124171.725,11.308435440063477,0.7666481733322144,1.0848910808563232,0.008998698554933071,-0.019287224858999252,0.9632667899131775,41789.0,-0.4000000059604645,1.02506422996521,-4.113684177398682,36.920692443847656,6.412386417388916,17.067630767822266,-0.0,0.0,5.023378372192383,-10865.9638671875,8925.1962890625,1355,-13396.86328125,10359.1416015625,309.4054870605469,-6.5534491539001465,-0.0436667874455452,-6.121059417724609,859
124173.717,12.207244873046875,-2.679826259613037,0.9946231842041016,0.008032236248254776,-0.021382814273238182,0.958328902721405,41789.0,-0.4000000059604645,1.02506422996521,-4.113684177398682,36.78909683227539,6.128126621246338,16.387908935546875,-0.0,0.0,5.027385711669922,-11335.38671875,8853.75390625,1351,-13362.75390625,10353.0625,309.65179443359375,-6.531516075134277,0.0037097574677318335,-6.117281913757324,1576
124175.681,12.747776985168457,-6.435324192047119,0.7983758449554443,0.007709757424890995,-0.024674903601408005,0.9539759159088135,41789.0,-0.4000000059604645,1.02506422996521,-4.113684177398682,36.78909683227539,6.128126621246338,17.052978515625,-0.0,0.0,5.031393051147461,-11885.365234375,9181.154296875,1245,-13332.400390625,10346.443359375,309.911865234375,-6.531516075134277,0.0037097574677318335,-6.117281913757324,-365
124177.701,13.450651168823242,-9.985329627990723,0.6517544984817505,0.0063928584568202496,-0.02943354658782482,0.9516755938529968,41789.0,-0.4000000059604645,1.02506422996521,-4.113684177398682,36.48383712768555,5.820188522338867,16.645553588867188,-0.0,0.0,5.035395622253418,-12403.1279296875,8753.2470703125,1329,-13305.9013671875,10338.8125,310.1677551269531,-6.480639457702637,0.05503284931182861,-6.11500883102417,-1389
124179.685,14.102982521057129,-13.53519058227539,0.5155673623085022,0.005211633164435625,-0.03346581757068634,0.9492833614349365,41789.0,-0.4000000059604645,1.02506422996521,-4.113684177398682,36.48383712768555,5.820188522338867,17.047346115112305,-0.0,0.0,5.039398193359375,-12633.0361328125,8887.4736328125,751,-13282.953125,10330.5302734375,310.4322509765625,-6.480639457702637,0.05503284931182861,-6.11500883102417,-556
124181.629,14.464655876159668,-17.23804473876953,0.3779327869415283,0.007289984729140997,-0.03345072641968727,0.9495309591293335,41789.0,-0.4000000059604645,1.02506422996521,-4.113684177398682,36.00507354736328,5.49158239364624,16.863197326660156,-0.0,0.0,5.043398857116699,-13531.818359375,8768.4970703125,1244,-13264.185546875,10321.556640625,310.6960144042969,-6.400845527648926,0.10980051755905151,-6.113969326019287,-2837
124183.597,14.638739585876465,-20.843231201171875,0.22577419877052307,0.010554032400250435,-0.03196283429861069,0.9506208300590515,41789.0,-0.4000000059604645,1.02506422996521,-4.113684177398682,36.00507354736328,5.49158239364624,17.049110412597656,-0.0,0.0,5.047399520874023,-13607.03515625,9060.212890625,1584,-13249.0244140625,10312.41015625,310.9651794433594,-6.400845527648926,0.10980051755905151,-6.113969326019287,-4082
124185.585,14.603686332702637,-24.41457748413086,-0.002021161140874028,0.014523899182677269,-0.0293880607932806,0.9512222409248352,41789.0,-0.4000000059604645,1.02506422996521,-4.113684177398682,35.351322174072266,5.158905982971191,17.15935707092285,-0.0,0.0,5.051401138305664,-14511.6806640625,8936.353515625,1377,-13238.087890625,10302.96484375,311.2397766113281,-6.291887283325195,0.1652466356754303,-6.114556312561035,-2057
124187.581,14.464892387390137,-27.7689208984375,-0.35770583152770996,0.01800180971622467,-0.026371609419584274,0.9531217813491821,41789.0,-0.4000000059604645,1.02506422996521,-4.113684177398682,35.351322174072266,5.158905982971191,17.06063461303711,-0.0,0.0,5.055402755737305,-14379.1689453125,9217.1572265625,2483,-13230.5048828125,10293.6591796875,311.5184631347656,-6.291887283325195,0.1652466356754303,-6.114556312561035,-4389
124189.588,14.051420211791992,-30.74878692626953,-0.6876576542854309,0.01824849471449852,-0.023805394768714905,0.9531686902046204,41789.0,-0.4000000059604645,1.02506422996521,-4.113684177398682,34.54509353637695,4.838677406311035,17.692358016967773,-0.0,0.0,5.059411525726318,-15118.478515625,9191.130859375,1783,-13226.7080078125,10284.4462890625,311.8125305175781,-6.157515525817871,0.21861806511878967,-6.1180243492126465,-3470
124191.512,13.431002616882324,-33.8692741394043,-1.0257519483566284,0.01718589849770069,-0.0213338490575552,0.9520852565765381,41789.0,-0.4000000059604645,1.02506422996521,-4.113684177398682,34.54509353637695,4.838677406311035,17.089462280273438,-0.0,0.0,5.063420295715332,-15091.859375,9589.5751953125,1949,-13226.0322265625,10275.8544921875,312.1023864746094,-6.157515525817871,0.21861806511878967,-6.1180243492126465,-4963
124193.504,12.752351760864258,-36.83499526977539,-1.32445228099823,0.014286008663475513,-0.021242354065179825,0.9500861167907715,41789.0,-0.4000000059604645,1.02506422996521,-4.113684177398682,33.596824645996094,4.550422668457031,18.21919059753418,-0.0,0.0,5.067441463470459,-16080.2841796875,9486.4091796875,1433,-13229.26953125,10267.65234375,312.4150695800781,-5.999471187591553,0.2666604518890381,-6.12424373626709,-5459
124195.47,12.059792518615723,-40.457672119140625,-1.4862421751022339,0.011242375709116459,-0.02095988765358925,0.9480001926422119,41789.0,-0.4000000059604645,1.02506422996521,-4.113684177398682,33.596824645996094,4.550422668457031,17.13481903076172,-0.0,0.0,5.071462631225586,-16357.91015625,9754.322265625,3031,-13236.130859375,10260.1435546875,312.7130126953125,-5.999471187591553,0.2666604518890381,-6.12424373626709,-4806
124197.485,11.268136024475098,-44.29273223876953,-1.5871518850326538,0.011059567332267761,-0.017924869433045387,0.943350613117218,41789.0,-0.4000000059604645,1.02506422996521,-4.113684177398682,32.4735107421875,4.297120571136475,18.498199462890625,-0.0,0.0,5.075498580932617,-17824.3359375,9718.2666015625,2661,-13247.94921875,10253.171875,313.0343933105469,-5.812252044677734,0.30887746810913086,-6.131753921508789,-6289
124199.473,10.68213176727295,-47.5128173828125,-1.383923053741455,0.012400325387716293,-0.013376571238040924,0.9374924898147583,41789.0,-0.4000000059604645,1.02506422996521,-4.113684177398682,32.4735107421875,4.297120571136475,17.18795394897461,-0.0,0.0,5.079534530639648,-17155.455078125,9814.9130859375,2757,-13262.9892578125,10246.787109375,313.33154296875,-5.812252044677734,0.30887746810913086,-6.131753921508789,-6437
124201.419,9.94416618347168,-50.93394088745117,-1.0550282001495361,0.01561098825186491,-0.005440030712634325,0.9326627850532532,41789.0,-0.4000000059604645,1.02506422996521,-4.113684177398682,31.190340042114258,4.067503452301025,18.19144058227539,-0.0,0.0,5.083581924438477,-18690.8671875,9824.044921875,2105,-13282.7333984375,10240.91015625,313.6394958496094,-5.598390102386475,0.34714698791503906,-6.137275695800781,-7106
124203.389,8.538074493408203,-53.797096252441406,-1.0754541158676147,0.01872267574071884,0.0006936425343155861,0.9283919930458069,41789.0,-0.4000000059604645,1.02506422996521,-4.113684177398682,31.190340042114258,4.067503452301025,17.22917938232422,-0.0,0.0,5.087629318237305,-17920.65625,10556.42578125,2271,-13305.33984375,10236.439453125,313.932373046875,-5.598390102386475,0.34714698791503906,-6.137275695800781,-7341
124205.375,6.783340930938721,-56.09736633300781,-1.0746123790740967,0.020564381033182144,0.004322678782045841,0.9263994097709656,41789.0,-0.4000000059604645,1.02506422996521,-4.113684177398682,29.782764434814453,3.9084091186523438,18.274364471435547,-0.0,0.0,5.09168815612793,-18938.3828125,10871.47265625,1885,-13331.654296875,10233.564453125,314.241943359375,-5.363794326782227,0.3736627399921417,-6.1430277824401855,-7867
124207.369,4.940618991851807,-58.20466232299805,-0.7887740135192871,0.020747017115354538,0.004850966855883598,0.9257838726043701,41789.0,-0.4000000059604645,1.02506422996521,-4.113684177398682,29.782764434814453,3.9084091186523438,17.271808624267578,-0.0,0.0,5.095746994018555,-18229.875,11255.20703125,2481,-13360.0771484375,10232.5322265625,314.5309143066406,-5.363794326782227,0.3736627399921417,-6.1430277824401855,-9103
124209.38,3.223275661468506,-60.124916076660156,-0.4746464788913727,0.019976070150732994,-0.004703340120613575,0.9239258170127869,41789.0,-0.4000000059604645,1.02506422996521,-4.113684177398682,28.281314849853516,3.8389892578125,17.92896270751953,-0.0,0.0,5.099812984466553,-19510.93359375,11340.064453125,1941,-13391.919921875,10233.1484375,314.82537841796875,-5.113552570343018,0.38523268699645996,-6.146636009216309,-8268
124211.301,1.4400627613067627,-61.879146575927734,-0.16253606975078583,0.019523860886693,-0.01770780421793461,0.9226560592651367,41789.0,-0.4000000059604645,1.02506422996521,-4.113684177398682,28.281314849853516,3.8389892578125,17.301589965820312,-0.0,0.0,5.103878974914551,-18721.640625,11649.9208984375,1802,-13425.517578125,10235.546875,315.10479736328125,-5.113552570343018,0.38523268699645996,-6.146636009216309,-8099
124213.289,-0.3126230537891388,-63.08964920043945,-0.011796913109719753,0.017431503161787987,-0.027527227997779846,0.9232989549636841,41789.0,-0.4000000059604645,1.02506422996521,-4.113684177398682,26.71277618408203,3.8670694828033447,17.674882888793945,-0.0,0.0,5.1079487800598145,-19745.904296875,11875.1669921875,1926,-13461.89453125,10239.7265625,315.3877868652344,-4.8521294593811035,0.38055261969566345,-6.148675918579102,-8075
124215.261,-2.025359869003296,-64.01602172851562,0.046179596334695816,0.014180134981870651,-0.03356797620654106,0.9271157383918762,41789.0,-0.4000000059604645,1.02506422996521,-4.113684177398682,26.71277618408203,3.8670694828033447,17.32196807861328,-0.0,0.0,5.112018585205078,-18741.0859375,12052.6337890625,2625,-13499.1982421875,10245.6201171875,315.6641845703125,-4.8521294593811035,0.38055261969566345,-6.148675918579102,-8924
124217.272,-3.667515754699707,-65.3884048461914,0.1250934600830078,0.011201455257833004,-0.03196435421705246,0.9335220456123352,41789.0,-0.4000000059604645,1.02506422996521,-4.113684177398682,25.09544563293457,3.977719306945801,17.600154876708984,-0.0,0.0,5.116091728210449,-20444.68359375,12304.423828125,2045,-13539.490234375,10253.265625,315.94378662109375,-4.582574367523193,0.36211103200912476,-6.150190353393555,-9103
124219.267,-5.2427473068237305,-66.4227066040039,0.20498445630073547,0.006977316457778215,-0.026713907718658447,0.9424859881401062,41789.0,-0.4000000059604645,1.02506422996521,-4.113684177398682,25.09544563293457,3.977719306945801,17.339202880859375,-0.0,0.0,5.12016487121582,-19393.1640625,12399.5634765625,2897,-13580.818359375,10262.4853515625,316.2179260253906,-4.582574367523193,0.36211103200912476,-6.150190353393555,-9060
124221.206,-6.997747421264648,-66.89613342285156,0.413404643535614,0.003380995476618409,-0.022229395806789398,0.9513902068138123,41789.0,-0.4000000059604645,1.02506422996521,-4.113684177398682,23.44916534423828,4.1615400314331055,17.376590728759766,-0.0,0.0,5.124238014221191,-20379.951171875,12880.318359375,1971,-13624.2646484375,10273.64453125,316.4893493652344,-4.308194160461426,0.3314741849899292,-6.150374412536621,-8788
124223.174,-9.130213737487793,-67.17766571044922,0.6555774807929993,0.0020540975965559483,-0.020650599151849747,0.9577097296714783,41789.0,-0.4000000059604645,1.02506422996521,-4.113684177398682,23.44916534423828,4.1615400314331055,17.348453521728516,-0.0,0.0,5.1283111572265625,-19310.013671875,13281.1962890625,3043,-13667.9931640625,10286.935546875,316.7564392089844,-4.308194160461426,0.3314741849899292,-6.150374412536621,-9463
124225.165,-11.160786628723145,-67.32516479492188,0.8368309140205383,0.004037464037537575,-0.02471594326198101,0.9566203951835632,41789.0,-0.4000000059604645,0.6925832629203796,-4.113684177398682,21.794832229614258,2.450615882873535,17.04656219482422,-0.0,0.0,5.132380962371826,-20530.9609375,12201.75390625,2083,-13713.5234375,10300.5478515625,317.01580810546875,-4.032472133636475,0.2841472923755646,-6.148684024810791,-8887
124227.161,-12.98917293548584,-67.9161376953125,1.080047607421875,0.007710650563240051,-0.03020242601633072,0.9540524482727051,41789.0,-0.4000000059604645,0.6925832629203796,-4.113684177398682,21.794832229614258,2.450615882873535,17.346450805664062,-0.0,0.0,5.13645076751709,-19894.16796875,13388.7021484375,2595,-13759.6455078125,10315.9873046875,317.27606201171875,-4.032472133636475,0.2841472923755646,-6.148684024810791,-10102
124229.164,-14.434901237487793,-68.5456314086914,1.3035253286361694,0.010365324094891548,-0.03450705483555794,0.9508270025253296,41789.0,-0.4000000059604645,0.6925832629203796,-4.113684177398682,20.110267639160156,2.81760835647583,16.67230796813965,-0.0,0.0,5.1405134201049805,-21308.787109375,13622.7548828125,2635,-13808.0810546875,10333.240234375,317.52197265625,-3.751711368560791,0.22298185527324677,-6.144937038421631,-10544
