timestamp,gyro.x,gyro.y,gyro.z,acc.x,acc.y,acc.z,controller.actuatorThrust,controller.pitch,controller.roll,controller.yaw,pid_attitude.pitch_output,pid_attitude.roll_output,pid_attitude.yaw_output,pid_attitude.pitch_outI,pid_attitude.roll_outI,pid_attitude.yaw_outI,pid_rate.pitch_output,pid_rate.roll_output,pid_rate.yaw_output,pid_rate.pitch_outI,pid_rate.roll_outI,pid_rate.yaw_outI,stateEstimate.pitch,stateEstimate.roll,stateEstimate.yaw,pid_rate.pitch_output_snn,pid_rate.roll_output_snn
26579.231,-87.65532684326172,62.50485610961914,1.0859125852584839,0.02942410483956337,0.038289885967969894,1.0668561458587646,44397.0,-0.4000000059604645,-18.413219451904297,-34.15846633911133,-29.160625457763672,-96.74787139892578,20.822757720947266,-0.0,0.0,3.7534148693084717,-11388.4619140625,2964.908203125,2210,-16397.044921875,3947.2578125,552.21435546875,4.460103988647461,-2.288574457168579,-37.00335693359375,1814,1106
26581.247,-87.45751190185547,63.591835021972656,1.0103912353515625,0.027122177183628082,0.03706453740596771,1.0646367073059082,44397.0,-0.4000000059604645,-20.96320343017578,-34.15846633911133,-27.611270904541016,-109.9927978515625,22.176240921020508,-0.0,0.0,3.7591195106506348,-10215.7861328125,-7293.900390625,2203,-16361.064453125,3924.722412109375,552.5530395507812,4.201878547668457,-2.631071090698242,-37.01080322265625,1094,-271
26583.191,-87.1499252319336,64.01070404052734,0.9692097902297974,0.025327662006020546,0.03405827283859253,1.062145471572876,44397.0,-0.4000000059604645,-20.96320343017578,-34.15846633911133,-27.611270904541016,-109.9927978515625,20.87884521484375,-0.0,0.0,3.764824151992798,-11512.943359375,854.27880859375,2172,-16324.6650390625,3901.879638671875,552.87158203125,4.201878547668457,-2.631071090698242,-37.01080322265625,2519,2363
26585.202,-86.99679565429688,63.84781265258789,0.6940248012542725,0.023647449910640717,0.03499043732881546,1.0588487386703491,44397.0,-0.4000000059604645,-20.96320343017578,-34.15846633911133,-26.057212829589844,-107.95218658447266,22.746051788330078,-0.0,0.0,3.7705492973327637,-10693.5703125,2441.176513671875,1919,-16286.875,3880.92431640625,553.2244262695312,3.942868709564209,-2.9711713790893555,-37.021087646484375,3962,655
26587.141,-87.17335510253906,63.3267822265625,0.27723750472068787,0.021295206621289253,0.03816491365432739,1.0553548336029053,44397.0,-0.4000000059604645,-20.96320343017578,-34.15846633911133,-26.057212829589844,-107.95218658447266,20.952001571655273,-0.0,0.0,3.7762744426727295,-11916.552734375,1373.140869140625,2697,-16249.60546875,3860.145263671875,553.5552368164062,3.942868709564209,-2.9711713790893555,-37.021087646484375,4796,-522
26589.128,-87.6310043334961,63.37168884277344,0.06942123174667358,0.019020698964595795,0.042672351002693176,1.0524157285690308,44397.0,-0.4000000059604645,-20.96320343017578,-34.15846633911133,-24.515907287597656,-105.90499877929688,23.53524398803711,-0.0,0.0,3.7820281982421875,-10362.39453125,3123.14501953125,2512,-16210.7490234375,3841.871337890625,553.9306640625,3.6859848499298096,-3.312370777130127,-37.03532791137695,4354,356
26591.129,-87.84089660644531,63.56022644042969,-0.05744218826293945,0.018029212951660156,0.049318697303533554,1.0521526336669922,44397.0,-0.4000000059604645,-24.73421287536621,-34.15846633911133,-24.515907287597656,-128.5310516357422,21.048952102661133,-0.0,0.0,3.7877819538116455,-11173.3291015625,-15295.1875,2667,-16171.705078125,3801.18115234375,554.2683715820312,3.6859848499298096,-3.312370777130127,-37.03532791137695,3362,-1196
26593.307,-87.8497543334961,62.906246185302734,-0.14347368478775024,0.02265086956322193,0.05130933225154877,1.0546379089355469,44397.0,-0.4000000059604645,-24.73421287536621,-34.15846633911133,-22.990873336791992,-126.4867172241211,24.0465030670166,-0.0,0.0,3.7935688495635986,-10597.958984375,216.169189453125,3116,-16131.7900390625,3762.544189453125,554.6553955078125,3.431812047958374,-3.653093099594116,-37.051856994628906,3266,-36
26595.076,-87.77330780029297,61.64686584472656,-0.019460313022136688,0.029967116191983223,0.050940096378326416,1.0585472583770752,44397.0,-0.4000000059604645,-24.73421287536621,-34.15846633911133,-22.990873336791992,-126.4867172241211,21.159700393676758,-0.0,0.0,3.7993557453155518,-12048.25,-1163.124755859375,2440,-16093.1337890625,3723.830810546875,554.9942626953125,3.431812047958374,-3.653093099594116,-37.051856994628906,5006,28
26597.038,-88.09120178222656,60.267601013183594,0.08585726469755173,0.03547931835055351,0.0502934530377388,1.0602710247039795,44397.0,-0.4000000059604645,-24.73421287536621,-34.15846633911133,-21.53797149658203,-124.43868255615234,24.12897491455078,-0.0,0.0,3.805175304412842,-11167.177734375,622.753662109375,2289,-16054.4052734375,3687.4833984375,555.3789672851562,3.189661741256714,-3.9944329261779785,-37.06822967529297,4496,-2048
26598.998,-89.21517944335938,59.49277877807617,-0.008428770117461681,0.0389554500579834,0.05102573707699776,1.0579378604888916,44397.0,-0.4000000059604645,-24.73421287536621,-34.15846633911133,-21.53797149658203,-124.43868255615234,21.269575119018555,-0.0,0.0,3.810994863510132,-11756.36328125,-48.192138671875,3204,-16016.451171875,3652.259765625,555.7194213867188,3.189661741256714,-3.9944329261779785,-37.06822967529297,2782,-766
26601.032,-90.84957122802734,59.079444885253906,0.0337047278881073,0.04068194702267647,0.050449471920728683,1.0579698085784912,44397.0,-0.4000000059604645,-29.599037170410156,-34.15846633911133,-20.11913299560547,-151.51678466796875,24.477092742919922,-0.0,0.0,3.816849708557129,-10479.0107421875,-19894.12890625,2516,-15977.490234375,3591.592529296875,556.1105346679688,2.95318865776062,-4.346240997314453,-37.08591842651367,4150,-1644
26602.964,-92.1990966796875,58.09589767456055,0.2000425010919571,0.040749866515398026,0.047711245715618134,1.0587297677993774,44397.0,-0.4000000059604645,-29.599037170410156,-34.15846633911133,-20.11913299560547,-151.51678466796875,21.38741683959961,-0.0,0.0,3.822704553604126,-11807.134765625,-3038.98291015625,2965,-15939.513671875,3532.27490234375,556.4495239257812,2.95318865776062,-4.346240997314453,-37.08591842651367,4193,-1652
26604.982,-93.42384338378906,56.28022384643555,0.43185529112815857,0.03880994766950607,0.042069993913173676,1.060500144958496,44397.0,-0.4000000059604645,-29.599037170410156,-34.15846633911133,-18.768186569213867,-149.34242248535156,24.400949478149414,-0.0,0.0,3.8285927772521973,-11503.44921875,-1389.023193359375,2587,-15902.0009765625,3476.356201171875,556.8330078125,2.7280309200286865,-4.708632946014404,-37.102535247802734,3956,-1416
26606.927,-94.58130645751953,54.44463348388672,0.6720812320709229,0.03466606140136719,0.03507179021835327,1.0629985332489014,44397.0,-0.4000000059604645,-29.599037170410156,-34.15846633911133,-18.768186569213867,-149.34242248535156,21.49889373779297,-0.0,0.0,3.8344810009002686,-12554.015625,-2700.1298828125,2880,-15866.3251953125,3421.59521484375,557.166259765625,2.7280309200286865,-4.708632946014404,-37.102535247802734,3059,-1859
26608.902,-95.9913330078125,52.61000061035156,0.7288990020751953,0.033630114048719406,0.030928784981369972,1.063585638999939,44397.0,-0.4000000059604645,-29.599037170410156,-34.15846633911133,-17.504169464111328,-147.103515625,24.32120132446289,-0.0,0.0,3.840400218963623,-11799.6240234375,-737.95654296875,2552,-15831.2197265625,3370.48291015625,557.5437622070312,2.517361640930176,-5.081784725189209,-37.11809539794922,2676,-2341
26610.912,-97.77323913574219,50.59779739379883,0.835628092288971,0.036627620458602905,0.030375555157661438,1.0630102157592773,44397.0,-0.4000000059604645,-29.599037170410156,-34.15846633911133,-17.504169464111328,-147.103515625,21.604093551635742,-0.0,0.0,3.8463194370269775,-12919.048828125,-1731.440673828125,2205,-15798.1259765625,3321.152587890625,557.8760375976562,2.517361640930176,-5.081784725189209,-37.11809539794922,3183,-2559
26613.094,-100.18182373046875,48.71897888183594,1.163758635520935,0.043167732656002045,0.03138532117009163,1.0617942810058594,44397.0,-0.4000000059604645,-29.599037170410156,-34.15846633911133,-16.339427947998047,-144.7670440673828,24.10398292541504,-0.0,0.0,3.852266311645508,-12164.6015625,669.0751953125,2689,-15765.7470703125,3276.5673828125,558.2431030273438,2.323237895965576,-5.471197128295898,-37.131874084472656,2646,-1911
26614.861,-102.98290252685547,46.76546096801758,1.523948073387146,0.051297176629304886,0.032497093081474304,1.0591435432434082,44397.0,-0.4000000059604645,-29.599037170410156,-34.15846633911133,-16.339427947998047,-144.7670440673828,21.698659896850586,-0.0,0.0,3.858213186264038,-13153.015625,-237.56005859375,2224,-15735.3212890625,3234.783447265625,558.56591796875,2.323237895965576,-5.471197128295898,-37.131874084472656,3409,-2370
26616.824,-105.38837432861328,44.13987731933594,1.458370566368103,0.05651482567191124,0.03048012964427471,1.0562705993652344,44397.0,-0.4000000059604645,-29.599037170410156,-34.15846633911133,-15.292398452758789,-142.3082275390625,23.89891242980957,-0.0,0.0,3.8641841411590576,-13087.134765625,1623.062255859375,2282,-15706.4736328125,3197.863525390625,558.9249877929688,2.148732900619507,-5.880998134613037,-37.14399719238281,1757,-2689
26618.787,-107.6734848022461,41.38310241699219,1.2333513498306274,0.05937717482447624,0.026502618566155434,1.0531595945358276,44397.0,-0.4000000059604645,-29.599037170410156,-34.15846633911133,-15.292398452758789,-142.3082275390625,21.783340454101562,-0.0,0.0,3.870155096054077,-14142.029296875,262.079833984375,2182,-15680.3828125,3163.228759765625,559.2537841796875,2.148732900619507,-5.880998134613037,-37.14399719238281,3015,-2782
26620.819,-110.36878204345703,39.13569259643555,1.162979245185852,0.059237074106931686,0.026645025238394737,1.0504330396652222,44397.0,-0.4000000059604645,-29.599037170410156,-34.15846633911133,-14.36890983581543,-139.73175048828125,24.040237426757812,-0.0,0.0,3.8761510848999023,-13387.21875,2758.353271484375,2486,-15655.6162109375,3133.86572265625,559.6198120117188,1.9948182106018066,-6.310412883758545,-37.15643310546875,1615,-2308
26622.753,-113.38874053955078,36.92414093017578,1.1377332210540771,0.05637596547603607,0.025898994877934456,1.0487200021743774,44397.0,-0.4000000059604645,-29.599037170410156,-34.15846633911133,-14.36890983581543,-139.73175048828125,21.86994743347168,-0.0,0.0,3.8821470737457275,-14195.876953125,1702.120361328125,3179,-15633.060546875,3107.522705078125,559.9515380859375,1.9948182106018066,-6.310412883758545,-37.15643310546875,1665,-450
26624.766,-116.59284973144531,34.475791931152344,1.2287448644638062,0.04937569797039032,0.026573525741696358,1.045106053352356,44397.0,-0.4000000059604645,-29.599037170410156,-34.15846633911133,-13.55307388305664,-137.00958251953125,23.912822723388672,-0.0,0.0,3.8881654739379883,-14017.1181640625,4238.9375,3223,-15612.1376953125,3087.10595703125,560.314453125,1.8588454723358154,-6.764106750488281,-37.167686462402344,526,-1533
26626.705,-119.70463562011719,31.425209045410156,1.4021353721618652,0.04185512289404869,0.029461095109581947,1.041883111000061,44397.0,-0.4000000059604645,-29.599037170410156,-34.15846633911133,-13.55307388305664,-137.00958251953125,21.949504852294922,-0.0,0.0,3.894183874130249,-15266.86328125,2851.548583984375,3119,-15594.265625,3069.801025390625,560.6431884765625,1.8588454723358154,-6.764106750488281,-37.167686462402344,-63,-597
26628.689,-122.47802734375,27.788925170898438,1.3232513666152954,0.03458432853221893,0.03351637348532677,1.0402761697769165,44397.0,-0.4000000059604645,-29.599037170410156,-34.15846633911133,-12.889978408813477,-134.153564453125,23.53945541381836,-0.0,0.0,3.9002199172973633,-15575.240234375,5117.064453125,2724,-15579.3662109375,3058.12548828125,560.9986572265625,1.7483296394348145,-7.240110397338867,-37.17643737792969,922,-221
26630.704,-125.54440307617188,24.525684356689453,1.156103491783142,0.029028235003352165,0.03761715069413185,1.0419002771377563,44397.0,-0.4000000059604645,-29.599037170410156,-34.15846633911133,-12.889978408813477,-134.153564453125,22.014081954956055,-0.0,-0.0,3.9062559604644775,-16152.79296875,3889.85595703125,2758,-15567.73046875,3049.516357421875,561.3323974609375,1.7483296394348145,-7.240110397338867,-37.17643737792969,1579,2484
26632.88,-128.99888610839844,21.895116806030273,1.3500027656555176,0.027628347277641296,0.040980201214551926,1.0433309078216553,44397.0,-0.4000000059604645,-29.599037170410156,-34.15846633911133,-12.364425659179688,-131.14886474609375,23.201507568359375,-0.0,-0.0,3.9123048782348633,-15682.498046875,6815.6083984375,2545,-15558.2001953125,3047.366455078125,561.6820068359375,1.6607376337051392,-7.7408928871154785,-37.18296432495117,-1277,-23
26634.641,-132.60528564453125,19.148353576660156,1.873632788658142,0.02688121423125267,0.04251021519303322,1.0431044101715088,44397.0,-0.4000000059604645,-29.599037170410156,-34.15846633911133,-12.364425659179688,-131.14886474609375,22.06534194946289,-0.0,-0.0,3.918353796005249,-16420.15234375,5484.875,2605,-15551.416015625,3048.822998046875,562.0050659179688,1.6607376337051392,-7.7408928871154785,-37.18296432495117,550,3358
26636.606,-136.26025390625,16.0655517578125,2.1244451999664307,0.027236388996243477,0.045981574803590775,1.0424726009368896,44397.0,-0.4000000059604645,-29.599037170410156,-34.15846633911133,-11.975385665893555,-127.97621154785156,22.254364013671875,-0.0,-0.0,3.9244048595428467,-16719.65625,8359.875,2502,-15547.326171875,3057.10693359375,562.3271484375,1.5958976745605469,-8.269667625427246,-37.18397521972656,-2746,4883
26638.572,-140.00177001953125,13.196898460388184,1.897946834564209,0.030064929276704788,0.05103296414017677,1.0410404205322266,44397.0,-0.4000000059604645,-29.599037170410156,-34.15846633911133,-11.975385665893555,-127.97621154785156,22.08350944519043,-0.0,-0.0,3.9304559230804443,-17186.32421875,6910.77490234375,2605,-15546.1044921875,3069.132568359375,562.650146484375,1.5958976745605469,-8.269667625427246,-37.18397521972656,-1939,3134
26640.604,-143.54727172851562,10.820402145385742,1.7348694801330566,0.031130652874708176,0.047155823558568954,1.0413086414337158,44397.0,-0.4000000059604645,-29.599037170410156,-34.15846633911133,-11.714526176452637,-124.63410949707031,22.099225997924805,-0.0,-0.0,3.936506986618042,-16981.037109375,9756.943359375,2648,-15546.9990234375,3088.0458984375,562.9759521484375,1.5524210929870605,-8.826684951782227,-37.18402862548828,-861,4552
26642.543,-146.85780334472656,8.31960678100586,1.8944284915924072,0.030981911346316338,0.03966442495584488,1.0448862314224243,44397.0,-0.4000000059604645,-29.599037170410156,-34.15846633911133,-11.714526176452637,-124.63410949707031,22.095932006835938,-0.0,-0.0,3.9425580501556396,-17537.755859375,7957.3134765625,3962,-15550.39453125,3110.26953125,563.2991943359375,1.5524210929870605,-8.826684951782227,-37.18402862548828,1367,8461
26644.554,-150.0723114013672,5.215798377990723,2.3020808696746826,0.029223941266536713,0.031422585248947144,1.0486674308776855,44397.0,-0.4000000059604645,-29.599037170410156,-34.15846633911133,-11.58316707611084,-121.13157653808594,21.137399673461914,-0.0,-0.0,3.948598623275757,-18210.462890625,10954.9521484375,1844,-15556.76171875,3139.210205078125,563.6005859375,1.5305278301239014,-9.410440444946289,-37.1786994934082,-2321,7403
26646.488,-153.3697967529297,1.903096079826355,2.6781883239746094,0.025907911360263824,0.02433839812874794,1.0488245487213135,44397.0,-0.4000000059604645,-29.599037170410156,-34.15846633911133,-11.58316707611084,-121.13157653808594,22.076038360595703,-0.0,-0.0,3.954639196395874,-18846.888671875,9262.154296875,2377,-15566.44140625,3171.448486328125,563.9109497070312,1.5305278301239014,-9.410440444946289,-37.1786994934082,-2533,6317
26648.483,-156.65264892578125,-0.9512847661972046,2.902357578277588,0.0263065192848444,0.021771732717752457,1.0509603023529053,44397.0,-0.4000000059604645,-29.599037170410156,-34.15846633911133,-11.593095779418945,-117.47065734863281,19.975461959838867,-0.0,-0.0,3.9606564044952393,-18937.2265625,12448.236328125,2962,-15578.986328125,3210.63037109375,564.1841430664062,1.5321826934814453,-10.020593643188477,-37.16706085205078,-3597,9762
26650.495,-159.84767150878906,-3.3832271099090576,3.294424533843994,0.028338350355625153,0.021151863038539886,1.0536431074142456,44397.0,-0.4000000059604645,-29.599037170410156,-34.15846633911133,-11.593095779418945,-117.47065734863281,22.018239974975586,-0.0,-0.0,3.9666736125946045,-18985.96875,10547.0234375,1953,-15593.962890625,3253.00732421875,564.4837036132812,1.5321826934814453,-10.020593643188477,-37.16706085205078,-4706,9599
26652.665,-163.02130126953125,-6.100553035736084,3.771995782852173,0.032203443348407745,0.020793229341506958,1.0552531480789185,44397.0,-0.4000000059604645,-29.599037170410156,-34.15846633911133,-11.722662925720215,-113.66090393066406,18.62991714477539,-0.0,-0.0,3.972653388977051,-19618.99609375,13837.0322265625,2247,-15611.7861328125,3302.367919921875,564.721435546875,1.5537772178649902,-10.655553817749023,-37.14830780029297,-4034,10141
26654.435,-165.5616912841797,-9.018911361694336,3.9211337566375732,0.036585401743650436,0.020159827545285225,1.057907223701477,44397.0,-0.4000000059604645,-29.599037170410156,-34.15846633911133,-11.722662925720215,-113.66090393066406,21.917682647705078,-0.0,-0.0,3.978633165359497,-20049.197265625,11429.611328125,2209,-15632.52734375,3354.268798828125,565.0093994140625,1.5537772178649902,-10.655553817749023,-37.14830780029297,-3881,10572
26656.391,-167.53611755371094,-11.672015190124512,3.846226215362549,0.040736597031354904,0.020592762157320976,1.0607573986053467,44397.0,-0.4000000059604645,-29.599037170410156,-34.15846633911133,-11.985535621643066,-109.74771881103516,17.66899871826172,-0.0,-0.0,3.9845657348632812,-20435.865234375,14315.36328125,2264,-15656.185546875,3412.05712890625,565.2305908203125,1.5975892543792725,-11.307751655578613,-37.12480163574219,-5631,11239
26658.361,-169.30677795410156,-14.157587051391602,3.8509230613708496,0.04515060782432556,0.02201993204653263,1.0634244680404663,44397.0,-0.4000000059604645,-29.599037170410156,-34.15846633911133,-11.985535621643066,-109.74771881103516,21.788509368896484,-0.0,-0.0,3.9904983043670654,-20503.701171875,12023.1611328125,1821,-15682.328125,3471.6162109375,565.517578125,1.5975892543792725,-11.307751655578613,-37.12480163574219,-5079,11127
26660.393,-170.9614715576172,-16.540979385375977,3.8760266304016113,0.04626854136586189,0.021516136825084686,1.0648815631866455,44397.0,-0.4000000059604645,-29.599037170410156,-34.15846633911133,-12.363031387329102,-105.75790405273438,16.725719451904297,-0.0,-0.0,3.99637508392334,-21049.7890625,15215.083984375,1673,-15711.232421875,3536.81982421875,565.72314453125,1.6605051755905151,-11.972719192504883,-37.096797943115234,-6135,11020
26662.325,-172.45298767089844,-18.51658821105957,3.946329355239868,0.043870702385902405,0.02046923153102398,1.0647952556610107,44397.0,-0.4000000059604645,-29.599037170410156,-34.15846633911133,-12.363031387329102,-105.75790405273438,21.632240295410156,-0.0,-0.0,4.002251625061035,-20836.8203125,12872.59765625,1485,-15742.1123046875,3603.514892578125,566.006103515625,1.6605051755905151,-11.972719192504883,-37.096797943115234,-8380,10169
26664.333,-173.5227508544922,-20.476837158203125,3.954085350036621,0.03993755951523781,0.020638009533286095,1.0650014877319336,44397.0,-0.4000000059604645,-29.599037170410156,-34.15846633911133,-12.826306343078613,-101.71144104003906,15.78640365600586,-0.0,-0.0,4.008063793182373,-21453.009765625,15849.3818359375,1741,-15775.4150390625,3675.326171875,566.1954345703125,1.7377177476882935,-12.647130966186523,-37.06446838378906,-8887,11540
26666.277,-174.05116271972656,-22.603479385375977,3.9295527935028076,0.03673882409930229,0.02079131081700325,1.0671272277832031,44397.0,-0.4000000059604645,-29.599037170410156,-34.15846633911133,-12.826306343078613,-101.71144104003906,21.449888229370117,-0.0,-0.0,4.013875961303711,-21568.72265625,13120.388671875,1369,-15810.845703125,3747.665771484375,566.4757690429688,1.7377177476882935,-12.647130966186523,-37.06446838378906,-9301,12825
26668.263,-174.44119262695312,-24.38519859313965,3.9344699382781982,0.0351630263030529,0.02278272807598114,1.0693690776824951,44397.0,-0.4000000059604645,-29.599037170410156,-34.15846633911133,-13.375251770019531,-97.64913940429688,14.829971313476562,-0.0,-0.0,4.0196146965026855,-22025.328125,16206.171875,1947,-15848.6064453125,3824.457763671875,566.6500854492188,1.8292087316513062,-13.324180603027344,-37.027862548828125,-8188,11562
26670.283,-175.04005432128906,-26.229015350341797,3.8954718112945557,0.03594652935862541,0.02606801874935627,1.0709691047668457,44397.0,-0.4000000059604645,-29.599037170410156,-34.15846633911133,-13.375251770019531,-97.64913940429688,21.241729736328125,-0.0,-0.0,4.02535343170166,-21991.126953125,13950.0009765625,817,-15888.2099609375,3901.848876953125,566.9276123046875,1.8292087316513062,-13.324180603027344,-37.027862548828125,-9663,11694
26672.451,-175.32089233398438,-27.906606674194336,3.726923704147339,0.036417119204998016,0.027800578624010086,1.0716240406036377,44397.0,-0.4000000059604645,-29.599037170410156,-34.15846633911133,-14.004356384277344,-93.57337951660156,13.983747482299805,-0.0,-0.0,4.031012058258057,-22610.677734375,16924.908203125,2336,-15930.12109375,3983.596435546875,567.0917358398438,1.9340593814849854,-14.003473281860352,-36.98773193359375,-8174,13285
26674.218,-174.7425537109375,-28.462135314941406,3.4430959224700928,0.036349110305309296,0.02891528233885765,1.07015860080719,44397.0,-0.4000000059604645,-29.599037170410156,-34.15846633911133,-14.004356384277344,-93.57337951660156,21.012264251708984,-0.0,-0.0,4.036670684814453,-21628.103515625,13849.4501953125,1094,-15972.587890625,4064.765380859375,567.3728637695312,1.9340593814849854,-14.003473281860352,-36.98773193359375,-9862,12417
26676.18,-173.73951721191406,-28.767873764038086,3.042179822921753,0.03473212569952011,0.035243842750787735,1.0676966905593872,44397.0,-0.4000000059604645,-29.599037170410156,-34.15846633911133,-14.652883529663086,-89.54524230957031,13.875032424926758,-0.0,-0.0,4.042250156402588,-22040.01953125,16563.931640625,1976,-16016.0087890625,4148.95947265625,567.5462036132812,2.042147159576416,-14.674830436706543,-36.94826889038086,-9477,12163
26678.156,-172.7489471435547,-29.32387351989746,2.6744649410247803,0.0320710688829422,0.04448000341653824,1.0644603967666626,44397.0,-0.4000000059604645,-29.599037170410156,-34.15846633911133,-14.652883529663086,-89.54524230957031,20.786643981933594,-0.0,-0.0,4.047829627990723,-21904.578125,14013.51953125,2028,-16059.984375,4232.16357421875,567.8359985351562,2.042147159576416,-14.674830436706543,-36.94826889038086,-9910,11241
26680.188,-171.81613159179688,-29.94833755493164,2.544332981109619,0.031432799994945526,0.05265294760465622,1.0611462593078613,44397.0,-0.4000000059604645,-29.599037170410156,-34.15846633911133,-15.326502799987793,-85.5775146484375,13.574073791503906,-0.0,-0.0,4.0533294677734375,-22575.916015625,16995.048828125,2469,-16105.2587890625,4318.40185546875,568.012451171875,2.154417037963867,-15.336118698120117,-36.908390045166016,-11063,11622
26682.113,-170.5616912841797,-30.108123779296875,2.464038372039795,0.031770892441272736,0.0573708601295948,1.0586352348327637,44397.0,-0.4000000059604645,-29.599037170410156,-34.15846633911133,-15.326502799987793,-85.5775146484375,20.558372497558594,-0.0,-0.0,4.058829307556152,-21929.888671875,14242.3828125,1692,-16150.6943359375,4403.38623046875,568.3019409179688,2.154417037963867,-15.336118698120117,-36.908390045166016,-10478,11174
26684.13,-169.00611877441406,-29.93820571899414,2.406841993331909,0.03114139474928379,0.055889520794153214,1.0561877489089966,44397.0,-0.4000000059604645,-29.599037170410156,-34.15846633911133,-15.99693489074707,-81.68428039550781,13.228342056274414,-0.0,-0.0,4.064248085021973,-22251.34375,16866.9765625,1955,-16196.62890625,4490.7080078125,568.47509765625,2.26615571975708,-15.984990119934082,-36.867862701416016,-10720,11214
26686.065,-167.36978149414062,-29.770137786865234,2.3982081413269043,0.029047494754195213,0.05292060971260071,1.0538506507873535,44397.0,-0.4000000059604645,-29.599037170410156,-34.15846633911133,-15.99693489074707,-81.68428039550781,20.326045989990234,-0.0,-0.0,4.069666862487793,-21858.23828125,14264.3701171875,2008,-16242.3955078125,4576.3935546875,568.761962890625,2.26615571975708,-15.984990119934082,-36.867862701416016,-11125,10826
26688.06,-165.43687438964844,-29.532058715820312,2.539161205291748,0.0263016726821661,0.049160461872816086,1.0526158809661865,44397.0,-0.4000000059604645,-29.599037170410156,-34.15846633911133,-16.65091323852539,-77.87862396240234,12.770151138305664,-0.0,-0.0,4.075002193450928,-22321.38671875,16779.201171875,2862,-16288.578125,4663.95166015625,568.9256591796875,2.375152111053467,-16.619266510009766,-36.826087951660156,-11215,10901
26690.069,-163.04364013671875,-29.233152389526367,2.6516966819763184,0.02390061877667904,0.04584971070289612,1.0513912439346313,44397.0,-0.4000000059604645,-29.599037170410156,-34.15846633911133,-16.65091323852539,-77.87862396240234,20.08606719970703,-0.0,-0.0,4.0803375244140625,-21883.150390625,13898.97265625,1960,-16334.4609375,4749.11669921875,569.20458984375,2.375152111053467,-16.619266510009766,-36.826087951660156,-10578,11698
26692.242,-160.34759521484375,-28.55144691467285,2.606701612472534,0.02461313083767891,0.044695958495140076,1.054897665977478,44397.0,-0.4000000059604645,-29.599037170410156,-34.15846633911133,-17.277313232421875,-74.19811248779297,12.487281799316406,-0.0,-0.0,4.0855889320373535,-22074.318359375,16219.244140625,2353,-16380.2890625,4835.2666015625,569.3626708984375,2.4795520305633545,-17.232685089111328,-36.78407669067383,-12209,10392
26694.009,-157.30899047851562,-26.715789794921875,2.752136707305908,0.026195844635367393,0.04515557736158371,1.0585827827453613,44397.0,-0.4000000059604645,-29.599037170410156,-34.15846633911133,-17.277313232421875,-74.19811248779297,19.844501495361328,-0.0,-0.0,4.0908403396606445,-20776.134765625,13408.109375,1072,-16424.28125,4918.37744140625,569.6361694335938,2.4795520305633545,-17.232685089111328,-36.78407669067383,-10148,11410
26695.976,-154.18698120117188,-24.606386184692383,3.0631465911865234,0.02733313851058483,0.04658389091491699,1.0598863363265991,44397.0,-0.4000000059604645,-29.599037170410156,-34.15846633911133,-17.80819320678711,-70.67184448242188,12.607437133789062,-0.0,-0.0,4.096011638641357,-20781.94140625,15693.947265625,2138,-16466.6953125,5001.892578125,569.7888793945312,2.5680320262908936,-17.820396423339844,-36.74406433105469,-11584,10191
26697.937,-151.25279235839844,-22.764863967895508,3.3047900199890137,0.02856437675654888,0.04869255796074867,1.0609105825424194,44397.0,-0.4000000059604645,-29.599037170410156,-34.15846633911133,-17.80819320678711,-70.67184448242188,19.614770889282227,-0.0,-0.0,4.10118293762207,-20427.951171875,13321.2236328125,1837,-16507.26953125,5082.4736328125,570.0498657226562,2.5680320262908936,-17.820396423339844,-36.74406433105469,-10179,9968
26699.972,-148.27882385253906,-20.482454299926758,3.5289132595062256,0.031852297484874725,0.048217132687568665,1.0622285604476929,44397.0,-0.4000000059604645,-29.599037170410156,-34.15846633911133,-18.240924835205078,-67.29371643066406,12.838167190551758,-0.0,-0.0,4.106279373168945,-20230.3671875,15539.197265625,1184,-16545.9921875,5163.458984375,570.1987915039062,2.6401538848876953,-18.3834171295166,-36.70659637451172,-11536,10233
26701.896,-145.12828063964844,-17.748579025268555,3.490561008453369,0.03605193272233009,0.0440460667014122,1.0609186887741089,44397.0,-0.4000000059604645,-29.599037170410156,-34.15846633911133,-18.240924835205078,-67.29371643066406,19.400156021118164,-0.0,-0.0,4.11137580871582,-19371.99609375,13001.5244140625,991,-16581.982421875,5241.29345703125,570.453369140625,2.6401538848876953,-18.3834171295166,-36.70659637451172,-10499,11557
26703.92,-141.602294921875,-14.813765525817871,3.1699461936950684,0.03866269811987877,0.03851430118083954,1.0581282377243042,44397.0,-0.4000000059604645,-29.599037170410156,-34.15846633911133,-18.548614501953125,-64.07819366455078,14.063102722167969,-0.0,-0.0,4.116413116455078,-19143.69140625,14815.291015625,627,-16615.34375,5318.8173828125,570.627685546875,2.6914355754852295,-18.91933822631836,-36.67708206176758,-10743,10877
26705.856,-137.99778747558594,-11.941034317016602,2.98172664642334,0.03957521915435791,0.031186463311314583,1.0539849996566772,44397.0,-0.4000000059604645,-29.599037170410156,-34.15846633911133,-18.548614501953125,-64.07819366455078,19.233144760131836,-0.0,-0.0,4.121450424194336,-18661.580078125,12379.869140625,1061,-16645.83203125,5392.7373046875,570.8876953125,2.6914355754852295,-18.91933822631836,-36.67708206176758,-10637,9192
26707.848,-134.68101501464844,-9.053217887878418,2.8975908756256104,0.03814858943223953,0.02520659938454628,1.051531195640564,44397.0,-0.4000000059604645,-29.599037170410156,-34.15846633911133,-18.725988388061523,-61.0294189453125,15.370871543884277,-0.0,-0.0,4.1264448165893555,-18428.373046875,14505.33984375,1935,-16650.0,5466.38916015625,571.0872802734375,2.7209980487823486,-19.427467346191406,-36.65571594238281,-9893,9238
26709.888,-131.20640563964844,-5.702007293701172,2.6974825859069824,0.03765945881605148,0.019692493602633476,1.0526198148727417,44397.0,-0.4000000059604645,-29.599037170410156,-34.15846633911133,-18.725988388061523,-61.0294189453125,19.11493682861328,-0.0,-0.0,4.131439208984375,-17608.994140625,12137.05859375,1342,-16650.0,5536.56640625,571.3499755859375,2.7209980487823486,-19.427467346191406,-36.65571594238281,-9026,8716
26712.03,-127.33018493652344,-2.5543675422668457,2.286647081375122,0.03600671514868736,0.020062560215592384,1.053039312362671,44397.0,-0.4000000059604645,-29.599037170410156,-34.15846633911133,-18.759353637695312,-58.162147521972656,17.213550567626953,-0.0,-0.0,4.136412620544434,-17367.79296875,13621.146484375,1298,-16650.0,5605.734375,571.5888061523438,2.7265586853027344,-19.905345916748047,-36.64518356323242,-5487,7369
26713.795,-122.8366928100586,0.8074193596839905,1.854583501815796,0.03171490505337715,0.022228142246603966,1.056814193725586,44397.0,-0.4000000059604645,-29.599037170410156,-34.15846633911133,-18.759353637695312,-58.162147521972656,19.061689376831055,-0.0,-0.0,4.141386032104492,-16792.875,10946.294921875,2267,-16650.0,5670.40869140625,571.8641357421875,2.7265586853027344,-19.905345916748047,-36.64518356323242,-7850,7843
26715.757,-118.34806823730469,4.62993049621582,1.7323774099349976,0.02796274609863758,0.025914594531059265,1.060141682624817,44397.0,-0.4000000059604645,-29.599037170410156,-34.15846633911133,-18.63117218017578,-55.520965576171875,19.331111907958984,-0.0,-0.0,4.1463623046875,-15930.9716796875,12431.97265625,2413,-16650.0,5733.23583984375,572.1456909179688,2.705195188522339,-20.345542907714844,-36.646644592285156,-6906,9105
26717.728,-113.653076171875,8.557393074035645,1.6578309535980225,0.025193804875016212,0.02968525141477585,1.0631718635559082,44397.0,-0.4000000059604645,-29.599037170410156,-34.15846633911133,-18.63117218017578,-55.520965576171875,19.080408096313477,-0.0,-0.0,4.151338577270508,-15454.55859375,10123.51171875,1936,-16650.0,5791.3681640625,572.4244384765625,2.705195188522339,-20.345542907714844,-36.646644592285156,-6637,6853
26719.792,-108.91942596435547,12.230463027954102,1.4991267919540405,0.02416473813354969,0.029964353889226913,1.064772129058838,44397.0,-0.4000000059604645,-29.599037170410156,-34.15846633911133,-18.333017349243164,-53.115177154541016,21.473712921142578,-0.0,-0.0,4.156341552734375,-14930.8037109375,11367.7900390625,2523,-16650.0,5847.17236328125,572.7440185546875,2.6555027961730957,-20.74650764465332,-36.65983963012695,-5086,6318
26721.688,-104.59530639648438,15.605405807495117,1.4434651136398315,0.024225758388638496,0.030208244919776917,1.0665946006774902,44397.0,-0.4000000059604645,-29.599037170410156,-34.15846633911133,-18.333017349243164,-53.115177154541016,19.169584274291992,-0.0,-0.0,4.161344528198242,-14881.6123046875,9631.09375,2061,-16650.0,5898.65234375,573.0276489257812,2.6555027961730957,-20.74650764465332,-36.65983963012695,-3996,4059
26723.698,-100.19681549072266,19.629465103149414,1.553878664970398,0.022771641612052917,0.032843586057424545,1.0639268159866333,44397.0,-0.4000000059604645,-26.73006248474121,-34.15846633911133,-17.869384765625,-33.712669372558594,23.50105857849121,-0.0,-0.0,4.16639518737793,-13623.4208984375,23653.166015625,2202,-16648.23828125,5965.13671875,573.3787841796875,2.578230857849121,-21.111284255981445,-36.68374252319336,-3323,4398
26725.647,-95.462158203125,23.960927963256836,1.562852144241333,0.0187595933675766,0.03582948073744774,1.0583754777908325,44397.0,-0.4000000059604645,-26.73006248474121,-34.15846633911133,-17.869384765625,-33.712669372558594,19.323102951049805,-0.0,-0.0,4.171445846557617,-13173.5390625,10786.4111328125,2662,-16642.146484375,6026.8857421875,573.6629638671875,2.578230857849121,-21.111284255981445,-36.68374252319336,-1092,4594
26727.635,-90.61872863769531,27.94024085998535,1.4248954057693481,0.015946168452501297,0.03904064744710922,1.054989218711853,44397.0,-0.4000000059604645,-26.73006248474121,-34.15846633911133,-17.219825744628906,-31.763408660888672,26.009811401367188,-0.0,-0.0,4.176570415496826,-12398.3291015625,11633.80078125,2548,-16631.42578125,6085.74169921875,574.0563354492188,2.469970941543579,-21.436161041259766,-36.72065734863281,908,4087
26729.666,-85.88749694824219,31.82666015625,1.328839898109436,0.015198585577309132,0.0419686920940876,1.0514984130859375,44397.0,-0.4000000059604645,-26.73006248474121,-34.15846633911133,-17.219825744628906,-31.763408660888672,19.554840087890625,-0.0,-0.0,4.181694984436035,-12361.9541015625,9948.357421875,1854,-16616.8203125,6139.865234375,574.3479614257812,2.469970941543579,-21.436161041259766,-36.72065734863281,584,1521
26731.829,-82.03336334228516,35.61687469482422,1.3240476846694946,0.016276603564620018,0.04640098288655281,1.0485546588897705,44397.0,-0.5258609056472778,-19.74410629272461,-34.15846633911133,-17.157997131347656,11.886463165283203,28.45250129699707,-0.0,-0.0,4.186917781829834,-11883.47265625,42846.09765625,1339,-16598.359375,6233.78515625,574.7820434570312,2.3338053226470947,-21.725183486938477,-36.7697868347168,861,5470
26733.583,-78.49539184570312,39.140018463134766,1.2357733249664307,0.019356489181518555,0.05052255094051361,1.0509634017944336,44397.0,-0.5258609056472778,-19.74410629272461,-34.15846633911133,-17.157997131347656,11.886463165283203,19.860063552856445,-0.0,-0.0,4.192140579223633,-11626.6591796875,15410.6611328125,2268,-16576.376953125,6324.1669921875,575.0800170898438,2.3338053226470947,-21.725183486938477,-36.7697868347168,1449,4124
26735.548,-75.07707977294922,42.48293685913086,0.956437349319458,0.021716905757784843,0.052379168570041656,1.053093671798706,44397.0,-0.5258609056472778,-19.74410629272461,-34.15846633911133,-16.197277069091797,13.446281433105469,30.9638671875,-0.0,-0.0,4.19748592376709,-10574.6103515625,16316.552734375,2614,-16550.091796875,6412.68994140625,575.5601196289062,2.1736855506896973,-21.985153198242188,-36.83110427856445,1670,3325
26737.516,-71.62332153320312,45.9324951171875,0.7840292453765869,0.022702759131789207,0.050123486667871475,1.0542173385620117,44397.0,-0.5258609056472778,-19.74410629272461,-34.15846633911133,-16.197277069091797,13.446281433105469,20.238658905029297,-0.0,-0.0,4.202831268310547,-10647.4814453125,14972.861328125,2287,-16520.357421875,6497.759765625,575.8713989257812,2.1736855506896973,-21.985153198242188,-36.83110427856445,1319,5755
26739.558,-67.98802185058594,48.86561584472656,0.6216540336608887,0.026096485555171967,0.042912352830171585,1.0528630018234253,44397.0,-0.5258609056472778,-19.74410629272461,-34.15846633911133,-15.103279113769531,14.836738586425781,33.40639114379883,-0.0,-0.0,4.208322048187256,-9749.3544921875,15530.65234375,2092,-16486.595703125,6580.58447265625,576.3959350585938,1.9913522005081177,-22.216896057128906,-36.90382385253906,2955,7823
26741.481,-64.6480484008789,51.42283248901367,0.3321920335292816,0.030236590653657913,0.03487403318285942,1.0533262491226196,44397.0,-0.5258609056472778,-19.74410629272461,-34.15846633911133,-15.103279113769531,14.836738586425781,20.685958862304688,-0.0,-0.0,4.213812828063965,-10312.0703125,14508.1845703125,3030,-16450.275390625,6660.0693359375,576.7216186523438,1.9913522005081177,-22.216896057128906,-36.90382385253906,3042,6498
26743.495,-61.78371810913086,54.46763229370117,0.2161247879266739,0.03323715552687645,0.027746260166168213,1.0536810159683228,44397.0,-1.2785208225250244,-11.758781433105469,-34.15846633911133,-18.411792755126953,63.994789123535156,35.76573944091797,-0.0,-0.0,4.219470024108887,-12072.060546875,51441.73046875,2677,-16414.21875,6785.84814453125,577.2904052734375,1.7901111841201782,-22.424579620361328,-36.98710632324219,3957,6265
26745.43,-58.93012237548828,57.19866943359375,0.17937874794006348,0.0345841683447361,0.02072528377175331,1.0532382726669312,44397.0,-1.2785208225250244,-11.758781433105469,-34.15846633911133,-18.411792755126953,63.994789123535156,21.19696807861328,-0.0,-0.0,4.225127220153809,-9820.1748046875,20490.892578125,3226,-16375.4326171875,6908.77294921875,577.626708984375,1.7901111841201782,-22.424579620361328,-36.98710632324219,4896,3960
26747.457,-55.8187370300293,59.383487701416016,0.128086656332016,0.03347274288535118,0.0151599682867527,1.0544759035110474,44397.0,-1.2785208225250244,-11.758781433105469,-34.15846633911133,-17.100040435791016,65.10221862792969,37.7945671081543,-0.0,-0.0,4.230967998504639,-8862.3623046875,20892.34375,2224,-16333.1494140625,7029.69384765625,578.2293701171875,1.5714858770370483,-22.60915184020996,-37.078773498535156,2697,3692
26749.442,-52.522926330566406,61.15260696411133,0.019397230818867683,0.03192071244120598,0.011026129126548767,1.0550857782363892,44397.0,-1.2785208225250244,-11.758781433105469,-34.15846633911133,-17.100040435791016,65.10221862792969,21.758651733398438,-0.0,-0.0,4.236808776855469,-9676.826171875,19790.578125,4557,-16289.0966796875,7147.3193359375,578.5772094726562,1.5714858770370483,-22.60915184020996,-37.078773498535156,7307,11981
26751.644,-49.28318405151367,62.77423858642578,-0.10595317929983139,0.02981881983578205,0.011349191889166832,1.054085373878479,44397.0,-1.2785208225250244,-11.758781433105469,-34.15846633911133,-15.717278480529785,66.05409240722656,39.551631927490234,-0.0,-0.0,4.2428460121154785,-8482.173828125,20249.90234375,3433,-16242.041015625,7262.65673828125,579.2117309570312,1.3410255908966064,-22.767797470092773,-37.17704391479492,6004,9252
26753.404,-46.3375244140625,64.38660430908203,-0.02105344831943512,0.026287592947483063,0.012569669634103775,1.0575681924819946,44397.0,-0.7407689094543457,-2.222841262817383,-34.15846633911133,-12.490766525268555,123.26973724365234,22.360347747802734,-0.0,-0.0,4.248883247375488,-6678.869140625,62551.9140625,4449,-16190.1455078125,7432.263671875,579.56982421875,1.3410255908966064,-22.767797470092773,-37.17704391479492,5119,6819
26755.363,-43.64436340332031,65.40367889404297,0.2593206465244293,0.02211623638868332,0.012196353636682034,1.0575907230377197,44397.0,-0.7407689094543457,-2.222841262817383,-34.15846633911133,-11.046182632446289,124.08644104003906,40.73006820678711,-0.0,-0.0,4.255123138427734,-7802.5615234375,27393.552734375,3377,-16135.7880859375,7599.99462890625,580.2173461914062,1.1002615690231323,-22.903915405273438,-37.278499603271484,5868,6176
26757.337,-40.68120193481445,65.46733856201172,0.5869083404541016,0.019160442054271698,0.0166685339063406,1.0610610246658325,44397.0,-0.7407689094543457,-2.222841262817383,-34.15846633911133,-11.046182632446289,124.08644104003906,22.981563568115234,-0.0,-0.0,4.2613630294799805,-9238.935546875,26508.73828125,4773,-16081.3671875,7764.76220703125,580.57568359375,1.1002615690231323,-22.903915405273438,-37.278499603271484,6686,7019
26759.339,-37.207054138183594,65.74837493896484,0.7487759590148926,0.016289111226797104,0.019119706004858017,1.0663635730743408,44397.0,-0.7407689094543457,-2.222841262817383,-34.15846633911133,-9.589808464050293,124.74687194824219,41.18991470336914,-0.0,-0.0,4.267804145812988,-7919.50830078125,26412.380859375,3822,-16025.208984375,7926.71630859375,581.2227172851562,0.8575325012207031,-23.013986587524414,-37.37906265258789,8901,13842
26761.286,-33.86717987060547,66.43762969970703,1.038994312286377,0.014495810493826866,0.01876017637550831,1.0688964128494263,44397.0,-0.7407689094543457,-2.222841262817383,-34.15846633911133,-9.589808464050293,124.74687194824219,23.597824096679688,-0.0,-0.0,4.274245262145996,-8431.6005859375,25824.6640625,5198,-15968.3623046875,8085.330078125,581.5836791992188,0.8575325012207031,-23.013986587524414,-37.37906265258789,8078,13403
26763.295,-30.311914443969727,67.3074951171875,1.6225488185882568,0.015427355654537678,0.019248509779572487,1.0703445672988892,44397.0,-0.4000000059604645,-1.7785695791244507,-34.15846633911133,-6.048982620239258,127.9090576171875,41.71039962768555,-0.0,-0.0,4.280886650085449,-5493.10546875,27775.5078125,3997,-15907.103515625,8243.55078125,582.22509765625,0.6081638336181641,-23.09674644470215,-37.479095458984375,7313,13529
26765.24,-26.914276123046875,67.51028442382812,2.18812894821167,0.017869122326374054,0.02217145636677742,1.0688492059707642,44397.0,-0.4000000059604645,-1.7785695791244507,-34.15846633911133,-6.048982620239258,127.9090576171875,24.2113037109375,-0.0,-0.0,4.287528038024902,-8036.236328125,25627.763671875,5238,-15845.642578125,8398.375,582.5774536132812,0.6081638336181641,-23.09674644470215,-37.479095458984375,6512,14395
26767.226,-23.498764038085938,67.14192962646484,2.661756753921509,0.019911814481019974,0.026146087795495987,1.0654999017715454,44397.0,-0.4000000059604645,-1.7785695791244507,-34.15846633911133,-4.551894187927246,128.240966796875,41.61013412475586,-0.0,-0.0,4.294361591339111,-7253.841796875,25590.328125,4011,-15783.052734375,8550.1142578125,583.2006225585938,0.35864898562431335,-23.152063369750977,-37.5751838684082,7917,13305
26769.234,-19.84600830078125,66.07408905029297,3.088446617126465,0.02178276889026165,0.029961492866277695,1.0606637001037598,44397.0,-0.4000000059604645,-1.7785695791244507,-34.15846633911133,-4.551894187927246,128.240966796875,24.80150032043457,-0.0,-0.0,4.30119514465332,-8698.65625,24926.099609375,5115,-15721.5302734375,8698.201171875,583.5480346679688,0.35864898562431335,-23.152063369750977,-37.5751838684082,9050,12883
26771.403,-15.920557975769043,64.49195098876953,3.456437110900879,0.024005744606256485,0.03234982490539551,1.0573387145996094,44397.0,-0.4000000059604645,-1.7785695791244507,-34.15846633911133,-3.1103715896606445,128.39016723632812,40.92108917236328,-0.0,-0.0,4.308206558227539,-8075.333984375,24521.19921875,3527,-15660.1484375,8842.51171875,584.1474609375,0.11839522421360016,-23.176931381225586,-37.66420364379883,7880,12157
26773.172,-11.451385498046875,62.76732635498047,3.866048812866211,0.023655731230974197,0.03285043686628342,1.0534249544143677,44397.0,-0.4000000059604645,-1.445124864578247,-34.15846633911133,-3.1103715896606445,130.39083862304688,25.349641799926758,-0.0,-0.0,4.315217971801758,-9221.26171875,25171.81640625,5244,-15600.4912109375,8984.3544921875,584.4912109375,0.11839522421360016,-23.176931381225586,-37.66420364379883,7067,12196
26775.129,-6.658266544342041,60.8525276184082,4.309076309204102,0.02196403592824936,0.030920837074518204,1.0487362146377563,44397.0,-0.4000000059604645,-1.445124864578247,-34.15846633911133,-1.7420368194580078,130.3203125,39.83990478515625,-0.0,-0.0,4.322389602661133,-8494.111328125,23203.875,3851,-15541.380859375,9121.33203125,585.0596923828125,-0.10966053605079651,-23.165176391601562,-37.74422073364258,7804,9170
26777.102,-1.8986164331436157,59.08686828613281,4.846807479858398,0.020441358909010887,0.03070363588631153,1.0464751720428467,44397.0,-0.4000000059604645,-1.445124864578247,-34.15846633911133,-1.7420368194580078,130.3203125,25.844087600708008,-0.0,-0.0,4.329561233520508,-9419.466796875,22806.140625,5382,-15484.0361328125,9253.5517578125,585.3956298828125,-0.10966053605079651,-23.165176391601562,-37.74422073364258,7200,9914
26779.124,3.150113582611084,57.37578582763672,5.539389610290527,0.019092340022325516,0.031836602836847305,1.0461421012878418,44397.0,-0.4000000059604645,-1.445124864578247,-34.15846633911133,-0.4388512372970581,130.01560974121094,38.47439193725586,-0.0,-0.0,4.336872100830078,-8564.9189453125,21892.703125,3155,-15427.099609375,9380.4169921875,585.922607421875,-0.32685813307762146,-23.11439323425293,-37.813961029052734,7302,9621
26781.049,8.304905891418457,55.41068649291992,6.169005393981934,0.018554609268903732,0.031131479889154434,1.0467143058776855,44397.0,-0.4000000059604645,-1.445124864578247,-34.15846633911133,-0.4388512372970581,130.01560974121094,26.277151107788086,-0.0,-0.0,4.344182968139648,-9728.8359375,21494.220703125,5012,-15372.1279296875,9502.1279296875,586.2443237304688,-0.32685813307762146,-23.11439323425293,-37.813961029052734,7711,9969
26783.067,13.688200950622559,52.79005432128906,6.616623401641846,0.01962113194167614,0.030410168692469597,1.0482196807861328,44397.0,-0.4000000059604645,-1.0027806758880615,-34.15846633911133,0.7718852162361145,132.1142578125,36.814788818359375,-0.0,-0.0,4.35161018371582,-9504.5087890625,22370.90625,3096,-15318.5654296875,9620.5537109375,586.7274780273438,-0.5286475419998169,-23.02182388305664,-37.87213897705078,6660,9140
26785.009,19.506105422973633,50.15324401855469,6.883365154266357,0.021062685176730156,0.028563419356942177,1.0512348413467407,44397.0,-0.4000000059604645,-1.0027806758880615,-34.15846633911133,0.7718852162361145,132.1142578125,26.64107322692871,-0.0,-0.0,4.359037399291992,-10550.0048828125,20172.9921875,4460,-15267.6396484375,9733.162109375,587.0435791015625,-0.5286475419998169,-23.02182388305664,-37.87213897705078,6546,8906
26786.998,25.628698348999023,47.03864669799805,7.149333953857422,0.023988250643014908,0.02730315923690796,1.0536084175109863,44397.0,-0.4000000059604645,-1.0027806758880615,-34.15846633911133,1.857651710510254,131.27499389648438,35.1012077331543,-0.0,-0.0,4.366558074951172,-10374.7265625,18693.43359375,3295,-15218.744140625,9838.8076171875,587.4907836914062,-0.7096086144447327,-22.881946563720703,-37.91883850097656,5462,7414
26789.009,31.781923294067383,43.74369430541992,7.590717792510986,0.025164911523461342,0.025955412536859512,1.0588160753250122,44397.0,-0.4000000059604645,-1.0027806758880615,-34.15846633911133,1.857651710510254,131.27499389648438,26.936311721801758,-0.0,-0.0,4.374078750610352,-11532.3203125,18529.171875,4410,-15173.1435546875,9938.30078125,587.80029296875,-0.7096086144447327,-22.881946563720703,-37.91883850097656,5518,6800
26791.183,37.30518341064453,40.68636703491211,7.870174884796143,0.02490250952541828,0.026228949427604675,1.0630998611450195,44397.0,-0.4000000059604645,-1.0027806758880615,-34.15846633911133,2.80885910987854,130.15708923339844,33.01926040649414,-0.0,-0.0,4.381666660308838,-11009.068359375,17486.912109375,3521,-15129.6484375,10031.15234375,588.2026977539062,-0.8681432008743286,-22.695629119873047,-37.9524040222168,5168,7873
26792.959,42.5692253112793,37.06377410888672,8.125373840332031,0.024743732064962387,0.028423193842172623,1.0675835609436035,44397.0,-0.4000000059604645,-1.0027806758880615,-34.15846633911133,2.80885910987854,130.15708923339844,27.152881622314453,-0.0,-0.0,4.389254570007324,-12369.8173828125,17777.1953125,3249,-15089.7763671875,10118.7412109375,588.5071411132812,-0.8681432008743286,-22.695629119873047,-37.9524040222168,3209,7808
26794.914,48.035518646240234,33.08787155151367,8.495231628417969,0.024326445534825325,0.03027619794011116,1.0702624320983887,44397.0,-0.4000000059604645,-1.0027806758880615,-34.15846633911133,3.5977277755737305,128.78054809570312,30.576904296875,-0.0,-0.0,4.396880149841309,-12459.2861328125,16015.841796875,2662,-15053.08984375,10199.4853515625,588.8604736328125,-0.9996213316917419,-22.466205596923828,-37.97127914428711,3995,4817
26796.885,53.72338104248047,29.27399253845215,8.886683464050293,0.02392684295773506,0.030123058706521988,1.0700594186782837,44397.0,-0.4000000059604645,-1.0027806758880615,-34.15846633911133,3.5977277755737305,128.78054809570312,27.281383514404297,-0.0,-0.0,4.404505729675293,-13294.9296875,16101.77734375,3001,-15020.21875,10274.54296875,589.15478515625,-0.9996213316917419,-22.466205596923828,-37.97127914428711,4073,5110
26798.913,59.254371643066406,25.58783531188965,9.194485664367676,0.024371249601244926,0.028817210346460342,1.0686527490615845,44397.0,-0.4000000059604645,-1.0027806758880615,-34.15846633911133,4.2263031005859375,127.13601684570312,28.05542755126953,-0.0,-0.0,4.412139892578125,-13174.6259765625,14342.9296875,1826,-14990.4052734375,10342.4248046875,589.45654296875,-1.1043838262557983,-22.19211769104004,-37.97551345825195,2425,3860
26800.841,64.73397064208984,21.921268463134766,9.476289749145508,0.023726779967546463,0.02515256591141224,1.0650469064712524,44397.0,-0.4000000059604645,-1.0027806758880615,-34.15846633911133,4.2263031005859375,127.13601684570312,27.32205581665039,-0.0,-0.0,4.419774055480957,-13987.4140625,14780.3330078125,3070,-14964.2568359375,10404.826171875,589.7420654296875,-1.1043838262557983,-22.19211769104004,-37.97551345825195,3632,4694
26802.855,70.28211975097656,18.410083770751953,9.527277946472168,0.02348772995173931,0.02112472429871559,1.0593571662902832,44397.0,-0.4000000059604645,-1.0027806758880615,-34.15846633911133,4.69822883605957,125.2313232421875,25.81066131591797,-0.0,-0.0,4.427391529083252,-13952.146484375,12670.3994140625,2522,-14941.1484375,10459.775390625,590.0026245117188,-1.1830381155014038,-21.87466812133789,-37.96712112426758,3231,2862
26804.797,75.8286361694336,14.908352851867676,9.553727149963379,0.024670645594596863,0.016477853059768677,1.0536208152770996,44397.0,-0.4000000059604645,-1.0027806758880615,-34.15846633911133,4.69822883605957,125.2313232421875,27.286937713623047,-0.0,-0.0,4.435009002685547,-14659.30078125,13217.9404296875,1478,-14921.5419921875,10509.1767578125,590.286376953125,-1.1830381155014038,-21.87466812133789,-37.96712112426758,2744,866
26806.784,81.4361801147461,10.743830680847168,9.594112396240234,0.026037361472845078,0.013348029926419258,1.045894980430603,44397.0,-0.4000000059604645,-1.0027806758880615,-34.15846633911133,4.997862339019775,123.06375122070312,23.587432861328125,-0.0,-0.0,4.442585468292236,-15353.64453125,10894.8037109375,862,-14905.80078125,10550.8046875,590.51025390625,-1.232977032661438,-21.51340675354004,-37.94664001464844,628,3130
26808.798,87.41500091552734,6.041656970977783,9.480072021484375,0.02849992923438549,0.01742856204509735,1.0440934896469116,44397.0,-0.4000000059604645,-1.0027806758880615,-34.15846633911133,4.997862339019775,123.06375122070312,27.179203033447266,-0.0,-0.0,4.450161933898926,-16453.6796875,11305.7841796875,1442,-14894.7607421875,10586.453125,590.79345703125,-1.232977032661438,-21.51340675354004,-37.94664001464844,-1586,-1839
26810.975,93.32601928710938,1.6940943002700806,9.219259262084961,0.031125018373131752,0.02649787999689579,1.0440956354141235,44397.0,-0.4000000059604645,-1.0027806758880615,-34.15846633911133,5.088694095611572,120.6060562133789,21.27706527709961,-0.0,-0.0,4.457673072814941,-16700.5859375,8793.29296875,2448,-14887.978515625,10613.7333984375,590.9863891601562,-1.2481156587600708,-21.103790283203125,-37.91399002075195,-748,-5459
26812.746,98.76683807373047,-2.2255332469940186,8.90333366394043,0.034848760813474655,0.029631521552801132,1.0499341487884521,44397.0,-0.38496607542037964,-1.0027806758880615,-34.15846633911133,5.178897380828857,120.6060562133789,26.99832534790039,-0.0,-0.0,4.465184211730957,-16909.244140625,9964.962890625,2065,-14885.025390625,10635.572265625,591.27587890625,-1.2481156587600708,-21.103790283203125,-37.91399002075195,1402,-2591
26814.698,103.87006378173828,-5.930502414703369,8.549072265625,0.039325229823589325,0.029473189264535904,1.0586429834365845,44397.0,-0.38496607542037964,-1.0027806758880615,-34.15846633911133,5.088027000427246,117.89657592773438,19.556381225585938,-0.0,0.0,4.4726128578186035,-17363.576171875,7519.9716796875,1560,-14885.8671875,10649.5986328125,591.4520263671875,-1.2329705953598022,-20.652210235595703,-37.872833251953125,-1123,-2166
26816.669,108.05078887939453,-9.661616325378418,8.13200855255127,0.04275860637426376,0.02656446397304535,1.0659348964691162,44397.0,-0.38496607542037964,-1.0027806758880615,-34.15846633911133,5.088027000427246,117.89657592773438,26.76624298095703,-0.0,0.0,4.48004150390625,-17794.0859375,9277.21484375,1207,-14890.44140625,10659.4443359375,591.7501831054688,-1.2329705953598022,-20.652210235595703,-37.872833251953125,718,-6727
26818.702,111.54075622558594,-13.174104690551758,7.804372787475586,0.0433039665222168,0.021865731105208397,1.0697410106658936,44397.0,-0.38496607542037964,-1.0027806758880615,-34.15846633911133,4.824861526489258,115.00996398925781,18.022682189941406,-0.0,0.0,4.487373352050781,-18302.228515625,7111.203125,2029,-14898.7900390625,10662.9140625,591.9136962890625,-1.1891096830368042,-20.17110824584961,-37.824485778808594,92,-6236
26820.633,115.03792572021484,-16.77924346923828,7.700954437255859,0.04014398530125618,0.018248558044433594,1.0694289207458496,44397.0,-0.38496607542037964,-1.0027806758880615,-34.15846633911133,4.824861526489258,115.00996398925781,26.490821838378906,-0.0,0.0,4.4947052001953125,-18658.25390625,8473.66015625,400,-14910.7451171875,10662.88671875,592.21435546875,-1.1891096830368042,-20.17110824584961,-37.824485778808594,-2576,-7467
26822.658,119.1829833984375,-20.409622192382812,7.711910724639893,0.03604165092110634,0.014655894599854946,1.0665514469146729,44397.0,-0.38496607542037964,-1.0027806758880615,-34.15846633911133,4.399717807769775,111.94676971435547,16.093494415283203,-0.0,0.0,4.501922130584717,-19462.6953125,5245.96630859375,2047,-14926.7548828125,10655.650390625,592.3484497070312,-1.1182523965835571,-19.66057586669922,-37.76700210571289,-2967,-6025
26824.585,123.33496856689453,-24.191621780395508,7.399413108825684,0.032721661031246185,0.011723789386451244,1.063146710395813,44397.0,-0.38496607542037964,-0.6693359613418579,-34.15846633911133,4.399717807769775,113.94743347167969,26.160354614257812,-0.0,0.0,4.509139060974121,-19784.28515625,8128.244140625,1272,-14946.546875,10646.26171875,592.6486206054688,-1.1182523965835571,-19.66057586669922,-37.76700210571289,-3725,-6827
26826.572,126.51803588867188,-27.753070831298828,6.959702968597412,0.030239522457122803,0.011069281026721,1.0589231252670288,44397.0,-0.38496607542037964,-0.6693359613418579,-34.15846633911133,3.803264617919922,110.7142333984375,14.633996963500977,-0.0,0.0,4.516228675842285,-20562.91015625,4644.81640625,2212,-14970.49609375,10630.458984375,592.7714233398438,-1.0188435316085815,-19.121707916259766,-37.70328140258789,-3692,-5057
26828.588,128.63075256347656,-30.58605194091797,6.579493045806885,0.029782235622406006,0.011635572649538517,1.053145170211792,44397.0,-0.38496607542037964,-0.6693359613418579,-34.15846633911133,3.803264617919922,110.7142333984375,25.79220962524414,-0.0,0.0,4.523318290710449,-20115.740234375,7052.529296875,-143,-14997.279296875,10612.5419921875,593.0787963867188,-1.0188435316085815,-19.121707916259766,-37.70328140258789,-4107,-8916
26830.761,130.04664611816406,-33.19624710083008,6.315964698791504,0.029451750218868256,0.013110737316310406,1.0487879514694214,44397.0,-0.38496607542037964,-0.6693359613418579,-34.15846633911133,3.0761852264404297,107.4005126953125,13.611160278320312,-0.0,0.0,4.5302734375,-20878.203125,4803.12109375,1784,-15027.3994140625,10589.896484375,593.1954956054688,-0.8976635932922363,-18.569421768188477,-37.63594436645508,-6311,-7790
26832.543,131.1333770751953,-36.1215705871582,6.104959487915039,0.030643124133348465,0.015628233551979065,1.0455647706985474,44397.0,-0.38496607542037964,-0.6693359613418579,-34.15846633911133,3.0761852264404297,107.4005126953125,25.402095794677734,-0.0,0.0,4.537228584289551,-21019.447265625,6920.34814453125,1521,-15060.4453125,10566.1630859375,593.5042724609375,-0.8976635932922363,-18.569421768188477,-37.63594436645508,-6730,-10023
26834.494,132.5106964111328,-39.10763931274414,5.750300407409668,0.033015888184309006,0.018108641728758812,1.043812870979309,44397.0,-0.38496607542037964,-0.6693359613418579,-34.15846633911133,2.2059035301208496,104.03075408935547,12.488327026367188,-0.0,0.0,4.544040679931641,-22120.283203125,4010.767578125,1487,-15097.3466796875,10537.68359375,593.612060546875,-0.7526166439056396,-18.007795333862305,-37.56455993652344,-7303,-10073
26836.457,133.6445770263672,-41.901832580566406,5.410038471221924,0.033544957637786865,0.01866760663688183,1.0425918102264404,44397.0,-0.38496607542037964,-0.6693359613418579,-34.15846633911133,2.2059035301208496,104.03075408935547,24.987415313720703,-0.0,0.0,4.5508527755737305,-21845.404296875,6097.6669921875,564,-15137.0419921875,10508.0703125,593.92529296875,-0.7526166439056396,-18.007795333862305,-37.56455993652344,-9013,-9815
26838.492,133.86512756347656,-44.29374694824219,5.100622177124023,0.03214189410209656,0.017050234600901604,1.0390636920928955,44397.0,-0.38496607542037964,-0.6693359613418579,-34.15846633911133,1.2102749347686768,100.63504028320312,11.64541244506836,-0.0,0.0,4.5575175285339355,-22682.7734375,4060.9140625,3051,-15180.125,10474.83984375,594.030029296875,-0.5866785645484924,-17.441843032836914,-37.49081039428711,-8353,-11273
26840.416,133.5060272216797,-46.44922637939453,4.551681995391846,0.030468694865703583,0.015442526899278164,1.0332084894180298,44397.0,-0.38496607542037964,-0.6693359613418579,-34.15846633911133,1.2102749347686768,100.63504028320312,24.558246612548828,-0.0,0.0,4.564182281494141,-22227.40625,6557.533203125,435,-15225.36328125,10441.96875,594.3501586914062,-0.5866785645484924,-17.441843032836914,-37.49081039428711,-9108,-10858
26842.435,132.76339721679688,-48.36602020263672,4.1192450523376465,0.027847325429320335,0.012046458199620247,1.0262205600738525,44397.0,-0.38496607542037964,-0.6693359613418579,-34.15846633911133,0.11393094062805176,97.27471923828125,11.333476066589355,-0.0,0.0,4.570700645446777,-23188.337890625,4334.337890625,2103,-15273.6162109375,10406.4794921875,594.465576171875,-0.40395456552505493,-16.881790161132812,-37.41770935058594,-9063,-10172
26844.375,131.80401611328125,-49.9630012512207,3.861595869064331,0.024158352985978127,0.008394152857363224,1.0213805437088013,44397.0,-0.38496607542037964,-0.6693359613418579,-34.15846633911133,0.11393094062805176,97.27471923828125,24.13267707824707,-0.0,0.0,4.577219009399414,-22552.712890625,6655.4013671875,378,-15323.4658203125,10371.9501953125,594.7899169921875,-0.40395456552505493,-16.881790161132812,-37.41770935058594,-10220,-10085
26846.366,131.11085510253906,-51.41570281982422,3.4070370197296143,0.020786628127098083,0.005953169893473387,1.019029974937439,44397.0,-0.38496607542037964,-0.6693359613418579,-34.15846633911133,-1.0560551881790161,93.9637451171875,11.105234146118164,-0.0,0.0,4.583593368530273,-23574.087890625,4055.28125,2044,-15375.9375,10334.802734375,594.9130859375,-0.20895688235759735,-16.329959869384766,-37.345699310302734,-10725,-10175
26848.376,129.9180145263672,-52.322322845458984,2.8632454872131348,0.02116343192756176,0.006208493839949369,1.0202850103378296,44397.0,-0.38496607542037964,-0.6693359613418579,-34.15846633911133,-1.0560551881790161,93.9637451171875,23.71336555480957,-0.0,0.0,4.589967727661133,-22668.25,6550.09033203125,1162,-15429.3154296875,10298.8486328125,595.2467041015625,-0.20895688235759735,-16.329959869384766,-37.345699310302734,-9713,-9337
