timestamp,posCtl.targetX,posCtl.targetY,posCtl.targetZ,locSrv.x,locSrv.y,locSrv.z,controller.actuatorThrust,controller.pitch,controller.roll,controller.yaw,pid_attitude.pitch_output,pid_attitude.roll_output,pid_attitude.yaw_output,pid_rate.pitch_output,pid_rate.pitch_outI,pid_rate.roll_output,pid_rate.roll_outI,pid_rate.yaw_output,stateEstimate.pitch,stateEstimate.roll,stateEstimate.yaw,snn_control.torque_pitch,snn_control.torque_roll
163780.721,1.3453247902361909e-06,-5.634202793203258e-08,1.0,0.20026741921901703,0.009244419634342194,1.0203049182891846,37868.76953125,4.616274833679199,0.4695146977901459,0.0,0.04179954528808594,0.11086446046829224,-4.348066329956055,874.6229248046875,1298.1800537109375,826.0040893554688,727.8350830078125,8759,4.609308242797852,0.45103728771209717,-0.07454713433980942,5345,-203
163782.588,1.3453247902361909e-06,-5.634202793203258e-08,1.0,0.20026741921901703,0.009244419634342194,1.0203049182891846,37868.76953125,4.616274833679199,0.4695146977901459,0.0,0.1176910400390625,0.1337188482284546,-2.126110553741455,1921.2109375,1300.2081298828125,1580.44287109375,729.1514282226562,20350,4.5966596603393555,0.44722822308540344,-0.08682217448949814,5056,-856
163784.565,1.3453247902361909e-06,-5.634202793203258e-08,1.0,0.2003142535686493,0.009302087128162384,1.0202701091766357,37868.76953125,4.616274833679199,0.4695146977901459,0.0,0.1176910400390625,0.1337188482284546,-4.274068832397461,2236.641845703125,1303.142822265625,1431.88134765625,731.1826782226562,-1878,4.5966596603393555,0.44722822308540344,-0.08682217448949814,4900,215
163786.55,1.3453247902361909e-06,-5.634202793203258e-08,1.0,0.2003142535686493,0.009302087128162384,1.0202701091766357,37868.76953125,4.616274833679199,0.4695146977901459,0.0,0.1176910400390625,0.1337188482284546,-4.273895263671875,2277.877685546875,1306.8829345703125,944.5701904296875,733.1572875976562,-19583,4.5966596603393555,0.44722822308540344,-0.08682217448949814,4824,-298
163788.552,1.3453247902361909e-06,-5.634202793203258e-08,1.0,0.2003142535686493,0.009302087128162384,1.0202701091766357,37868.76953125,4.616274833679199,0.4695146977901459,0.0,0.1176910400390625,0.1337188482284546,-4.273721694946289,1992.3564453125,1310.908447265625,381.7833251953125,734.3327026367188,32085,4.5966596603393555,0.44722822308540344,-0.08682217448949814,4535,168
163790.608,1.5902218137853197e-06,-4.5280839344741253e-07,1.0,0.20025813579559326,0.00939929112792015,1.0203132629394531,37857.58984375,4.668466567993164,0.4669451117515564,0.0,0.43084144592285156,0.11830133199691772,-4.273548126220703,1407.084716796875,1314.3865966796875,101.2318115234375,734.4678344726562,-4420,4.5966596603393555,0.44722822308540344,-0.08682217448949814,4235,-1331
163792.479,1.5902218137853197e-06,-4.5280839344741253e-07,1.0,0.20025813579559326,0.00939929112792015,1.0203132629394531,37857.58984375,4.668466567993164,0.4669451117515564,0.0,0.6086511611938477,0.178993821144104,-2.5526304244995117,1424.3118896484375,1317.427490234375,529.4945068359375,734.3074951171875,31781,4.5670247077941895,0.43711280822753906,-0.09632894396781921,4351,-791
163794.463,1.5902218137853197e-06,-4.5280839344741253e-07,1.0,0.20025813579559326,0.00939929112792015,1.0203132629394531,37857.58984375,4.668466567993164,0.4669451117515564,0.0,0.6086511611938477,0.178993821144104,-4.216122150421143,1778.8504638671875,1320.57275390625,493.32330322265625,733.8530883789062,-1854,4.5670247077941895,0.43711280822753906,-0.09632894396781921,5046,-969
163796.466,1.5902218137853197e-06,-4.5280839344741253e-07,1.0,0.2002326399087906,0.00957155879586935,1.0200341939926147,37857.58984375,4.668466567993164,0.4669451117515564,0.0,0.6086511611938477,0.178993821144104,-4.2159295082092285,1197.2109375,1323.0260009765625,567.2543334960938,733.2531127929688,-27768,4.5670247077941895,0.43711280822753906,-0.09632894396781921,5283,-1745
163798.412,1.5902218137853197e-06,-4.5280839344741253e-07,1.0,0.2002326399087906,0.00957155879586935,1.0200341939926147,37857.58984375,4.668466567993164,0.4669451117515564,0.0,0.6086511611938477,0.178993821144104,-4.2157368659973145,987.3421630859375,1324.62060546875,902.84814453125,732.9796752929688,-19515,4.5670247077941895,0.43711280822753906,-0.09632894396781921,4905,-1265
163800.51,2.4124717583617894e-06,-1.7812183159549022e-06,1.0,0.2002326399087906,0.00957155879586935,1.0200341939926147,37868.10546875,4.71842098236084,0.4641498625278473,0.0,0.9599447250366211,0.142755925655365,-4.056140899658203,1573.77099609375,1326.279541015625,262.0584411621094,732.125,30479,4.558430194854736,0.4403572082519531,-0.0972096174955368,4465,-804
163802.375,2.4124717583617894e-06,-1.7812183159549022e-06,1.0,0.20025281608104706,0.009639567695558071,1.020054578781128,37868.10546875,4.71842098236084,0.4641498625278473,0.0,0.9599447250366211,0.142755925655365,-4.210063934326172,907.2842407226562,1327.1021728515625,230.57333374023438,730.745849609375,23522,4.558430194854736,0.4403572082519531,-0.0972096174955368,4958,-834
163804.355,2.4124717583617894e-06,-1.7812183159549022e-06,1.0,0.20025281608104706,0.009639567695558071,1.020054578781128,37868.10546875,4.71842098236084,0.4641498625278473,0.0,1.1322612762451172,0.09177178144454956,-2.301973342895508,1167.57861328125,1327.5743408203125,888.0297241210938,729.8075561523438,14845,4.52971076965332,0.44885456562042236,-0.10775036364793777,5046,-1165
163806.336,2.4124717583617894e-06,-1.7812183159549022e-06,1.0,0.20025281608104706,0.009639567695558071,1.020054578781128,37868.10546875,4.71842098236084,0.4641498625278473,0.0,1.1322612762451172,0.09177178144454956,-4.146388530731201,1711.22705078125,1328.478271484375,1015.6956787109375,729.4073486328125,-23607,4.52971076965332,0.44885456562042236,-0.10775036364793777,4548,-1710
163808.322,2.4124717583617894e-06,-1.7812183159549022e-06,1.0,0.20037803053855896,0.009591354988515377,1.020213007926941,37868.10546875,4.71842098236084,0.4641498625278473,0.0,1.1322612762451172,0.09177178144454956,-4.146173000335693,1679.7095947265625,1329.6981201171875,1008.5283813476562,729.4459838867188,-32285,4.52971076965332,0.44885456562042236,-0.10775036364793777,4426,-1071
163810.394,4.35708670920576e-06,-4.9148202379001305e-06,1.0,0.20037803053855896,0.009591354988515377,1.020213007926941,37867.48828125,4.791648864746094,0.4643499553203583,0.0,1.5716285705566406,0.09297233819961548,-4.1459574699401855,1754.942626953125,1331.279541015625,944.2276611328125,729.7640991210938,5159,4.52971076965332,0.44885456562042236,-0.10775036364793777,4320,-996
163812.272,4.35708670920576e-06,-4.9148202379001305e-06,1.0,0.20031149685382843,0.009692245163023472,1.0201576948165894,37867.48828125,4.791648864746094,0.4643499553203583,0.0,1.5627508163452148,0.05030715465545654,-2.803084135055542,1242.802978515625,1332.477783203125,810.8719482421875,730.1368408203125,27048,4.531190395355225,0.45596542954444885,-0.11516828089952469,4046,-954
163814.245,4.35708670920576e-06,-4.9148202379001305e-06,1.0,0.20031149685382843,0.009692245163023472,1.0201576948165894,37867.48828125,4.791648864746094,0.4643499553203583,0.0,1.601820945739746,0.04017198085784912,-3.9356637001037598,1495.058349609375,1333.691650390625,1202.3779296875,731.0758666992188,-15091,4.524678707122803,0.4576546251773834,-0.11608166992664337,4942,-430
163816.231,4.35708670920576e-06,-4.9148202379001305e-06,1.0,0.20031149685382843,0.009692245163023472,1.0201576948165894,37867.48828125,4.791648864746094,0.4643499553203583,0.0,1.601820945739746,0.04017198085784912,-4.095274925231934,1560.4599609375,1335.003662109375,1243.1207275390625,732.5391845703125,28708,4.524678707122803,0.4576546251773834,-0.11608166992664337,4111,-516
163818.207,4.35708670920576e-06,-4.9148202379001305e-06,1.0,0.2003067284822464,0.009819955565035343,1.0199177265167236,37867.48828125,4.791648864746094,0.4643499553203583,0.0,1.601820945739746,0.04017198085784912,-4.0950422286987305,1343.88623046875,1336.107421875,836.0992431640625,733.8948974609375,12003,4.524678707122803,0.4576546251773834,-0.11608166992664337,4291,-559
163820.298,8.158640412148088e-06,-1.102537862607278e-05,1.0,0.2003067284822464,0.009819955565035343,1.0199177265167236,37872.63671875,4.854122638702393,0.46507129073143005,0.0,1.976663589477539,0.044499993324279785,-4.094810485839844,1826.3067626953125,1337.6787109375,896.127685546875,735.2391357421875,24543,4.524678707122803,0.4576546251773834,-0.11608166992664337,3697,-2260
163822.168,8.158640412148088e-06,-1.102537862607278e-05,1.0,0.2003067284822464,0.009819955565035343,1.0199177265167236,37872.63671875,4.854122638702393,0.46507129073143005,0.0,1.9544792175292969,0.1011350154876709,-2.7879891395568848,1776.880859375,1339.5711669921875,943.0581665039062,736.6345825195312,29361,4.52837610244751,0.44821545481681824,-0.12330031394958496,4492,-285
163824.145,8.158640412148088e-06,-1.102537862607278e-05,1.0,0.2003694474697113,0.009890755638480186,1.0198664665222168,37872.63671875,4.854122638702393,0.46507129073143005,0.0,1.9544792175292969,0.1011350154876709,-4.0510053634643555,1778.654541015625,1341.730712890625,600.2740478515625,737.6143798828125,-22554,4.52837610244751,0.44821545481681824,-0.12330031394958496,4743,-154
163826.134,8.158640412148088e-06,-1.102537862607278e-05,1.0,0.2003694474697113,0.009890755638480186,1.0198664665222168,37872.63671875,4.854122638702393,0.46507129073143005,0.0,2.0112791061401367,0.09493499994277954,-4.121440887451172,1984.470703125,1344.3837890625,557.9144897460938,738.1904907226562,-9023,4.518909454345703,0.4492487907409668,-0.12290980666875839,5132,-761
163828.103,8.158640412148088e-06,-1.102537862607278e-05,1.0,0.2003694474697113,0.009890755638480186,1.0198664665222168,37872.63671875,4.854122638702393,0.46507129073143005,0.0,2.0112791061401367,0.09493499994277954,-4.0528564453125,1994.546630859375,1347.45751953125,755.1993408203125,738.6925659179688,-30253,4.518909454345703,0.4492487907409668,-0.12290980666875839,4462,-274
163830.182,1.4707933587487787e-05,-2.1526346245082095e-05,1.0,0.2003653347492218,0.00996851921081543,1.019850492477417,37878.00390625,4.743557453155518,0.4557259976863861,0.0,1.3478879928588867,0.03886324167251587,-4.052610397338867,1393.2264404296875,1350.0765380859375,885.8887939453125,739.3064575195312,-1960,4.518909454345703,0.4492487907409668,-0.12290980666875839,3561,-142
163832.055,1.4707933587487787e-05,-2.1526346245082095e-05,1.0,0.2003653347492218,0.00996851921081543,1.019850492477417,37878.00390625,4.743557453155518,0.4557259976863861,0.0,1.4312152862548828,0.07203036546707153,-2.5791125297546387,2074.314208984375,1353.220458984375,1175.446533203125,740.3980712890625,-8088,4.505021572113037,0.4437209367752075,-0.1310492306947708,4332,-11
163834.039,1.4707933587487787e-05,-2.1526346245082095e-05,1.0,0.2003653347492218,0.00996851921081543,1.019850492477417,37878.00390625,4.743557453155518,0.4557259976863861,0.0,1.4312152862548828,0.07203036546707153,-4.003249168395996,1421.7073974609375,1355.92822265625,1146.1514892578125,741.8468017578125,16458,4.505021572113037,0.4437209367752075,-0.1310492306947708,5990,-142
163836.009,1.4707933587487787e-05,-2.1526346245082095e-05,1.0,0.2005569189786911,0.009968113154172897,1.019795536994934,37878.00390625,4.743557453155518,0.4557259976863861,0.0,1.4312152862548828,0.07203036546707153,-4.002986907958984,286.93603515625,1356.758056640625,625.316650390625,742.8973388671875,-31161,4.505021572113037,0.4437209367752075,-0.1310492306947708,4779,-302
163837.996,1.4707933587487787e-05,-2.1526346245082095e-05,1.0,0.2005569189786911,0.009968113154172897,1.019795536994934,37878.00390625,4.743557453155518,0.4557259976863861,0.0,1.4942150115966797,0.06308162212371826,-4.114944934844971,102.589111328125,1355.77880859375,251.4656982421875,743.1171875,32395,4.494521617889404,0.44521239399909973,-0.1304292380809784,5643,-1118
163840.079,2.5102168365265243e-05,-3.814821320702322e-05,1.0,0.20046484470367432,0.010065911337733269,1.0197726488113403,37856.08984375,4.802924156188965,0.45588791370391846,0.0,1.8504152297973633,0.06405311822891235,-4.006185054779053,983.625,1354.46826171875,769.5048828125,743.3353881835938,-9745,4.494521617889404,0.44521239399909973,-0.1304292380809784,5312,-703
163841.949,2.5102168365265243e-05,-3.814821320702322e-05,1.0,0.20046484470367432,0.010065911337733269,1.0197726488113403,37856.08984375,4.802924156188965,0.45588791370391846,0.0,1.8504152297973633,0.06405311822891235,-4.005924224853516,1144.3619384765625,1353.0977783203125,1026.1292724609375,743.8934326171875,15505,4.494521617889404,0.44521239399909973,-0.1304292380809784,4838,39
163843.933,2.5102168365265243e-05,-3.814821320702322e-05,1.0,0.20046484470367432,0.010065911337733269,1.0197726488113403,37856.08984375,4.802924156188965,0.45588791370391846,0.0,1.8277502059936523,0.09705108404159546,-1.8822107315063477,1490.3785400390625,1352.1400146484375,1106.3114013671875,744.8405151367188,12671,4.4982991218566895,0.4397127330303192,-0.14216089248657227,4374,-1214
163845.91,2.5102168365265243e-05,-3.814821320702322e-05,1.0,0.20048636198043823,0.01021773461252451,1.0194884538650513,37856.08984375,4.802924156188965,0.45588791370391846,0.0,1.8277502059936523,0.09705108404159546,-3.9349660873413086,2008.0224609375,1352.21630859375,1334.644287109375,746.4140014648438,-16634,4.4982991218566895,0.4397127330303192,-0.14216089248657227,3734,-838
163847.889,2.5102168365265243e-05,-3.814821320702322e-05,1.0,0.20048636198043823,0.01021773461252451,1.0194884538650513,37856.08984375,4.802924156188965,0.45588791370391846,0.0,1.9173431396484375,0.07921385765075684,-4.053328514099121,2538.166015625,1353.8590087890625,1609.920654296875,748.8733520507812,18201,4.483366966247559,0.442685604095459,-0.1415053904056549,4747,-340
163849.977,4.055460885865614e-05,-6.278502405621111e-05,1.0,0.20048636198043823,0.01021773461252451,1.0194884538650513,37899.26171875,4.8375420570373535,0.45393556356430054,0.0,2.1250505447387695,0.06749975681304932,-3.9383325576782227,2176.146484375,1356.321044921875,1435.87109375,751.8348388671875,30849,4.483366966247559,0.442685604095459,-0.1415053904056549,4274,450
163851.842,4.055460885865614e-05,-6.278502405621111e-05,1.0,0.20048481225967407,0.010222464799880981,1.0196902751922607,37899.26171875,4.8375420570373535,0.45393556356430054,0.0,2.1250505447387695,0.06749975681304932,-3.93804931640625,632.95947265625,1357.4068603515625,851.7696533203125,754.4324951171875,-1104,4.483366966247559,0.442685604095459,-0.1415053904056549,3705,-317
163853.834,4.055460885865614e-05,-6.278502405621111e-05,1.0,0.20048481225967407,0.010222464799880981,1.0196902751922607,37899.26171875,4.8375420570373535,0.45393556356430054,0.0,2.074962615966797,0.17370951175689697,-2.338982582092285,-251.3365478515625,1356.168212890625,435.63873291015625,756.1698608398438,-13647,4.491714954376221,0.4249839782714844,-0.15033835172653198,4533,69
163855.81,4.055460885865614e-05,-6.278502405621111e-05,1.0,0.20048481225967407,0.010222464799880981,1.0196902751922607,37899.26171875,4.8375420570373535,0.45393556356430054,0.0,2.074962615966797,0.17370951175689697,-3.8844499588012695,-340.7978515625,1352.8778076171875,31.485107421875,756.6507568359375,-13570,4.491714954376221,0.4249839782714844,-0.15033835172653198,4933,481
163857.787,4.055460885865614e-05,-6.278502405621111e-05,1.0,0.20051784813404083,0.010310369543731213,1.0197046995162964,37899.26171875,4.8375420570373535,0.45393556356430054,0.0,2.074962615966797,0.17370951175689697,-3.8841490745544434,-14.93505859375,1348.3182373046875,47.4979248046875,756.106689453125,24394,4.491714954376221,0.4249839782714844,-0.15033835172653198,4833,-175
163859.864,6.247607234399766e-05,-9.764733113115653e-05,1.0,0.20051784813404083,0.010310369543731213,1.0197046995162964,37927.5,4.866163730621338,0.4537346065044403,0.0,2.309941291809082,0.16375386714935303,-3.971853017807007,1579.13134765625,1344.830810546875,666.5704345703125,755.5347290039062,11356,4.481173515319824,0.42644229531288147,-0.14985214173793793,3925,-260
163861.742,6.247607234399766e-05,-9.764733113115653e-05,1.0,0.20063990354537964,0.010368550196290016,1.0196268558502197,37927.5,4.866163730621338,0.4537346065044403,0.0,2.309941291809082,0.16375386714935303,-3.8864665031433105,2338.60107421875,1343.251953125,946.61279296875,755.3131103515625,-25424,4.481173515319824,0.42644229531288147,-0.14985214173793793,3450,-683
163863.721,6.247607234399766e-05,-9.764733113115653e-05,1.0,0.20063990354537964,0.010368550196290016,1.0196268558502197,37927.5,4.866163730621338,0.4537346065044403,0.0,2.3453636169433594,0.15492886304855347,-3.9246411323547363,2004.623046875,1342.8184814453125,868.1976318359375,755.2789916992188,-26851,4.475269794464111,0.4279131293296814,-0.1496395766735077,4589,-273
163865.698,6.247607234399766e-05,-9.764733113115653e-05,1.0,0.20063990354537964,0.010368550196290016,1.0196268558502197,37927.5,4.866163730621338,0.4537346065044403,0.0,2.0452651977539062,0.14597618579864502,-2.698812961578369,1327.0655517578125,1342.436767578125,848.5856323242188,755.3748779296875,-4444,4.5252861976623535,0.42940524220466614,-0.15620486438274384,3109,-1997
163867.68,6.247607234399766e-05,-9.764733113115653e-05,1.0,0.20063838362693787,0.010390091687440872,1.0196444988250732,37927.5,4.866163730621338,0.4537346065044403,0.0,2.0452651977539062,0.14597618579864502,-3.847425937652588,1567.720458984375,1342.419189453125,853.7427978515625,755.5856323242188,-25982,4.5252861976623535,0.42940524220466614,-0.15620486438274384,3503,-1287
163869.761,9.247567504644394e-05,-0.0001452407450415194,1.0,0.20063838362693787,0.010390091687440872,1.0196444988250732,37885.2109375,4.909872531890869,0.45706290006637573,0.0,2.3472633361816406,0.16080880165100098,-3.9374947547912598,1775.3525390625,1342.98095703125,838.2101440429688,755.8710327148438,-27932,4.518661975860596,0.43026143312454224,-0.155705526471138,4933,-532
163871.635,9.247567504644394e-05,-0.0001452407450415194,1.0,0.20063838362693787,0.010390091687440872,1.0196444988250732,37885.2109375,4.909872531890869,0.45706290006637573,0.0,2.3472633361816406,0.16080880165100098,-3.849799156188965,1423.8382568359375,1343.55615234375,519.5211181640625,755.7938842773438,14390,4.518661975860596,0.43026143312454224,-0.155705526471138,4587,-651
163873.614,9.247567504644394e-05,-0.0001452407450415194,1.0,0.2007351964712143,0.010490503162145615,1.0195481777191162,37885.2109375,4.909872531890869,0.45706290006637573,0.0,2.3472633361816406,0.16080880165100098,-3.849487781524658,1399.6552734375,1344.1094970703125,267.5001220703125,755.0794677734375,-1832,4.518661975860596,0.43026143312454224,-0.155705526471138,4766,-426
163875.599,9.247567504644394e-05,-0.0001452407450415194,1.0,0.2007351964712143,0.010490503162145615,1.0195481777191162,37885.2109375,4.909872531890869,0.45706290006637573,0.0,2.28145694732666,0.1469298005104065,-1.8540186882019043,1155.7674560546875,1344.3193359375,-67.03851318359375,753.3901977539062,25803,4.529629707336426,0.432574599981308,-0.16672837734222412,4238,-348
163877.57,9.247567504644394e-05,-0.0001452407450415194,1.0,0.2007351964712143,0.010490503162145615,1.0195481777191162,37885.2109375,4.909872531890869,0.45706290006637573,0.0,2.28145694732666,0.1469298005104065,-3.782684087753296,871.6978759765625,1343.864501953125,381.00592041015625,751.488525390625,-30296,4.529629707336426,0.432574599981308,-0.16672837734222412,4711,-940
163879.654,0.00013219592801760882,-0.0002080485428450629,1.0,0.200789675116539,0.010554930195212364,1.019549012184143,37852.078125,4.799222946166992,0.4513489603996277,0.0,1.6175594329833984,0.11264616250991821,-3.782350778579712,525.744873046875,1342.396728515625,1088.445556640625,750.3545532226562,20303,4.529629707336426,0.432574599981308,-0.16672837734222412,4446,-735
163881.533,0.00013219592801760882,-0.0002080485428450629,1.0,0.200789675116539,0.010554930195212364,1.019549012184143,37852.078125,4.799222946166992,0.4513489603996277,0.0,1.6618051528930664,0.10503047704696655,-3.857445240020752,1635.918212890625,1341.56591796875,866.0503540039062,749.5648803710938,15836,4.5222554206848145,0.4338438808917999,-0.16631165146827698,4316,-1784
163883.511,0.00013219592801760882,-0.0002080485428450629,1.0,0.200789675116539,0.010554930195212364,1.019549012184143,37852.078125,4.799222946166992,0.4513489603996277,0.0,1.517618179321289,0.020510494709014893,-2.479740858078003,1626.310791015625,1341.2537841796875,726.9642333984375,748.8776245117188,4966,4.546286582946777,0.44793054461479187,-0.17351844906806946,4711,-2866
163885.486,0.00013219592801760882,-0.0002080485428450629,1.0,0.20078769326210022,0.01061739306896925,1.0196008682250977,37852.078125,4.799222946166992,0.4513489603996277,0.0,1.517618179321289,0.020510494709014893,-3.7405831813812256,1617.6162109375,1341.3619384765625,864.882568359375,748.4601440429688,24774,4.546286582946777,0.44793054461479187,-0.17351844906806946,4806,-2923
163887.468,0.00013219592801760882,-0.0002080485428450629,1.0,0.20078769326210022,0.01061739306896925,1.0196008682250977,37852.078125,4.799222946166992,0.4513489603996277,0.0,1.5892353057861328,0.01263570785522461,-3.893493175506592,1177.903076171875,1341.2342529296875,548.436767578125,747.8463745117188,-29972,4.534350395202637,0.4492430090904236,-0.17267173528671265,5248,-1569
163889.552,0.0001835939910961315,-0.00028914317954331636,1.0,0.20091940462589264,0.010625574737787247,1.0195082426071167,37834.40234375,4.862325668334961,0.4568026065826416,0.0,1.9678516387939453,0.045357584953308105,-3.7449731826782227,1291.73583984375,1341.06201171875,347.29754638671875,746.8021850585938,-5932,4.534350395202637,0.4492430090904236,-0.17267173528671265,4552,-3512
163891.429,0.0001835939910961315,-0.00028914317954331636,1.0,0.20091940462589264,0.010625574737787247,1.0195082426071167,37834.40234375,4.862325668334961,0.4568026065826416,0.0,2.0090017318725586,0.03749513626098633,-3.8690414428710938,1295.9886474609375,1340.8587646484375,379.2263488769531,745.4437866210938,-25036,4.527492046356201,0.45055341720581055,-0.17198437452316284,4862,-179
163893.403,0.0001835939910961315,-0.00028914317954331636,1.0,0.20091940462589264,0.010625574737787247,1.0195082426071167,37834.40234375,4.862325668334961,0.4568026065826416,0.0,1.8974933624267578,-0.015729010105133057,-2.330223798751831,952.738525390625,1340.1728515625,340.52667236328125,743.7740478515625,7634,4.546076774597168,0.45942410826683044,-0.17981956899166107,4214,-944
163895.379,0.0001835939910961315,-0.00028914317954331636,1.0,0.20091624557971954,0.010801451280713081,1.0192768573760986,37834.40234375,4.862325668334961,0.4568026065826416,0.0,1.8974933624267578,-0.015729010105133057,-3.7010231018066406,1058.04443359375,1339.226318359375,423.4050598144531,741.9578857421875,-1256,4.546076774597168,0.45942410826683044,-0.17981956899166107,4688,-1647
163897.36,0.0001835939910961315,-0.00028914317954331636,1.0,0.20091624557971954,0.010801451280713081,1.0192768573760986,37834.40234375,4.862325668334961,0.4568026065826416,0.0,1.9799823760986328,-0.030435562133789062,-3.859562635421753,1404.0135498046875,1338.52490234375,555.735595703125,740.198486328125,29817,4.5323286056518555,0.46187520027160645,-0.17894168198108673,3836,-237
163899.451,0.0002485295699443668,-0.00039131753146648407,1.0,0.20091624557971954,0.010801451280713081,1.0192768573760986,37846.44921875,4.922239780426025,0.46130818128585815,0.0,2.3394670486450195,-0.003402113914489746,-3.7055742740631104,1591.459228515625,1338.2779541015625,846.8352661132812,738.8762817382812,-2596,4.5323286056518555,0.46187520027160645,-0.17894168198108673,4533,-1305
163901.316,0.0002485295699443668,-0.00039131753146648407,1.0,0.20098958909511566,0.010748508386313915,1.0194700956344604,37846.44921875,4.922239780426025,0.46130818128585815,0.0,2.3394670486450195,-0.003402113914489746,-3.7052161693573,1625.441162109375,1338.4547119140625,1059.72705078125,738.203125,-5852,4.5323286056518555,0.46187520027160645,-0.17894168198108673,3215,-2505
163903.298,0.0002485295699443668,-0.00039131753146648407,1.0,0.20098958909511566,0.010748508386313915,1.0194700956344604,37846.44921875,4.922239780426025,0.46130818128585815,0.0,2.2274465560913086,-0.10634404420852661,-1.6442005634307861,2066.14404296875,1339.5709228515625,551.1719970703125,737.3938598632812,26282,4.550998687744141,0.4790321886539459,-0.19032640755176544,3298,-786
163905.279,0.0002485295699443668,-0.00039131753146648407,1.0,0.20098958909511566,0.010748508386313915,1.0194700956344604,37846.44921875,4.922239780426025,0.46130818128585815,0.0,2.2274465560913086,-0.10634404420852661,-3.6361467838287354,1847.04931640625,1341.1754150390625,64.8798828125,735.8248901367188,23302,4.550998687744141,0.4790321886539459,-0.19032640755176544,3433,-752
163907.252,0.0002485295699443668,-0.00039131753146648407,1.0,0.20095597207546234,0.010824751108884811,1.0195318460464478,37846.44921875,4.922239780426025,0.46130818128585815,0.0,2.2274465560913086,-0.10634404420852661,-3.6357662677764893,975.365234375,1342.023681640625,56.11175537109375,733.6140747070312,-16302,4.550998687744141,0.4790321886539459,-0.19032640755176544,4773,-1933
163909.342,0.0003293848712928593,-0.0005181091255508363,1.0,0.20095597207546234,0.010824751108884811,1.0195318460464478,37822.609375,4.967608451843262,0.46744242310523987,0.0,2.5552139282226562,-0.07522469758987427,-3.779801368713379,576.0593872070312,1341.709716796875,814.9168090820312,731.8824462890625,-3951,4.541739463806152,0.47997987270355225,-0.18952853977680206,5546,-425
163911.218,0.0003293848712928593,-0.0005181091255508363,1.0,0.20108464360237122,0.010903306305408478,1.0194954872131348,37822.609375,4.967608451843262,0.46744242310523987,0.0,2.5552139282226562,-0.07522469758987427,-3.6397953033447266,476.50634765625,1340.29638671875,910.5963134765625,730.6793212890625,-28838,4.541739463806152,0.47997987270355225,-0.18952853977680206,4614,-280
163913.192,0.0003293848712928593,-0.0005181091255508363,1.0,0.20108464360237122,0.010903306305408478,1.0194954872131348,37822.609375,4.967608451843262,0.46744242310523987,0.0,2.4315032958984375,-0.1642783284187317,-0.7455739974975586,1210.59033203125,1338.9473876953125,665.5694580078125,729.5913696289062,4448,4.5623579025268555,0.4948221445083618,-0.20551644265651703,3861,-1206
163915.169,0.0003293848712928593,-0.0005181091255508363,1.0,0.20108464360237122,0.010903306305408478,1.0194954872131348,37822.609375,4.967608451843262,0.46744242310523987,0.0,2.4315032958984375,-0.1642783284187317,-3.543045997619629,1348.064697265625,1337.8370361328125,1320.478271484375,729.4727783203125,-28327,4.5623579025268555,0.4948221445083618,-0.20551644265651703,3648,-597
163917.149,0.0003293848712928593,-0.0005181091255508363,1.0,0.20115476846694946,0.01095455139875412,1.0194371938705444,37822.609375,4.967608451843262,0.46744242310523987,0.0,2.4315032958984375,-0.1642783284187317,-3.542634963989258,1358.8226318359375,1336.9407958984375,1633.85498046875,730.5782470703125,-20748,4.5623579025268555,0.4948221445083618,-0.20551644265651703,4024,-260
163919.236,0.0004282220616005361,-0.0006725160055793822,1.0,0.20115476846694946,0.01095455139875412,1.0194371938705444,37755.078125,4.999425411224365,0.4753715991973877,0.0,2.666170120239258,-0.12005192041397095,-3.6482372283935547,1804.445068359375,1336.8173828125,1466.41162109375,732.4780883789062,-1748,4.555063724517822,0.4953802525997162,-0.20493073761463165,4126,424
163921.107,0.0004282220616005361,-0.0006725160055793822,1.0,0.20115476846694946,0.01095455139875412,1.0194371938705444,37755.078125,4.999425411224365,0.4753715991973877,0.0,2.666170120239258,-0.12005192041397095,-3.5453288555145264,1129.53564453125,1336.438720703125,976.18310546875,734.3837280273438,-16121,4.555063724517822,0.4953802525997162,-0.20493073761463165,3721,-705
163923.086,0.0004282220616005361,-0.0006725160055793822,1.0,0.20111899077892303,0.011082482524216175,1.0192004442214966,37755.078125,4.999425411224365,0.4753715991973877,0.0,2.666170120239258,-0.12005192041397095,-3.5449187755584717,731.8994750976562,1335.3187255859375,843.6153564453125,736.1150512695312,-14509,4.555063724517822,0.4953802525997162,-0.20493073761463165,4695,-1031
163925.067,0.0004282220616005361,-0.0006725160055793822,1.0,0.20111899077892303,0.011082482524216175,1.0192004442214966,37755.078125,4.999425411224365,0.4753715991973877,0.0,2.55618953704834,-0.08122748136520386,-1.267014503479004,1299.03564453125,1334.338134765625,1101.71630859375,738.042724609375,-26930,4.573393821716309,0.488909512758255,-0.21751344203948975,4043,-1277
163927.043,0.0004282220616005361,-0.0006725160055793822,1.0,0.20111899077892303,0.011082482524216175,1.0192004442214966,37755.078125,4.999425411224365,0.4753715991973877,0.0,2.55618953704834,-0.08122748136520386,-3.468552827835083,1838.5108642578125,1334.193603515625,1053.858642578125,740.0675048828125,-21309,4.573393821716309,0.488909512758255,-0.21751344203948975,3809,224
163929.137,0.0005476853693835437,-0.0008586392505094409,1.0,0.201225146651268,0.01107744686305523,1.0194103717803955,37774.125,4.889909744262695,0.47268417477607727,0.0,1.8990955352783203,-0.0973520278930664,-3.4681179523468018,753.4228515625,1333.2999267578125,876.155029296875,741.9337768554688,-3986,4.573393821716309,0.488909512758255,-0.21751344203948975,3999,-765
163931.005,0.0005476853693835437,-0.0008586392505094409,1.0,0.201225146651268,0.01107744686305523,1.0194103717803955,37774.125,4.889909744262695,0.47268417477607727,0.0,1.9375333786010742,-0.10062307119369507,-3.5400390625,640.5439453125,1331.6336669921875,757.4821166992188,743.5076293945312,-26029,4.56698751449585,0.4894546866416931,-0.2171136885881424,3933,-791
163932.982,0.0005476853693835437,-0.0008586392505094409,1.0,0.2012413889169693,0.011003624647855759,1.0198405981063843,37774.125,4.889909744262695,0.47268417477607727,0.0,1.742889404296875,0.009359657764434814,-1.1159861087799072,589.4121704101562,1329.2586669921875,1161.8787841796875,745.37451171875,-7811,4.599428176879883,0.47112423181533813,-0.23011720180511475,4162,-1155
163934.96,0.0005476853693835437,-0.0008586392505094409,1.0,0.2012413889169693,0.011003624647855759,1.0198405981063843,37774.125,4.889909744262695,0.47268417477607727,0.0,1.742889404296875,0.009359657764434814,-3.3911406993865967,1259.5860595703125,1327.189453125,1636.7869873046875,748.1151123046875,-7249,4.599428176879883,0.47112423181533813,-0.23011720180511475,3864,-3
163936.939,0.0005476853693835437,-0.0008586392505094409,1.0,0.2012413889169693,0.011003624647855759,1.0198405981063843,37774.125,4.889909744262695,0.47268417477607727,0.0,1.742889404296875,0.009359657764434814,-3.3906805515289307,961.9849243164062,1324.9810791015625,1227.9566650390625,751.0348510742188,-28320,4.599428176879883,0.47112423181533813,-0.23011720180511475,4686,-360
163939.031,0.0006901972810737789,-0.0010799814481288195,1.0,0.2012992650270462,0.01114490907639265,1.0194040536880493,37796.54296875,4.936041831970215,0.48687103390693665,0.0,2.019681930541992,0.09448081254959106,-3.3902204036712646,142.1331787109375,1321.568115234375,509.81048583984375,753.1435546875,-21715,4.599428176879883,0.47112423181533813,-0.23011720180511475,4328,-272
163940.897,0.0006901972810737789,-0.0010799814481288195,1.0,0.2012992650270462,0.01114490907639265,1.0194040536880493,37796.54296875,4.936041831970215,0.48687103390693665,0.0,2.019681930541992,0.09448081254959106,-3.3897602558135986,-47.766357421875,1316.9044189453125,199.80560302734375,754.1616821289062,18235,4.599428176879883,0.47112423181533813,-0.23011720180511475,4997,-77
163942.882,0.0006901972810737789,-0.0010799814481288195,1.0,0.2012992650270462,0.01114490907639265,1.0194040536880493,37796.54296875,4.936041831970215,0.48687103390693665,0.0,1.7797822952270508,0.20781326293945312,-0.4084186553955078,554.8193359375,1312.008544921875,615.9369506835938,754.8248901367188,856,4.639411449432373,0.45223549008369446,-0.24658598005771637,3957,-487
163944.855,0.0006901972810737789,-0.0010799814481288195,1.0,0.20125854015350342,0.011167408898472786,1.0196980237960815,37796.54296875,4.936041831970215,0.48687103390693665,0.0,1.7797822952270508,0.20781326293945312,-3.289961338043213,1093.829345703125,1307.6434326171875,868.6024169921875,755.5283203125,13800,4.639411449432373,0.45223549008369446,-0.24658598005771637,3523,-850
163946.834,0.0006901972810737789,-0.0010799814481288195,1.0,0.20125854015350342,0.011167408898472786,1.0196980237960815,37796.54296875,4.936041831970215,0.48687103390693665,0.0,1.7797822952270508,0.20781326293945312,-3.289468288421631,1676.032958984375,1304.5013427734375,1116.830078125,756.5948486328125,-17379,4.639411449432373,0.45223549008369446,-0.24658598005771637,3312,290
163948.93,0.0008582171285524964,-0.0013399244053289294,1.0,0.20125854015350342,0.011167408898472786,1.0196980237960815,37757.05859375,4.96415376663208,0.5031810402870178,0.0,1.9484539031982422,0.3056733012199402,-3.288975238800049,1919.158447265625,1302.704833984375,1204.3896484375,758.0786743164062,19708,4.639411449432373,0.45223549008369446,-0.24658598005771637,3182,-1038
163950.795,0.0008582171285524964,-0.0013399244053289294,1.0,0.20125150680541992,0.01119747944176197,1.019789457321167,37757.05859375,4.96415376663208,0.5031810402870178,0.0,1.9484539031982422,0.3056733012199402,-3.288482189178467,1700.626708984375,1301.7396240234375,578.6708374023438,759.07470703125,-4342,4.639411449432373,0.45223549008369446,-0.24658598005771637,4005,-1972
163952.777,0.0008582171285524964,-0.0013399244053289294,1.0,0.20125150680541992,0.01119747944176197,1.019789457321167,37757.05859375,4.96415376663208,0.5031810402870178,0.0,1.6440410614013672,0.3442491888999939,-0.9231071472167969,1264.810302734375,1300.8870849609375,421.2942199707031,759.453857421875,-14669,4.6901469230651855,0.4458061754703522,-0.2596514821052551,5075,-281
163954.755,0.0008582171285524964,-0.0013399244053289294,1.0,0.20125150680541992,0.01119747944176197,1.019789457321167,37757.05859375,4.96415376663208,0.5031810402870178,0.0,1.6440410614013672,0.3442491888999939,-3.2090506553649902,1205.9737548828125,1300.05126953125,943.5266723632812,760.0144653320312,-25624,4.6901469230651855,0.4458061754703522,-0.2596514821052551,4455,-1214
163956.728,0.0008582171285524964,-0.0013399244053289294,1.0,0.2012600600719452,0.011270714923739433,1.0197179317474365,37757.05859375,4.96415376663208,0.5031810402870178,0.0,1.6440410614013672,0.3442491888999939,-3.208531379699707,1332.273681640625,1299.3985595703125,991.7552490234375,760.7896118164062,-14538,4.6901469230651855,0.4458061754703522,-0.2596514821052551,4276,-915
163958.816,0.0010545440018177032,-0.001642856514081359,1.0,0.2012600600719452,0.011270714923739433,1.0197179317474365,37719.2890625,4.970059871673584,0.5252562761306763,0.0,1.6794776916503906,0.4767006039619446,-3.208012104034424,1269.3406982421875,1298.8154296875,931.2875366210938,761.6617431640625,23158,4.6901469230651855,0.4458061754703522,-0.2596514821052551,4574,-199
163960.687,0.0010545440018177032,-0.001642856514081359,1.0,0.20137695968151093,0.011238780803978443,1.0196900367736816,37719.2890625,4.970059871673584,0.5252562761306763,0.0,1.6794776916503906,0.4767006039619446,-3.2074928283691406,1039.171875,1297.9842529296875,800.2830810546875,762.4390258789062,-20233,4.6901469230651855,0.4458061754703522,-0.2596514821052551,4876,-1383
163962.673,0.0010545440018177032,-0.001642856514081359,1.0,0.20137695968151093,0.011238780803978443,1.0196900367736816,37719.2890625,4.970059871673584,0.5252562761306763,0.0,1.5337257385253906,0.48834943771362305,-1.4324607849121094,936.7462768554688,1296.8115234375,616.0036010742188,762.890869140625,14670,4.7144389152526855,0.44386470317840576,-0.26945531368255615,4161,298
163964.653,0.0010545440018177032,-0.001642856514081359,1.0,0.20137695968151093,0.011238780803978443,1.0196900367736816,37719.2890625,4.970059871673584,0.5252562761306763,0.0,1.5337257385253906,0.48834943771362305,-3.147592306137085,1166.41796875,1295.6619873046875,747.494140625,763.2463989257812,-22690,4.7144389152526855,0.44386470317840576,-0.26945531368255615,4494,-296
163966.648,0.0010545440018177032,-0.001642856514081359,1.0,0.20133686065673828,0.011328373104333878,1.0196776390075684,37719.2890625,4.970059871673584,0.5252562761306763,0.0,1.5337257385253906,0.48834943771362305,-3.1470534801483154,1409.54150390625,1294.8570556640625,1096.411865234375,763.9859619140625,4900,4.7144389152526855,0.44386470317840576,-0.26945531368255615,5097,-1616
163968.712,0.001282352372072637,-0.0019934820011258125,1.0,0.20133686065673828,0.011328373104333878,1.0196776390075684,37688.32421875,4.969261646270752,0.5480908751487732,0.0,1.5289363861083984,0.6253570318222046,-3.146514654159546,1397.8365478515625,1294.32421875,1243.240234375,765.2395629882812,27584,4.7144389152526855,0.44386470317840576,-0.26945531368255615,4952,-695
163970.59,0.001282352372072637,-0.0019934820011258125,1.0,0.20133686065673828,0.011328373104333878,1.0196776390075684,37688.32421875,4.969261646270752,0.5480908751487732,0.0,1.5289363861083984,0.6253570318222046,-3.1459758281707764,1618.3505859375,1294.3121337890625,903.7606201171875,766.46728515625,-20571,4.7144389152526855,0.44386470317840576,-0.26945531368255615,5433,-2073
163972.562,0.001282352372072637,-0.0019934820011258125,1.0,0.20143169164657593,0.011422721669077873,1.019707202911377,37688.32421875,4.969261646270752,0.5480908751487732,0.0,1.5289363861083984,0.6253570318222046,-3.145437002182007,1822.3125,1295.0052490234375,828.3009643554688,767.5713500976562,-27120,4.7144389152526855,0.44386470317840576,-0.26945531368255615,4995,-977
163974.543,0.001282352372072637,-0.0019934820011258125,1.0,0.20143169164657593,0.011422721669077873,1.019707202911377,37688.32421875,4.969261646270752,0.5480908751487732,0.0,1.3914241790771484,0.6382386088371277,-2.2249794006347656,1180.9835205078125,1295.43017578125,798.1359252929688,768.5308227539062,-4448,4.7373576164245605,0.4417177736759186,-0.27453768253326416,4570,129
163976.53,0.001282352372072637,-0.0019934820011258125,1.0,0.20148319005966187,0.01152113452553749,1.0193029642105103,37688.32421875,4.969261646270752,0.5480908751487732,0.0,1.3914241790771484,0.6382386088371277,-3.113845109939575,1151.6441650390625,1295.5924072265625,915.3578491210938,769.52490234375,-24115,4.7373576164245605,0.4417177736759186,-0.27453768253326416,4557,1704
163978.609,0.001543723396025598,-0.0023950254544615746,1.0,0.20148319005966187,0.01152113452553749,1.0193029642105103,37690.11328125,4.993607521057129,0.5740495324134827,0.0,1.582056999206543,0.7898538708686829,-3.2654037475585938,1675.681640625,1296.2335205078125,941.9125366210938,770.5816650390625,26644,4.729931354522705,0.4424072206020355,-0.2736973166465759,3429,-766
163980.478,0.001543723396025598,-0.0023950254544615746,1.0,0.20148319005966187,0.01152113452553749,1.0193029642105103,37690.11328125,4.993607521057129,0.5740495324134827,0.0,1.582056999206543,0.7898538708686829,-3.1177926063537598,1726.444580078125,1297.3399658203125,762.4962158203125,771.4503784179688,25752,4.729931354522705,0.4424072206020355,-0.2736973166465759,5522,-1140
163982.457,0.001543723396025598,-0.0023950254544615746,1.0,0.2014801949262619,0.011618888936936855,1.0191912651062012,37690.11328125,4.993607521057129,0.5740495324134827,0.0,1.582056999206543,0.7898538708686829,-3.1172451972961426,1721.601318359375,1298.8255615234375,758.3729858398438,772.156005859375,23463,4.729931354522705,0.4424072206020355,-0.2736973166465759,5583,-1610
163984.439,0.001543723396025598,-0.0023950254544615746,1.0,0.2014801949262619,0.011618888936936855,1.0191912651062012,37690.11328125,4.993607521057129,0.5740495324134827,0.0,1.567460060119629,0.8066943883895874,-2.4115684032440186,2092.2490234375,1301.1185302734375,1223.232177734375,773.3438110351562,-2900,4.732364177703857,0.43960046768188477,-0.2775930166244507,4462,-160
163986.424,0.001543723396025598,-0.0023950254544615746,1.0,0.2014801949262619,0.011618888936936855,1.0191912651062012,37690.11328125,4.993607521057129,0.5740495324134827,0.0,1.567460060119629,0.8066943883895874,-3.0927608013153076,1853.853515625,1303.7626953125,1055.631591796875,774.7081909179688,21596,4.732364177703857,0.43960046768188477,-0.2775930166244507,4572,-1739
163988.508,0.0018426227616146207,-0.0028529465198516846,1.0,0.20163241028785706,0.011552184820175171,1.0192949771881104,37695.2265625,4.852662563323975,0.5878598690032959,0.0,0.7217903137207031,0.8895564079284668,-3.092205762863159,546.1773071289062,1304.95458984375,296.5249328613281,775.2069702148438,-20544,4.732364177703857,0.43960046768188477,-0.2775930166244507,5056,-1058
163990.372,0.0018426227616146207,-0.0028529465198516846,1.0,0.20163241028785706,0.011552184820175171,1.0192949771881104,37695.2265625,4.852662563323975,0.5878598690032959,0.0,0.7217903137207031,0.8895564079284668,-3.0916507244110107,557.0592041015625,1304.950439453125,239.30810546875,774.9085083007812,20582,4.732364177703857,0.43960046768188477,-0.2775930166244507,4572,-363
163992.35,0.0018426227616146207,-0.0028529465198516846,1.0,0.20163241028785706,0.011552184820175171,1.0192949771881104,37695.2265625,4.852662563323975,0.5878598690032959,0.0,0.7809047698974609,0.8781684637069702,-2.449127674102783,432.56402587890625,1303.7855224609375,513.403076171875,774.3118286132812,-29510,4.7225117683410645,0.44149845838546753,-0.2811397612094879,4799,-822
163994.33,0.0018426227616146207,-0.0028529465198516846,1.0,0.20158278942108154,0.01170164905488491,1.019185185432434,37695.2265625,4.852662563323975,0.5878598690032959,0.0,0.7809047698974609,0.8781684637069702,-3.0692458152770996,645.1854248046875,1301.9390869140625,821.3414306640625,773.8779296875,31016,4.7225117683410645,0.44149845838546753,-0.2811397612094879,5036,-145
163996.309,0.0018426227616146207,-0.0028529465198516846,1.0,0.20158278942108154,0.01170164905488491,1.019185185432434,37695.2265625,4.852662563323975,0.5878598690032959,0.0,0.8168678283691406,0.8762633800506592,-3.156529426574707,1118.0986328125,1300.15771484375,767.7927856445312,773.5087280273438,-30274,4.716517925262451,0.44181597232818604,-0.2806544303894043,5355,-37
163998.398,0.002181181451305747,-0.0033702398650348186,1.0,0.20158278942108154,0.01170164905488491,1.019185185432434,37642.69921875,4.868354320526123,0.6149979829788208,0.0,0.9110183715820312,1.0390920639038086,-3.071035385131836,1693.1878662109375,1299.1983642578125,1200.111572265625,773.7694702148438,4174,4.716517925262451,0.44181597232818604,-0.2806544303894043,4003,549
164000.272,0.002181181451305747,-0.0033702398650348186,1.0,0.20169278979301453,0.011715521104633808,1.0192642211914062,37642.69921875,4.868354320526123,0.6149979829788208,0.0,0.9110183715820312,1.0390920639038086,-3.070474147796631,1415.2247314453125,1298.5545654296875,1258.69384765625,774.6322021484375,-2376,4.716517925262451,0.44181597232818604,-0.2806544303894043,4366,-891
164002.246,0.002181181451305747,-0.0033702398650348186,1.0,0.20169278979301453,0.011715521104633808,1.0192642211914062,37642.69921875,4.868354320526123,0.6149979829788208,0.0,0.7856082916259766,0.9717970490455627,-1.8056936264038086,1137.592041015625,1297.8043212890625,1205.1800537109375,775.9234619140625,-15650,4.737419605255127,0.4530318081378937,-0.28763899207115173,3815,118
164004.234,0.002181181451305747,-0.0033702398650348186,1.0,0.20169278979301453,0.011715521104633808,1.0192642211914062,37642.69921875,4.868354320526123,0.6149979829788208,0.0,0.7856082916259766,0.9717970490455627,-3.027416706085205,1320.5533447265625,1297.2103271484375,900.0698852539062,777.1634521484375,-31910,4.737419605255127,0.4530318081378937,-0.28763899207115173,4661,288
164006.208,0.002181181451305747,-0.0033702398650348186,1.0,0.20158271491527557,0.011828777380287647,1.019075632095337,37642.69921875,4.868354320526123,0.6149979829788208,0.0,0.7856082916259766,0.9717970490455627,-3.026841640472412,1688.031982421875,1297.2364501953125,731.5696411132812,778.1346435546875,-22737,4.737419605255127,0.4530318081378937,-0.28763899207115173,4661,-1315
164008.291,0.002563914516940713,-0.00395275978371501,1.0,0.20158271491527557,0.011828777380287647,1.019075632095337,37626.70703125,4.872115612030029,0.6467993259429932,0.0,0.8081760406494141,1.1626050472259521,-3.026266574859619,1464.8343505859375,1297.4813232421875,860.3380737304688,779.0523681640625,8413,4.737419605255127,0.4530318081378937,-0.28763899207115173,4444,-285
164010.162,0.002563914516940713,-0.00395275978371501,1.0,0.20170633494853973,0.011772289872169495,1.0191463232040405,37626.70703125,4.872115612030029,0.6467993259429932,0.0,0.8081760406494141,1.1626050472259521,-3.025691509246826,1318.7362060546875,1297.71337890625,543.0338134765625,779.5018310546875,11575,4.737419605255127,0.4530318081378937,-0.28763899207115173,4635,-335
164012.218,0.002563914516940713,-0.00395275978371501,1.0,0.20170633494853973,0.011772289872169495,1.0191463232040405,37626.70703125,4.872115612030029,0.6467993259429932,0.0,0.8081760406494141,1.1626050472259521,-3.025116443634033,1121.948486328125,1297.6724853515625,294.6800231933594,779.2303466796875,32546,4.737419605255127,0.4530318081378937,-0.28763899207115173,4070,-728
164014.124,0.002563914516940713,-0.00395275978371501,1.0,0.20170633494853973,0.011772289872169495,1.0191463232040405,37626.70703125,4.872115612030029,0.6467993259429932,0.0,0.7497653961181641,1.152207851409912,-1.9074506759643555,1049.001220703125,1297.307373046875,86.12139892578125,778.0814819335938,3520,4.747154712677002,0.4547646939754486,-0.2938106954097748,3924,-1721
164016.104,0.002563914516940713,-0.00395275978371501,1.0,0.20162497460842133,0.011909623630344868,1.0191422700881958,37626.70703125,4.872115612030029,0.6467993259429932,0.0,0.7497653961181641,1.152207851409912,-2.9869112968444824,1491.670654296875,1297.2623291015625,526.1660766601562,776.7899169921875,1852,4.747154712677002,0.4547646939754486,-0.2938106954097748,4555,-292
164018.186,0.0029926211573183537,-0.004603365436196327,1.0,0.20162497460842133,0.011909623630344868,1.0191422700881958,37658.51171875,4.87432861328125,0.6804698705673218,0.0,0.7630434036254883,1.3542311191558838,-2.986323833465576,1929.805419921875,1298.067138671875,620.7005004882812,775.5072021484375,-9481,4.747154712677002,0.4547646939754486,-0.2938106954097748,3504,-1182
164020.062,0.0029926211573183537,-0.004603365436196327,1.0,0.20162497460842133,0.011909623630344868,1.0191422700881958,37658.51171875,4.87432861328125,0.6804698705673218,0.0,0.7630434036254883,1.3542311191558838,-2.98573637008667,1721.6602783203125,1299.3009033203125,422.78863525390625,773.9700927734375,-30715,4.747154712677002,0.4547646939754486,-0.2938106954097748,4082,-3209
164022.036,0.0029926211573183537,-0.004603365436196327,1.0,0.20171132683753967,0.011914713308215141,1.0191682577133179,37658.51171875,4.87432861328125,0.6804698705673218,0.0,0.7630434036254883,1.3542311191558838,-2.9851489067077637,1109.659912109375,1300.0751953125,720.7634887695312,772.6199340820312,-11919,4.747154712677002,0.4547646939754486,-0.2938106954097748,3657,-699
164024.016,0.0029926211573183537,-0.004603365436196327,1.0,0.20171132683753967,0.011914713308215141,1.0191682577133179,37658.51171875,4.87432861328125,0.6804698705673218,0.0,0.7345905303955078,1.2067726850509644,-1.2190945148468018,1403.22265625,1300.8568115234375,384.35003662109375,770.9793701171875,-21750,4.751896858215332,0.4793410897254944,-0.30356454849243164,5419,-1800
164025.993,0.0029926211573183537,-0.004603365436196327,1.0,0.20171132683753967,0.011914713308215141,1.0191682577133179,37658.51171875,4.87432861328125,0.6804698705673218,0.0,0.7345905303955078,1.2067726850509644,-2.9254117012023926,1473.069580078125,1301.7366943359375,69.87432861328125,768.6804809570312,247,4.751896858215332,0.4793410897254944,-0.30356454849243164,5477,-1323
164028.079,0.003471528412774205,-0.005327182821929455,1.0,0.2016778141260147,0.012004327960312366,1.0190989971160889,37664.484375,4.722522735595703,0.7079431414604187,0.0,-0.17624473571777344,1.371612310409546,-2.9248046875,731.434814453125,1301.70947265625,127.183837890625,765.9130859375,-28417,4.751896858215332,0.4793410897254944,-0.30356454849243164,5244,-1535
164029.952,0.003471528412774205,-0.005327182821929455,1.0,0.2016778141260147,0.012004327960312366,1.0190989971160889,37664.484375,4.722522735595703,0.7079431414604187,0.0,-0.17624473571777344,1.371612310409546,-2.9241976737976074,1709.960205078125,1302.2305908203125,253.57220458984375,762.9277954101562,-11317,4.751896858215332,0.4793410897254944,-0.30356454849243164,4764,-2259
164031.993,0.003471528412774205,-0.005327182821929455,1.0,0.20172995328903198,0.012036498636007309,1.0190691947937012,37664.484375,4.722522735595703,0.7079431414604187,0.0,-0.1642913818359375,1.1599699258804321,-0.8498730659484863,1561.857666015625,1303.0098876953125,182.1466064453125,759.6699829101562,1258,4.749904632568359,0.5146148204803467,-0.31502142548561096,5997,-2005
164033.909,0.003471528412774205,-0.005327182821929455,1.0,0.20172995328903198,0.012036498636007309,1.0190691947937012,37664.484375,4.722522735595703,0.7079431414604187,0.0,-0.1642913818359375,1.1599699258804321,-2.854196548461914,1163.67041015625,1303.472900390625,625.6392822265625,756.7802734375,9362,4.749904632568359,0.5146148204803467,-0.31502142548561096,4493,-1336
164035.89,0.003471528412774205,-0.005327182821929455,1.0,0.20172995328903198,0.012036498636007309,1.0190691947937012,37664.484375,4.722522735595703,0.7079431414604187,0.0,-0.12744998931884766,1.1583112478256226,-2.833559036254883,1337.798095703125,1303.9039306640625,820.0860595703125,754.4596557617188,23381,4.743764400482178,0.5148912668228149,-0.3151319622993469,5320,-3995
164037.975,0.004004801157861948,-0.00613007927313447,1.0,0.20183268189430237,0.01201658509671688,1.019081950187683,37623.09375,4.725606918334961,0.749742865562439,0.0,-0.10894489288330078,1.4091095924377441,-2.8522725105285645,1673.658935546875,1304.7550048828125,929.3441162109375,752.7612915039062,-27038,4.743764400482178,0.5148912668228149,-0.3151319622993469,5267,-3212
164039.847,0.004004801157861948,-0.00613007927313447,1.0,0.20183268189430237,0.01201658509671688,1.019081950187683,37623.09375,4.725606918334961,0.749742865562439,0.0,-0.10894489288330078,1.4091095924377441,-2.85164213180542,1463.0238037109375,1305.6739501953125,735.0344848632812,751.3242797851562,3362,4.743764400482178,0.5148912668228149,-0.3151319622993469,4241,-1872
164041.828,0.004004801157861948,-0.00613007927313447,1.0,0.20183268189430237,0.01201658509671688,1.019081950187683,37623.09375,4.725606918334961,0.749742865562439,0.0,-0.05935478210449219,1.1848894357681274,-1.173304557800293,1027.341064453125,1306.0682373046875,479.45892333984375,749.766357421875,-14395,4.735499382019043,0.5522612929344177,-0.32440096139907837,3876,-1819
164043.836,0.004004801157861948,-0.00613007927313447,1.0,0.20179341733455658,0.012096397578716278,1.0190948247909546,37623.09375,4.725606918334961,0.749742865562439,0.0,-0.05935478210449219,1.1848894357681274,-2.7947301864624023,877.7103271484375,1305.8258056640625,712.5201416015625,748.4202270507812,-9762,4.735499382019043,0.5522612929344177,-0.32440096139907837,4853,-688
164045.784,0.004004801157861948,-0.00613007927313447,1.0,0.20179341733455658,0.012096397578716278,1.0190948247909546,37623.09375,4.725606918334961,0.749742865562439,0.0,-0.05935478210449219,1.1848894357681274,-2.794081211090088,1421.601318359375,1305.7784423828125,474.27734375,746.9348754882812,-15591,4.735499382019043,0.5522612929344177,-0.32440096139907837,5256,-1181
164047.871,0.0045937891118228436,-0.007014408707618713,1.0,0.20179341733455658,0.012096397578716278,1.0190948247909546,37630.02734375,4.725983619689941,0.7932878136634827,0.0,-0.057094573974609375,1.4461591243743896,-2.7934322357177734,1870.119140625,1306.4903564453125,608.6468505859375,745.5146484375,-4459,4.735499382019043,0.5522612929344177,-0.32440096139907837,4176,-405
164049.741,0.0045937891118228436,-0.007014408707618713,1.0,0.20180639624595642,0.012136741541326046,1.0189359188079834,37630.02734375,4.725983619689941,0.7932878136634827,0.0,-0.057094573974609375,1.4461591243743896,-2.792783260345459,1171.1378173828125,1306.902587890625,875.4902954101562,744.5056762695312,-18888,4.735499382019043,0.5522612929344177,-0.32440096139907837,4917,-1697
164051.742,0.0045937891118228436,-0.007014408707618713,1.0,0.20180639624595642,0.012136741541326046,1.0189359188079834,37630.02734375,4.725983619689941,0.7932878136634827,0.0,0.0023403167724609375,1.2696096897125244,-0.7250733375549316,1043.972412109375,1306.8955078125,1225.986083984375,744.3071899414062,13397,4.725593566894531,0.5816861987113953,-0.3358210623264313,5596,-1281
164053.71,0.0045937891118228436,-0.007014408707618713,1.0,0.2019137144088745,0.012143091298639774,1.0191807746887207,37630.02734375,4.725983619689941,0.7932878136634827,0.0,0.0023403167724609375,1.2696096897125244,-2.72291898727417,1557.6524658203125,1307.2235107421875,1310.26171875,744.8955688476562,-23010,4.725593566894531,0.5816861987113953,-0.3358210623264313,4997,-1246
164055.68,0.0045937891118228436,-0.007014408707618713,1.0,0.2019137144088745,0.012143091298639774,1.0191807746887207,37630.02734375,4.725983619689941,0.7932878136634827,0.0,0.0023403167724609375,1.2696096897125244,-2.7222471237182617,2287.109130859375,1308.80126953125,1072.94384765625,745.8220825195312,-3804,4.725593566894531,0.5816861987113953,-0.3358210623264313,4785,-882
164057.767,0.005244271829724312,-0.00798712857067585,1.0,0.2019137144088745,0.012143091298639774,1.0191807746887207,37647.734375,4.7222771644592285,0.8376513719558716,0.0,-0.019898414611816406,1.535791039466858,-2.7215752601623535,1733.636962890625,1310.6800537109375,666.6287231445312,746.4876708984375,-15687,4.725593566894531,0.5816861987113953,-0.3358210623264313,4056,-1144
164059.645,0.005244271829724312,-0.00798712857067585,1.0,0.20185156166553497,0.012258153408765793,1.019155502319336,37647.734375,4.7222771644592285,0.8376513719558716,0.0,-0.019898414611816406,1.535791039466858,-2.7209033966064453,750.869140625,1311.4981689453125,202.38287353515625,746.3170776367188,-12051,4.725593566894531,0.5816861987113953,-0.3358210623264313,5167,-2209
164061.616,0.005244271829724312,-0.00798712857067585,1.0,0.20185156166553497,0.012258153408765793,1.019155502319336,37647.734375,4.7222771644592285,0.8376513719558716,0.0,-0.019898414611816406,1.535791039466858,-2.720231533050537,593.6863403320312,1311.2232666015625,690.8087768554688,746.1011962890625,24223,4.725593566894531,0.5816861987113953,-0.3358210623264313,4804,-752
164063.6,0.005244271829724312,-0.00798712857067585,1.0,0.20185156166553497,0.012258153408765793,1.019155502319336,37647.734375,4.7222771644592285,0.8376513719558716,0.0,0.03691864013671875,1.4568525552749634,-0.6216597557067871,1371.02587890625,1311.0740966796875,863.1387329101562,746.0773315429688,23220,4.716124057769775,0.5948426127433777,-0.34741154313087463,5314,-1685
164065.585,0.005244271829724312,-0.00798712857067585,1.0,0.20185911655426025,0.012310421094298363,1.0191285610198975,37647.734375,4.7222771644592285,0.8376513719558716,0.0,0.03691864013671875,1.4568525552749634,-2.649299144744873,1933.99267578125,1311.779541015625,818.73046875,746.154296875,11415,4.716124057769775,0.5948426127433777,-0.34741154313087463,4279,273
164067.664,0.005957532208412886,-0.009049903601408005,1.0,0.20185911655426025,0.012310421094298363,1.0191285610198975,37653.93359375,4.671924114227295,0.8849204778671265,0.0,-0.2651996612548828,1.7404671907424927,-2.648604393005371,1608.514892578125,1312.7615966796875,1048.9769287109375,746.6215209960938,-29194,4.716124057769775,0.5948426127433777,-0.34741154313087463,3446,-865
164069.536,0.005957532208412886,-0.009049903601408005,1.0,0.20185911655426025,0.012310421094298363,1.0191285610198975,37653.93359375,4.671924114227295,0.8849204778671265,0.0,-0.2651996612548828,1.7404671907424927,-2.647909641265869,1283.203125,1313.53955078125,984.271484375,747.3268432617188,22858,4.716124057769775,0.5948426127433777,-0.34741154313087463,5190,-453
164071.515,0.005957532208412886,-0.009049903601408005,1.0,0.2018953412771225,0.012322166003286839,1.019142508506775,37653.93359375,4.671924114227295,0.8849204778671265,0.0,-0.2651996612548828,1.7404671907424927,-2.647214889526367,1315.7532958984375,1314.18994140625,1247.649658203125,748.5800170898438,-22524,4.716124057769775,0.5948426127433777,-0.34741154313087463,4880,-120
164073.489,0.005957532208412886,-0.009049903601408005,1.0,0.2018953412771225,0.012322166003286839,1.019142508506775,37653.93359375,4.671924114227295,0.8849204778671265,0.0,-0.22588062286376953,1.6535553932189941,-0.9694981575012207,1442.0814208984375,1314.9014892578125,1339.723388671875,750.4100952148438,23356,4.70957088470459,0.6093279123306274,-0.35667675733566284,4724,-1558
164075.471,0.005957532208412886,-0.009049903601408005,1.0,0.2018953412771225,0.012322166003286839,1.019142508506775,37653.93359375,4.671924114227295,0.8849204778671265,0.0,-0.22588062286376953,1.6535553932189941,-2.5901970863342285,1231.60693359375,1315.3826904296875,1239.908935546875,752.5848999023438,11308,4.70957088470459,0.6093279123306274,-0.35667675733566284,4262,-481
164077.554,0.006738852709531784,-0.01021081767976284,1.0,0.20199057459831238,0.012337514199316502,1.0192286968231201,37642.375,4.446465492248535,0.9225077629089355,0.0,-1.5786323547363281,1.8790791034698486,-2.5894837379455566,570.933837890625,1314.7918701171875,1135.547607421875,754.9047241210938,30786,4.70957088470459,0.6093279123306274,-0.35667675733566284,3432,-1215
164079.426,0.006738852709531784,-0.01021081767976284,1.0,0.20199057459831238,0.012337514199316502,1.0192286968231201,37642.375,4.446465492248535,0.9225077629089355,0.0,-1.5786323547363281,1.8790791034698486,-2.5887703895568848,1857.9454345703125,1315.0235595703125,985.38623046875,757.142333984375,-32674,4.70957088470459,0.6093279123306274,-0.35667675733566284,5041,-232
164081.411,0.006738852709531784,-0.01021081767976284,1.0,0.20192894339561462,0.012422213330864906,1.0191200971603394,37642.375,4.446465492248535,0.9225077629089355,0.0,-1.5786323547363281,1.8790791034698486,-2.588057041168213,1620.872802734375,1315.62353515625,718.9447631835938,758.9535522460938,15073,4.70957088470459,0.6093279123306274,-0.35667675733566284,4554,-399
164083.386,0.006738852709531784,-0.01021081767976284,1.0,0.20192894339561462,0.012422213330864906,1.0191200971603394,37642.375,4.446465492248535,0.9225077629089355,0.0,-1.5786323547363281,1.8790791034698486,-2.587343692779541,1132.539794921875,1315.879150390625,553.3795776367188,760.1871948242188,11252,4.70957088470459,0.6093279123306274,-0.35667675733566284,4402,-168
164085.369,0.006738852709531784,-0.01021081767976284,1.0,0.20192894339561462,0.012422213330864906,1.0191200971603394,37642.375,4.446465492248535,0.9225077629089355,0.0,-1.4899663925170898,1.8891280889511108,-0.9348535537719727,1217.619384765625,1315.9609375,930.74951171875,761.4409790039062,-24472,4.694793224334717,0.6076530814170837,-0.36580249667167664,4445,-933
164087.45,0.007589643821120262,-0.01147056370973587,1.0,0.20199379324913025,0.01237174216657877,1.0190842151641846,37685.0546875,4.389185428619385,0.9794365763664246,0.0,-1.8336467742919922,2.230700969696045,-2.5311262607574463,1216.2410888671875,1315.8961181640625,1465.72314453125,763.4221801757812,-13211,4.694793224334717,0.6076530814170837,-0.36580249667167664,4535,-318
164089.323,0.007589643821120262,-0.01147056370973587,1.0,0.20199379324913025,0.01237174216657877,1.0190842151641846,37685.0546875,4.389185428619385,0.9794365763664246,0.0,-1.8336467742919922,2.230700969696045,-2.5303947925567627,1639.7242431640625,1316.2735595703125,1301.33056640625,765.7872314453125,-5907,4.694793224334717,0.6076530814170837,-0.36580249667167664,5049,-1194
