timestamp,posCtl.targetX,posCtl.targetY,posCtl.targetZ,locSrv.x,locSrv.y,locSrv.z,controller.actuatorThrust,controller.pitch,controller.roll,controller.yaw,pid_attitude.pitch_output,pid_attitude.roll_output,pid_attitude.yaw_output,pid_rate.pitch_output,pid_rate.pitch_outI,pid_rate.roll_output,pid_rate.roll_outI,pid_rate.yaw_output,stateEstimate.pitch,stateEstimate.roll,stateEstimate.yaw,snn_control.torque_pitch,snn_control.torque_roll
72003.53,8.35119578823651e-07,-3.159689399012677e-08,1.0,0.1911521852016449,0.031491778790950775,1.0213537216186523,37667.0390625,4.07462215423584,0.7287898063659668,0.0,-1.456498146057129,0.6716015338897705,-6.237616062164307,1690.7406005859375,1824.70947265625,2037.720703125,2718.76806640625,-2940,4.317371845245361,0.6168562173843384,-0.6736775040626526,4314,464
72005.621,8.669645694681094e-07,-8.206241375319223e-08,1.0,0.1911521852016449,0.031491778790950775,1.0213537216186523,37642.74609375,4.071205139160156,0.7293994426727295,0.0,-1.4770002365112305,0.6752593517303467,-6.236268520355225,723.010009765625,1823.5948486328125,1398.929443359375,2716.3798828125,-18168,4.317371845245361,0.6168562173843384,-0.6736775040626526,4495,-309
72007.491,8.669645694681094e-07,-8.206241375319223e-08,1.0,0.1911521852016449,0.031491778790950775,1.0213537216186523,37642.74609375,4.071205139160156,0.7293994426727295,0.0,-1.4770002365112305,0.6752593517303467,-6.234920978546143,492.9888916015625,1820.8953857421875,1749.3408203125,2713.104736328125,-26782,4.317371845245361,0.6168562173843384,-0.6736775040626526,4250,-340
72009.461,8.669645694681094e-07,-8.206241375319223e-08,1.0,0.19090379774570465,0.03150971606373787,1.0213836431503296,37642.74609375,4.071205139160156,0.7293994426727295,0.0,-1.4770002365112305,0.6752593517303467,-6.2335734367370605,1166.2132568359375,1817.7772216796875,2653.24365234375,2710.29931640625,-29155,4.317371845245361,0.6168562173843384,-0.6736775040626526,3388,-1452
72011.442,8.669645694681094e-07,-8.206241375319223e-08,1.0,0.19090379774570465,0.03150971606373787,1.0213836431503296,37642.74609375,4.071205139160156,0.7293994426727295,0.0,-1.4083642959594727,0.5609918832778931,-5.369216442108154,1930.0341796875,1815.3316650390625,2866.8193359375,2708.173095703125,15206,4.305932521820068,0.6359007954597473,-0.6784454584121704,3899,-317
72013.437,8.669645694681094e-07,-8.206241375319223e-08,1.0,0.19083890318870544,0.03149072453379631,1.0213500261306763,37642.74609375,4.071205139160156,0.7293994426727295,0.0,-1.4083642959594727,0.5609918832778931,-6.202251434326172,2293.446044921875,1813.93310546875,3571.5185546875,2707.55322265625,-20837,4.305932521820068,0.6359007954597473,-0.6784454584121704,3808,-459
72015.516,1.107171783587546e-06,-4.623315703611297e-07,1.0,0.19083890318870544,0.03149072453379631,1.0213500261306763,37612.390625,4.121428489685059,0.7385565042495728,0.0,-1.1070241928100586,0.6159342527389526,-6.200894355773926,2335.48828125,1813.4637451171875,3983.50390625,2708.736083984375,4414,4.305932521820068,0.6359007954597473,-0.6784454584121704,3335,-245
72017.38,1.107171783587546e-06,-4.623315703611297e-07,1.0,0.19083890318870544,0.03149072453379631,1.0213500261306763,37612.390625,4.121428489685059,0.7385565042495728,0.0,-1.1070241928100586,0.6159342527389526,-6.19953727722168,1436.696533203125,1812.5712890625,2669.920166015625,2709.669189453125,-23108,4.305932521820068,0.6359007954597473,-0.6784454584121704,2934,-1392
72019.356,1.107171783587546e-06,-4.623315703611297e-07,1.0,0.19096851348876953,0.03145161643624306,1.0214495658874512,37612.390625,4.121428489685059,0.7385565042495728,0.0,-1.1070241928100586,0.6159342527389526,-6.198180198669434,1470.212158203125,1811.372802734375,1196.028076171875,2708.429931640625,31011,4.305932521820068,0.6359007954597473,-0.6784454584121704,5476,-1306
72021.34,1.107171783587546e-06,-4.623315703611297e-07,1.0,0.19096851348876953,0.03145161643624306,1.0214495658874512,37612.390625,4.121428489685059,0.7385565042495728,0.0,-1.1328706741333008,0.524131178855896,-5.107201099395752,2786.3203125,1811.6734619140625,1836.751708984375,2706.238037109375,23357,4.310240268707275,0.6512013077735901,-0.6844654083251953,3435,190
72023.316,1.107171783587546e-06,-4.623315703611297e-07,1.0,0.19096851348876953,0.03145161643624306,1.0214495658874512,37612.390625,4.121428489685059,0.7385565042495728,0.0,-1.1328706741333008,0.524131178855896,-6.159323692321777,2648.292236328125,1813.0377197265625,3378.15478515625,2705.308349609375,-26346,4.310240268707275,0.6512013077735901,-0.6844654083251953,4480,-411
72025.415,1.922557657962898e-06,-1.7502501350463717e-06,1.0,0.19103771448135376,0.03138139843940735,1.0213297605514526,37648.3984375,4.004780292510986,0.7225157022476196,0.0,-1.8327598571777344,0.42788636684417725,-6.157955169677734,1309.619384765625,1813.5028076171875,3145.815185546875,2705.12158203125,25013,4.310240268707275,0.6512013077735901,-0.6844654083251953,4897,-289
72027.273,1.922557657962898e-06,-1.7502501350463717e-06,1.0,0.19103771448135376,0.03138139843940735,1.0213297605514526,37648.3984375,4.004780292510986,0.7225157022476196,0.0,-1.8327598571777344,0.42788636684417725,-6.156586647033691,1483.23486328125,1813.4500732421875,2253.076416015625,2704.364013671875,-7898,4.310240268707275,0.6512013077735901,-0.6844654083251953,3943,-2550
72029.254,1.922557657962898e-06,-1.7502501350463717e-06,1.0,0.19086924195289612,0.03139635920524597,1.021443486213684,37648.3984375,4.004780292510986,0.7225157022476196,0.0,-1.742471694946289,0.3379615545272827,-6.143609046936035,1035.7496337890625,1812.37060546875,1784.99169921875,2702.509521484375,30340,4.295192241668701,0.6661887764930725,-0.6845295429229736,5311,-1497
72031.232,1.922557657962898e-06,-1.7502501350463717e-06,1.0,0.19086924195289612,0.03139635920524597,1.021443486213684,37648.3984375,4.004780292510986,0.7225157022476196,0.0,-1.742471694946289,0.3379615545272827,-6.153462886810303,799.63623046875,1810.123779296875,2184.0869140625,2700.275634765625,-13196,4.295192241668701,0.6661887764930725,-0.6845295429229736,4682,-730
72033.209,1.922557657962898e-06,-1.7502501350463717e-06,1.0,0.19086924195289612,0.03139635920524597,1.021443486213684,37648.3984375,4.004780292510986,0.7225157022476196,0.0,-1.742471694946289,0.3379615545272827,-6.152093410491943,1222.55029296875,1807.4715576171875,2596.136474609375,2698.27783203125,-28300,4.295192241668701,0.6661887764930725,-0.6845295429229736,4322,337
72035.309,3.8641046558041126e-06,-4.810825430467958e-06,1.0,0.1911451667547226,0.031284235417842865,1.0214474201202393,37662.82421875,4.050620079040527,0.7283055782318115,0.0,-1.467432975769043,0.3727008104324341,-6.150723934173584,1704.4864501953125,1805.127197265625,2576.04345703125,2696.45263671875,12571,4.295192241668701,0.6661887764930725,-0.6845295429229736,3045,-1256
72037.167,3.8641046558041126e-06,-4.810825430467958e-06,1.0,0.1911451667547226,0.031284235417842865,1.0214474201202393,37662.82421875,4.050620079040527,0.7283055782318115,0.0,-1.467432975769043,0.3727008104324341,-6.149354457855225,897.9691162109375,1801.9681396484375,2143.42236328125,2694.197265625,-31042,4.295192241668701,0.6661887764930725,-0.6845295429229736,3392,-1249
72039.151,3.8641046558041126e-06,-4.810825430467958e-06,1.0,0.1911451667547226,0.031284235417842865,1.0214474201202393,37662.82421875,4.050620079040527,0.7283055782318115,0.0,-1.4965639114379883,0.23376131057739258,-6.274211883544922,407.20166015625,1797.48193359375,2022.67333984375,2691.426025390625,9191,4.300047397613525,0.6893453598022461,-0.6838321685791016,4415,-2181
72041.128,3.8641046558041126e-06,-4.810825430467958e-06,1.0,0.19087789952754974,0.031311869621276855,1.0214000940322876,37662.82421875,4.050620079040527,0.7283055782318115,0.0,-1.4965639114379883,0.23376131057739258,-6.150803565979004,942.8504028320312,1792.6103515625,2380.60791015625,2688.705810546875,23467,4.300047397613525,0.6893453598022461,-0.6838321685791016,3782,-968
72043.113,3.8641046558041126e-06,-4.810825430467958e-06,1.0,0.19087789952754974,0.031311869621276855,1.0214000940322876,37662.82421875,4.050620079040527,0.7283055782318115,0.0,-1.4965639114379883,0.23376131057739258,-6.149435997009277,1788.641845703125,1788.551025390625,3087.352294921875,2686.97314453125,-5174,4.300047397613525,0.6893453598022461,-0.6838321685791016,3027,-1812
72045.2,7.662517418793868e-06,-1.078575132851256e-05,1.0,0.19087789952754974,0.031311869621276855,1.0214000940322876,37655.46875,4.09030818939209,0.7318260669708252,0.0,-1.2584352493286133,0.2548842430114746,-6.148068428039551,2238.720703125,1785.77197265625,3291.447265625,2686.335693359375,28133,4.300047397613525,0.6893453598022461,-0.6838321685791016,3567,-311
72047.061,7.662517418793868e-06,-1.078575132851256e-05,1.0,0.19089718163013458,0.03130524978041649,1.0214581489562988,37655.46875,4.09030818939209,0.7318260669708252,0.0,-1.2584352493286133,0.2548842430114746,-6.146700859069824,1741.60400390625,1783.400390625,2991.579833984375,2686.2119140625,-17651,4.300047397613525,0.6893453598022461,-0.6838321685791016,2833,-1555
72049.049,7.662517418793868e-06,-1.078575132851256e-05,1.0,0.19089718163013458,0.03130524978041649,1.0214581489562988,37655.46875,4.09030818939209,0.7318260669708252,0.0,-1.399789810180664,0.13748860359191895,-6.211391925811768,1311.8270263671875,1780.798828125,2686.555908203125,2686.109130859375,2472,4.323606491088867,0.7089112997055054,-0.6834672093391418,3416,-520
72051.024,7.662517418793868e-06,-1.078575132851256e-05,1.0,0.19089718163013458,0.03130524978041649,1.0214581489562988,37655.46875,4.09030818939209,0.7318260669708252,0.0,-1.399789810180664,0.13748860359191895,-6.146157264709473,1971.3834228515625,1778.887451171875,2521.0869140625,2685.803955078125,-213,4.323606491088867,0.7089112997055054,-0.6834672093391418,3137,40
72052.998,7.662517418793868e-06,-1.078575132851256e-05,1.0,0.19095824658870697,0.03127295896410942,1.021493911743164,37655.46875,4.09030818939209,0.7318260669708252,0.0,-1.399789810180664,0.13748860359191895,-6.1447906494140625,2156.375,1777.7994384765625,2499.2109375,2685.301513671875,28882,4.323606491088867,0.7089112997055054,-0.6834672093391418,3206,-1377
72055.093,1.4235361049941275e-05,-2.1102117898408324e-05,1.0,0.19095824658870697,0.03127295896410942,1.021493911743164,37609.546875,4.119030952453613,0.7349601984024048,0.0,-1.2274532318115234,0.15629339218139648,-6.143424034118652,2557.6064453125,1777.932373046875,2837.59521484375,2685.086181640625,8018,4.323606491088867,0.7089112997055054,-0.6834672093391418,3938,-440
72056.963,1.4235361049941275e-05,-2.1102117898408324e-05,1.0,0.19095824658870697,0.03127295896410942,1.021493911743164,37609.546875,4.119030952453613,0.7349601984024048,0.0,-1.2274532318115234,0.15629339218139648,-6.142057418823242,2700.534423828125,1779.271484375,2865.9521484375,2685.147705078125,31774,4.323606491088867,0.7089112997055054,-0.6834672093391418,3445,93
72058.935,1.4235361049941275e-05,-2.1102117898408324e-05,1.0,0.19118458032608032,0.031203940510749817,1.0214335918426514,37609.546875,4.119030952453613,0.7349601984024048,0.0,-1.2274532318115234,0.15629339218139648,-6.140690803527832,2009.362060546875,1780.6923828125,2129.826904296875,2684.459716796875,-6224,4.323606491088867,0.7089112997055054,-0.6834672093391418,3703,-706
72060.915,1.4235361049941275e-05,-2.1102117898408324e-05,1.0,0.19118458032608032,0.031203940510749817,1.0214335918426514,37609.546875,4.119030952453613,0.7349601984024048,0.0,-1.2085247039794922,0.1315845251083374,-5.135998725891113,1732.6959228515625,1781.8109130859375,1879.8671875,2682.8154296875,-10366,4.320451736450195,0.7130294442176819,-0.6890103816986084,5113,-1243
72062.895,1.4235361049941275e-05,-2.1102117898408324e-05,1.0,0.1911218762397766,0.03114761784672737,1.0213912725448608,37609.546875,4.119030952453613,0.7349601984024048,0.0,-1.2085247039794922,0.1315845251083374,-6.104675769805908,2431.293701171875,1783.6065673828125,2456.676025390625,2681.146240234375,-19864,4.320451736450195,0.7130294442176819,-0.6890103816986084,3564,11
72065.104,2.482793752278667e-05,-3.7681907997466624e-05,1.0,0.1911218762397766,0.03114761784672737,1.0213912725448608,37602.21875,4.174325942993164,0.7407827377319336,0.0,-0.8767547607421875,0.16651976108551025,-6.103297710418701,2452.287109375,1785.9913330078125,2403.611572265625,2679.387451171875,17818,4.320451736450195,0.7130294442176819,-0.6890103816986084,4198,-857
72066.85,2.482793752278667e-05,-3.7681907997466624e-05,1.0,0.1911218762397766,0.03114761784672737,1.0213912725448608,37602.21875,4.174325942993164,0.7407827377319336,0.0,-0.8767547607421875,0.16651976108551025,-6.101919651031494,1523.567138671875,1787.62646484375,2719.710693359375,2677.977294921875,5562,4.320451736450195,0.7130294442176819,-0.6890103816986084,3970,-1946
72068.835,2.482793752278667e-05,-3.7681907997466624e-05,1.0,0.19091388583183289,0.031178532168269157,1.0213907957077026,37602.21875,4.174325942993164,0.7407827377319336,0.0,-0.8767547607421875,0.16651976108551025,-6.100541591644287,1582.237060546875,1788.7139892578125,2714.411865234375,2676.8525390625,27047,4.320451736450195,0.7130294442176819,-0.6890103816986084,4207,-1501
72070.812,2.482793752278667e-05,-3.7681907997466624e-05,1.0,0.19091388583183289,0.031178532168269157,1.0213907957077026,37602.21875,4.174325942993164,0.7407827377319336,0.0,-0.7098312377929688,0.07310020923614502,-5.114362716674805,2148.479248046875,1790.097900390625,2010.59326171875,2675.029052734375,-26190,4.292631149291992,0.7285993695259094,-0.6944512128829956,5631,-2528
72072.789,2.482793752278667e-05,-3.7681907997466624e-05,1.0,0.19091388583183289,0.031178532168269157,1.0213907957077026,37602.21875,4.174325942993164,0.7407827377319336,0.0,-0.7098312377929688,0.07310020923614502,-6.065119743347168,2696.16015625,1792.456298828125,1773.56640625,2672.311279296875,6502,4.292631149291992,0.7285993695259094,-0.6944512128829956,4045,-941
72074.902,4.02652112825308e-05,-6.178399053169414e-05,1.0,0.19104152917861938,0.031136823818087578,1.0214332342147827,37650.33203125,4.061703681945801,0.7219017744064331,0.0,-1.3855648040771484,-0.04018557071685791,-6.0637311935424805,2642.0224609375,1795.550048828125,2274.121826171875,2669.519287109375,-7940,4.292631149291992,0.7285993695259094,-0.6944512128829956,4345,-1310
72076.75,4.02652112825308e-05,-6.178399053169414e-05,1.0,0.19104152917861938,0.031136823818087578,1.0214332342147827,37650.33203125,4.061703681945801,0.7219017744064331,0.0,-1.3855648040771484,-0.04018557071685791,-6.062342643737793,2741.5634765625,1799.3846435546875,2769.08056640625,2667.328125,32722,4.292631149291992,0.7285993695259094,-0.6944512128829956,4434,-382
72078.739,4.02652112825308e-05,-6.178399053169414e-05,1.0,0.19104152917861938,0.031136823818087578,1.0214332342147827,37650.33203125,4.061703681945801,0.7219017744064331,0.0,-1.1924686431884766,-0.1718294620513916,-5.005335807800293,3009.833251953125,1804.1875,2673.8984375,2665.513427734375,17381,4.260448455810547,0.750540018081665,-0.7002832889556885,5018,-1139
72080.704,4.02652112825308e-05,-6.178399053169414e-05,1.0,0.19114233553409576,0.031071607023477554,1.0212935209274292,37650.33203125,4.061703681945801,0.7219017744064331,0.0,-1.1924686431884766,-0.1718294620513916,-6.024548053741455,2497.179931640625,1809.107421875,2462.91162109375,2663.7333984375,-8038,4.260448455810547,0.750540018081665,-0.7002832889556885,4323,-162
72082.683,4.02652112825308e-05,-6.178399053169414e-05,1.0,0.19114233553409576,0.031071607023477554,1.0212935209274292,37650.33203125,4.061703681945801,0.7219017744064331,0.0,-1.1924686431884766,-0.1718294620513916,-6.023147106170654,1758.3787841796875,1813.13427734375,2231.807861328125,2661.677001953125,-26801,4.260448455810547,0.750540018081665,-0.7002832889556885,4313,-2079
72084.883,6.259404472075403e-05,-9.655617759563029e-05,1.0,0.19117465615272522,0.031037459149956703,1.0212757587432861,37687.07421875,4.1109161376953125,0.7268779277801514,0.0,-0.8971939086914062,-0.14197254180908203,-6.0217461585998535,2439.5859375,1817.3197021484375,2748.497802734375,2660.0810546875,28589,4.260448455810547,0.750540018081665,-0.7002832889556885,4444,-188
72086.639,6.259404472075403e-05,-9.655617759563029e-05,1.0,0.19117465615272522,0.031037459149956703,1.0212757587432861,37687.07421875,4.1109161376953125,0.7268779277801514,0.0,-0.8971939086914062,-0.14197254180908203,-6.020345211029053,3058.401611328125,1822.45556640625,2732.580078125,2658.849365234375,-11769,4.260448455810547,0.750540018081665,-0.7002832889556885,4536,-1795
72088.621,6.259404472075403e-05,-9.655617759563029e-05,1.0,0.19117465615272522,0.031037459149956703,1.0212757587432861,37687.07421875,4.1109161376953125,0.7268779277801514,0.0,-0.5582027435302734,-0.23941361904144287,-4.988787651062012,3209.202880859375,1828.576171875,2853.173583984375,2658.083251953125,-24319,4.203949928283691,0.7667801976203918,-0.7059746980667114,4932,-266
72090.599,6.259404472075403e-05,-9.655617759563029e-05,1.0,0.19123834371566772,0.0309721939265728,1.0213254690170288,37687.07421875,4.1109161376953125,0.7268779277801514,0.0,-0.5582027435302734,-0.23941361904144287,-5.983371734619141,2693.590576171875,1834.82177734375,3195.09326171875,2658.16064453125,11597,4.203949928283691,0.7667801976203918,-0.7059746980667114,4398,-859
72092.579,6.259404472075403e-05,-9.655617759563029e-05,1.0,0.19123834371566772,0.0309721939265728,1.0213254690170288,37687.07421875,4.1109161376953125,0.7268779277801514,0.0,-0.5582027435302734,-0.23941361904144287,-5.981959342956543,2919.95458984375,1841.46435546875,2936.400634765625,2658.595458984375,-7819,4.203949928283691,0.7667801976203918,-0.7059746980667114,3738,-577
72094.668,9.252771269530058e-05,-0.00014305159857030958,1.0,0.19123834371566772,0.0309721939265728,1.0213254690170288,37695.609375,4.153475284576416,0.7297084331512451,0.0,-0.30284786224365234,-0.22243058681488037,-5.980546951293945,2975.24755859375,1848.5023193359375,2638.89892578125,2658.93115234375,-1156,4.203949928283691,0.7667801976203918,-0.7059746980667114,5075,-869
72096.537,9.252771269530058e-05,-0.00014305159857030958,1.0,0.19120405614376068,0.030984945595264435,1.0212633609771729,37695.609375,4.153475284576416,0.7297084331512451,0.0,-0.30284786224365234,-0.22243058681488037,-5.979134559631348,2601.359375,1855.36181640625,2733.87109375,2659.310302734375,-12470,4.203949928283691,0.7667801976203918,-0.7059746980667114,5240,-1019
72098.518,9.252771269530058e-05,-0.00014305159857030958,1.0,0.19120405614376068,0.030984945595264435,1.0212633609771729,37695.609375,4.153475284576416,0.7297084331512451,0.0,0.1172933578491211,-0.2094801664352417,-5.4136433601379395,2623.765625,1862.0936279296875,2876.59814453125,2659.915283203125,22429,4.1339263916015625,0.7646217942237854,-0.7090911269187927,5146,135
72100.497,9.252771269530058e-05,-0.00014305159857030958,1.0,0.19125449657440186,0.030956249684095383,1.021183729171753,37695.609375,4.153475284576416,0.7297084331512451,0.0,0.1172933578491211,-0.2094801664352417,-5.957600116729736,2019.776611328125,1867.9061279296875,2802.1865234375,2660.608154296875,-9974,4.1339263916015625,0.7646217942237854,-0.7090911269187927,4693,-39
72102.477,9.252771269530058e-05,-0.00014305159857030958,1.0,0.19125449657440186,0.030956249684095383,1.021183729171753,37695.609375,4.153475284576416,0.7297084331512451,0.0,0.1172933578491211,-0.2094801664352417,-5.95618200302124,1422.424560546875,1872.1500244140625,2473.95263671875,2660.93603515625,-28456,4.1339263916015625,0.7646217942237854,-0.7090911269187927,4390,514
72104.566,0.00013258993567433208,-0.00020513935305643827,1.0,0.19125449657440186,0.030956249684095383,1.021183729171753,37684.2421875,4.194828510284424,0.7309558391571045,0.0,0.36541271209716797,-0.20199573040008545,-5.954763889312744,1073.8812255859375,1874.619140625,2360.794921875,2660.8095703125,1809,4.1339263916015625,0.7646217942237854,-0.7090911269187927,4282,688
72106.463,0.00013258993567433208,-0.00020513935305643827,1.0,0.19125449657440186,0.030956249684095383,1.021183729171753,37684.2421875,4.194828510284424,0.7309558391571045,0.0,0.36541271209716797,-0.20199573040008545,-5.953345775604248,1769.1983642578125,1876.533447265625,2748.640625,2660.8212890625,-5442,4.1339263916015625,0.7646217942237854,-0.7090911269187927,3918,217
72108.535,0.00013258993567433208,-0.00020513935305643827,1.0,0.1912759393453598,0.03090650402009487,1.0212011337280273,37684.2421875,4.194828510284424,0.7309558391571045,0.0,0.36541271209716797,-0.20199573040008545,-5.951927661895752,2836.831787109375,1879.4053955078125,2296.2314453125,2660.34521484375,1107,4.1339263916015625,0.7646217942237854,-0.7090911269187927,3831,296
72110.387,0.00013258993567433208,-0.00020513935305643827,1.0,0.1912759393453598,0.03090650402009487,1.0212011337280273,37684.2421875,4.194828510284424,0.7309558391571045,0.0,0.6236028671264648,-0.17479455471038818,-3.981748104095459,2819.13232421875,1883.0467529296875,1874.1082763671875,2658.90234375,17338,4.09089469909668,0.7600882649421692,-0.7199681401252747,4919,657
72112.369,0.00013258993567433208,-0.00020513935305643827,1.0,0.19131344556808472,0.030889099463820457,1.0211634635925293,37684.2421875,4.194828510284424,0.7309558391571045,0.0,0.6236028671264648,-0.17479455471038818,-5.883785247802734,2270.13037109375,1886.5926513671875,2166.944091796875,2657.046630859375,28778,4.09089469909668,0.7600882649421692,-0.7199681401252747,3923,-144
72114.457,0.00018442788859829307,-0.000285191839793697,1.0,0.19131344556808472,0.030889099463820457,1.0211634635925293,37723.05078125,4.261167526245117,0.7386449575424194,0.0,1.021636962890625,-0.12865984439849854,-5.882345199584961,2758.45947265625,1890.7044677734375,2535.305419921875,2655.33984375,-24610,4.09089469909668,0.7600882649421692,-0.7199681401252747,3723,-923
72116.433,0.00018442788859829307,-0.000285191839793697,1.0,0.19131344556808472,0.030889099463820457,1.0211634635925293,37723.05078125,4.261167526245117,0.7386449575424194,0.0,1.021636962890625,-0.12865984439849854,-5.8809051513671875,2650.01611328125,1895.1375732421875,2943.1923828125,2654.302734375,10486,4.09089469909668,0.7600882649421692,-0.7199681401252747,3847,-1017
72118.304,0.00018442788859829307,-0.000285191839793697,1.0,0.1913004368543625,0.030869226902723312,1.0210890769958496,37723.05078125,4.261167526245117,0.7386449575424194,0.0,1.021636962890625,-0.12865984439849854,-5.879465103149414,2464.70849609375,1899.585205078125,3244.44482421875,2654.2255859375,32496,4.09089469909668,0.7600882649421692,-0.7199681401252747,3964,-250
72120.284,0.00018442788859829307,-0.000285191839793697,1.0,0.1913004368543625,0.030869226902723312,1.0210890769958496,37723.05078125,4.261167526245117,0.7386449575424194,0.0,1.1962308883666992,-0.19763731956481934,-4.540395736694336,2006.69091796875,1903.429443359375,2747.97021484375,2654.2861328125,24558,4.061795711517334,0.7715845108032227,-0.7273582816123962,3464,-163
72122.261,0.00018442788859829307,-0.000285191839793697,1.0,0.1913004368543625,0.030869226902723312,1.0210890769958496,37723.05078125,4.261167526245117,0.7386449575424194,0.0,1.1962308883666992,-0.19763731956481934,-5.832215785980225,1464.5526123046875,1906.0440673828125,1796.7198486328125,2653.194580078125,28761,4.061795711517334,0.7715845108032227,-0.7273582816123962,3941,436
72124.351,0.00024997786385938525,-0.0003861782606691122,1.0,0.1913435310125351,0.030825499445199966,1.0210597515106201,37765.16015625,4.161715030670166,0.7205322980880737,0.0,0.5995159149169922,-0.30631327629089355,-5.830761432647705,756.5487060546875,1906.689697265625,1496.173583984375,2650.74560546875,13044,4.061795711517334,0.7715845108032227,-0.7273582816123962,3545,-103
72126.222,0.00024997786385938525,-0.0003861782606691122,1.0,0.1913435310125351,0.030825499445199966,1.0210597515106201,37765.16015625,4.161715030670166,0.7205322980880737,0.0,0.5995159149169922,-0.30631327629089355,-5.8293070793151855,919.3106079101562,1905.9119873046875,2242.185546875,2648.16357421875,-18453,4.061795711517334,0.7715845108032227,-0.7273582816123962,3256,-1546
72128.303,0.00024997786385938525,-0.0003861782606691122,1.0,0.1913435310125351,0.030825499445199966,1.0210597515106201,37765.16015625,4.161715030670166,0.7205322980880737,0.0,0.6894292831420898,-0.3643859624862671,-4.766570091247559,1365.6732177734375,1904.5455322265625,2785.849365234375,2646.197998046875,19004,4.046810150146484,0.7812632918357849,-0.7332216501235962,3523,-850
72130.179,0.00024997786385938525,-0.0003861782606691122,1.0,0.19150900840759277,0.03080655448138714,1.021133542060852,37765.16015625,4.161715030670166,0.7205322980880737,0.0,0.6894292831420898,-0.3643859624862671,-5.791193008422852,2023.1807861328125,1903.5662841796875,3046.46142578125,2645.09521484375,-27618,4.046810150146484,0.7812632918357849,-0.7332216501235962,2778,-1144
72132.155,0.00024997786385938525,-0.0003861782606691122,1.0,0.19150900840759277,0.03080655448138714,1.021133542060852,37765.16015625,4.161715030670166,0.7205322980880737,0.0,0.6894292831420898,-0.3643859624862671,-5.789726257324219,2464.03759765625,1903.49755859375,3106.965087890625,2644.792236328125,20316,4.046810150146484,0.7812632918357849,-0.7332216501235962,2185,-2128
72134.256,0.00033157863072119653,-0.0005115770036354661,1.0,0.19150900840759277,0.03080655448138714,1.021133542060852,37794.6484375,4.213129043579102,0.7296268939971924,0.0,0.9979133605957031,-0.3098183870315552,-5.788259506225586,2646.65087890625,1904.4300537109375,3058.26708984375,2645.0908203125,13024,4.046810150146484,0.7812632918357849,-0.7332216501235962,2696,-1332
72136.114,0.00033157863072119653,-0.0005115770036354661,1.0,0.19142012298107147,0.030773799866437912,1.0209426879882812,37794.6484375,4.213129043579102,0.7296268939971924,0.0,0.9979133605957031,-0.3098183870315552,-5.786792755126953,2085.41259765625,1905.447021484375,2338.728271484375,2644.931396484375,-23486,4.046810150146484,0.7812632918357849,-0.7332216501235962,3053,-2174
72138.093,0.00033157863072119653,-0.0005115770036354661,1.0,0.19142012298107147,0.030773799866437912,1.0209426879882812,37794.6484375,4.213129043579102,0.7296268939971924,0.0,0.939122200012207,-0.33683860301971436,-4.660511493682861,1702.9476318359375,1906.023681640625,2212.17236328125,2644.22216796875,-6246,4.0566086769104,0.7857666611671448,-0.7394360303878784,4883,-1013
72140.163,0.00033157863072119653,-0.0005115770036354661,1.0,0.19155915081501007,0.030858824029564857,1.0209451913833618,37794.6484375,4.213129043579102,0.7296268939971924,0.0,0.939122200012207,-0.33683860301971436,-5.746548652648926,1584.92431640625,1906.0760498046875,2983.615966796875,2644.084228515625,28050,4.0566086769104,0.7857666611671448,-0.7394360303878784,4226,-914
72142.052,0.00033157863072119653,-0.0005115770036354661,1.0,0.19155915081501007,0.030858824029564857,1.0209451913833618,37794.6484375,4.213129043579102,0.7296268939971924,0.0,0.939122200012207,-0.33683860301971436,-5.74506950378418,1663.509765625,1905.796630859375,3323.600341796875,2644.8740234375,23817,4.0566086769104,0.7857666611671448,-0.7394360303878784,4119,302
72144.147,0.0004313742683734745,-0.0006645128014497459,1.0,0.19155915081501007,0.030858824029564857,1.0209451913833618,37792.1015625,4.264677047729492,0.7373117804527283,0.0,1.2484102249145508,-0.290729284286499,-5.743590354919434,1364.9000244140625,1904.8438720703125,2734.18896484375,2645.650390625,-23000,4.0566086769104,0.7857666611671448,-0.7394360303878784,3244,-1230
72146.007,0.0004313742683734745,-0.0006645128014497459,1.0,0.19168537855148315,0.030828790739178658,1.0209369659423828,37792.1015625,4.264677047729492,0.7373117804527283,0.0,1.2484102249145508,-0.290729284286499,-5.7421112060546875,237.48681640625,1901.830810546875,1952.6923828125,2645.373779296875,-7621,4.0566086769104,0.7857666611671448,-0.7394360303878784,3519,-1477
72148.064,0.0004313742683734745,-0.0006645128014497459,1.0,0.19168537855148315,0.030828790739178658,1.0209369659423828,37792.1015625,4.264677047729492,0.7373117804527283,0.0,1.1562767028808594,-0.27041423320770264,-3.9014854431152344,560.133056640625,1897.53662109375,2548.62548828125,2645.0146484375,-16999,4.071964263916016,0.7823808193206787,-0.7495969533920288,4968,-513
72149.97,0.0004313742683734745,-0.0006645128014497459,1.0,0.19168537855148315,0.030828790739178658,1.0209369659423828,37792.1015625,4.264677047729492,0.7373117804527283,0.0,1.1562767028808594,-0.27041423320770264,-5.678147315979004,1591.2764892578125,1893.55517578125,2914.587646484375,2645.074951171875,22909,4.071964263916016,0.7823808193206787,-0.7495969533920288,4029,-1571
72151.944,0.0004313742683734745,-0.0006645128014497459,1.0,0.1916283369064331,0.030802786350250244,1.0208574533462524,37792.1015625,4.264677047729492,0.7373117804527283,0.0,1.1562767028808594,-0.27041423320770264,-5.676648139953613,1763.107177734375,1890.068115234375,2657.45166015625,2645.141357421875,21470,4.071964263916016,0.7823808193206787,-0.7495969533920288,2973,-338
72154.039,0.0005519058904610574,-0.0008485913276672363,1.0,0.1916283369064331,0.030802786350250244,1.0208574533462524,37776.43359375,4.3072004318237305,0.7471855878829956,0.0,1.411417007446289,-0.21117138862609863,-5.675148963928223,1552.94775390625,1886.717041015625,2726.27197265625,2645.3046875,3441,4.071964263916016,0.7823808193206787,-0.7495969533920288,3379,-508
72155.908,0.0005519058904610574,-0.0008485913276672363,1.0,0.1916283369064331,0.030802786350250244,1.0208574533462524,37776.43359375,4.3072004318237305,0.7471855878829956,0.0,1.411417007446289,-0.21117138862609863,-5.673649787902832,1229.158447265625,1883.052734375,2731.3544921875,2645.55517578125,-20084,4.071964263916016,0.7823808193206787,-0.7495969533920288,2177,-1088
72157.884,0.0005519058904610574,-0.0008485913276672363,1.0,0.19168876111507416,0.030782319605350494,1.0208390951156616,37776.43359375,4.3072004318237305,0.7471855878829956,0.0,1.411417007446289,-0.21117138862609863,-5.672150611877441,1497.631591796875,1879.4898681640625,2723.22705078125,2645.8671875,-16036,4.071964263916016,0.7823808193206787,-0.7495969533920288,3360,-505
72159.86,0.0005519058904610574,-0.0008485913276672363,1.0,0.19168876111507416,0.030782319605350494,1.0208390951156616,37776.43359375,4.3072004318237305,0.7471855878829956,0.0,1.1125202178955078,-0.20034384727478027,-3.876394748687744,2302.6787109375,1877.08837890625,2886.7802734375,2646.447509765625,-16658,4.1217803955078125,0.780576229095459,-0.7595098614692688,2672,-413
72161.841,0.0005519058904610574,-0.0008485913276672363,1.0,0.1917976289987564,0.03068719245493412,1.0207881927490234,37776.43359375,4.3072004318237305,0.7471855878829956,0.0,1.1125202178955078,-0.20034384727478027,-5.6096343994140625,2402.200927734375,1875.7890625,2810.920166015625,2647.149658203125,772,4.1217803955078125,0.780576229095459,-0.7595098614692688,3966,-1865
72163.932,0.0006955693825148046,-0.001067357137799263,1.0,0.1917976289987564,0.03068719245493412,1.0207881927490234,37785.95703125,4.372940540313721,0.7633213996887207,0.0,1.5069608688354492,-0.10352897644042969,-5.608115196228027,1874.59375,1874.7060546875,2457.79541015625,2647.481689453125,-22096,4.1217803955078125,0.780576229095459,-0.7595098614692688,2970,-16
72165.797,0.0006955693825148046,-0.001067357137799263,1.0,0.1917976289987564,0.03068719245493412,1.0207881927490234,37785.95703125,4.372940540313721,0.7633213996887207,0.0,1.5069608688354492,-0.10352897644042969,-5.606595993041992,1284.58349609375,1873.0189208984375,2209.42626953125,2647.1748046875,-1624,4.1217803955078125,0.780576229095459,-0.7595098614692688,3665,105
72167.776,0.0006955693825148046,-0.001067357137799263,1.0,0.19168159365653992,0.030556634068489075,1.0206172466278076,37785.95703125,4.372940540313721,0.7633213996887207,0.0,1.5069608688354492,-0.10352897644042969,-5.605076789855957,1349.0146484375,1870.917236328125,2253.94580078125,2646.39599609375,-10418,4.1217803955078125,0.780576229095459,-0.7595098614692688,4456,-724
72169.76,0.0006955693825148046,-0.001067357137799263,1.0,0.19168159365653992,0.030556634068489075,1.0206172466278076,37785.95703125,4.372940540313721,0.7633213996887207,0.0,1.301854133605957,-0.0745689868927002,-4.489099502563477,1395.579345703125,1868.53515625,2402.230712890625,2645.42236328125,15085,4.1559648513793945,0.7757495641708374,-0.7656670212745667,4318,-334
72171.778,0.0006955693825148046,-0.001067357137799263,1.0,0.19168159365653992,0.030556634068489075,1.0206172466278076,37785.95703125,4.372940540313721,0.7633213996887207,0.0,1.301854133605957,-0.0745689868927002,-5.565070629119873,1699.43212890625,1866.3275146484375,2684.019287109375,2644.663818359375,9416,4.1559648513793945,0.7757495641708374,-0.7656670212745667,3753,-726
72173.824,0.0008651711978018284,-0.0013250402407720685,1.0,0.19178007543087006,0.030557287856936455,1.0206737518310547,37827.84375,4.268755912780762,0.7525009512901306,0.0,0.6767463684082031,-0.13949167728424072,-5.563539028167725,1552.4720458984375,1864.0723876953125,2872.62255859375,2644.3359375,48,4.1559648513793945,0.7757495641708374,-0.7656670212745667,3896,-914
72175.692,0.0008651711978018284,-0.0013250402407720685,1.0,0.19178007543087006,0.030557287856936455,1.0206737518310547,37827.84375,4.268755912780762,0.7525009512901306,0.0,0.6767463684082031,-0.13949167728424072,-5.562007427215576,2091.611328125,1862.4986572265625,2949.557373046875,2644.469482421875,-21634,4.1559648513793945,0.7757495641708374,-0.7656670212745667,3287,16
72177.677,0.0008651711978018284,-0.0013250402407720685,1.0,0.19178007543087006,0.030557287856936455,1.0206737518310547,37827.84375,4.268755912780762,0.7525009512901306,0.0,0.48167896270751953,-0.17029237747192383,-4.48773717880249,1756.358642578125,1861.047607421875,3022.22314453125,2645.083740234375,-13320,4.188476085662842,0.7808830142021179,-0.7715936899185181,3566,-634
72179.676,0.0008651711978018284,-0.0013250402407720685,1.0,0.19177839159965515,0.03047328256070614,1.0204267501831055,37827.84375,4.268755912780762,0.7525009512901306,0.0,0.48167896270751953,-0.17029237747192383,-5.5233612060546875,1833.89794921875,1859.803955078125,2645.1181640625,2645.5947265625,5972,4.188476085662842,0.7808830142021179,-0.7715936899185181,4395,966
72181.634,0.0008651711978018284,-0.0013250402407720685,1.0,0.19177839159965515,0.03047328256070614,1.0204267501831055,37827.84375,4.268755912780762,0.7525009512901306,0.0,0.48167896270751953,-0.17029237747192383,-5.521818161010742,1797.255126953125,1858.685546875,1765.99365234375,2644.84912109375,18907,4.188476085662842,0.7808830142021179,-0.7715936899185181,3566,-2750
72183.724,0.0010634304489940405,-0.001625424949452281,1.0,0.19177839159965515,0.03047328256070614,1.0204267501831055,37856.46875,4.3245391845703125,0.7687668204307556,0.0,0.8163785934448242,-0.07269716262817383,-5.520275115966797,1778.0838623046875,1857.6474609375,1634.004638671875,2642.88232421875,8968,4.188476085662842,0.7808830142021179,-0.7715936899185181,3285,-673
72185.587,0.0010634304489940405,-0.001625424949452281,1.0,0.19196701049804688,0.030467480421066284,1.0205121040344238,37856.46875,4.3245391845703125,0.7687668204307556,0.0,0.8163785934448242,-0.07269716262817383,-5.518732070922852,1160.8212890625,1855.855712890625,2543.141357421875,2641.11279296875,-10368,4.188476085662842,0.7808830142021179,-0.7715936899185181,4403,-1229
72187.566,0.0010634304489940405,-0.001625424949452281,1.0,0.19196701049804688,0.030467480421066284,1.0205121040344238,37856.46875,4.3245391845703125,0.7687668204307556,0.0,0.7023525238037109,-0.10225653648376465,-4.441849708557129,1032.2034912109375,1853.267822265625,3407.677734375,2640.66064453125,15652,4.207480430603027,0.7858095765113831,-0.7775347232818604,2287,-152
72189.545,0.0010634304489940405,-0.001625424949452281,1.0,0.19185949862003326,0.030408956110477448,1.0202659368515015,37856.46875,4.3245391845703125,0.7687668204307556,0.0,0.7023525238037109,-0.10225653648376465,-5.47997522354126,1280.5528564453125,1850.3514404296875,3306.261474609375,2641.1708984375,25201,4.207480430603027,0.7858095765113831,-0.7775347232818604,4049,-1235
72191.539,0.0010634304489940405,-0.001625424949452281,1.0,0.19185949862003326,0.030408956110477448,1.0202659368515015,37856.46875,4.3245391845703125,0.7687668204307556,0.0,0.7023525238037109,-0.10225653648376465,-5.478419780731201,1619.9173583984375,1847.61767578125,3129.170654296875,2642.245361328125,-21978,4.207480430603027,0.7858095765113831,-0.7775347232818604,3765,-2086
72193.61,0.0012930341763421893,-0.001972306752577424,1.0,0.19185949862003326,0.030408956110477448,1.0202659368515015,37830.8125,4.368203163146973,0.7855799198150635,0.0,0.9643363952636719,-0.0013779401779174805,-5.476864337921143,2412.48779296875,1846.0946044921875,3093.25634765625,2643.739990234375,24347,4.207480430603027,0.7858095765113831,-0.7775347232818604,5116,476
72195.483,0.0012930341763421893,-0.001972306752577424,1.0,0.19193723797798157,0.030371718108654022,1.0202745199203491,37830.8125,4.368203163146973,0.7855799198150635,0.0,0.9643363952636719,-0.0013779401779174805,-5.475308895111084,2624.948974609375,1845.8641357421875,3020.457275390625,2645.4853515625,21027,4.207480430603027,0.7858095765113831,-0.7775347232818604,3248,-715
72197.461,0.0012930341763421893,-0.001972306752577424,1.0,0.19193723797798157,0.030371718108654022,1.0202745199203491,37830.8125,4.368203163146973,0.7855799198150635,0.0,0.7904376983642578,0.0436931848526001,-4.9043121337890625,2256.30908203125,1846.218994140625,2605.371826171875,2646.884765625,20507,4.23646354675293,0.7782977223396301,-0.780680775642395,2865,-1511
72199.446,0.0012930341763421893,-0.001972306752577424,1.0,0.19193723797798157,0.030371718108654022,1.0202745199203491,37830.8125,4.368203163146973,0.7855799198150635,0.0,0.7904376983642578,0.0436931848526001,-5.453310012817383,1706.854736328125,1846.32861328125,2144.541015625,2647.38037109375,28879,4.23646354675293,0.7782977223396301,-0.780680775642395,3422,871
72201.419,0.0012930341763421893,-0.001972306752577424,1.0,0.1920250505208969,0.030305899679660797,1.0202571153640747,37830.8125,4.368203163146973,0.7855799198150635,0.0,0.7904376983642578,0.0436931848526001,-5.451748847961426,1280.97412109375,1845.6671142578125,2326.5107421875,2647.365478515625,-14724,4.23646354675293,0.7782977223396301,-0.780680775642395,4322,-890
72203.505,0.0015571850817650557,-0.0023704806808382273,1.0,0.1920250505208969,0.030305899679660797,1.0202571153640747,37822.4453125,4.404993057250977,0.8034136891365051,0.0,1.0111770629882812,0.15069580078125,-5.450187683105469,1633.28125,1844.833740234375,2376.05908203125,2646.991943359375,-4270,4.23646354675293,0.7782977223396301,-0.780680775642395,4444,-240
72205.384,0.0015571850817650557,-0.0023704806808382273,1.0,0.1920773983001709,0.030343739315867424,1.0201983451843262,37822.4453125,4.404993057250977,0.8034136891365051,0.0,1.0111770629882812,0.15069580078125,-5.448626518249512,2233.67236328125,1844.657958984375,2832.96240234375,2646.9287109375,-30372,4.23646354675293,0.7782977223396301,-0.780680775642395,4338,-1474
72207.359,0.0015571850817650557,-0.0023704806808382273,1.0,0.1920773983001709,0.030343739315867424,1.0201983451843262,37822.4453125,4.404993057250977,0.8034136891365051,0.0,0.940403938293457,0.17052912712097168,-5.151922702789307,2547.619873046875,1845.44775390625,3955.181640625,2648.6181640625,10590,4.2482590675354,0.7749921679496765,-0.7823113799095154,4542,-400
72209.333,0.0015571850817650557,-0.0023704806808382273,1.0,0.1920773983001709,0.030343739315867424,1.0201983451843262,37822.4453125,4.404993057250977,0.8034136891365051,0.0,0.940403938293457,0.17052912712097168,-5.435713291168213,2245.781005859375,1846.6380615234375,3816.744140625,2651.57958984375,13287,4.2482590675354,0.7749921679496765,-0.7823113799095154,3808,-1437
72211.313,0.0015571850817650557,-0.0023704806808382273,1.0,0.19218729436397552,0.03030138835310936,1.020136833190918,37822.4453125,4.404993057250977,0.8034136891365051,0.0,0.940403938293457,0.17052912712097168,-5.43414831161499,1802.4019775390625,1847.56982421875,2855.53173828125,2654.315673828125,16954,4.2482590675354,0.7749921679496765,-0.7823113799095154,5202,181
72213.4,0.0018587702652439475,-0.002823976567015052,1.0,0.19218729436397552,0.03030138835310936,1.020136833190918,37836.93359375,4.410983085632324,0.8196073174476624,0.0,0.976344108581543,0.26769089698791504,-5.432583332061768,1174.2596435546875,1847.44873046875,2216.908203125,2656.010498046875,3353,4.2482590675354,0.7749921679496765,-0.7823113799095154,4748,658
72215.271,0.0018587702652439475,-0.002823976567015052,1.0,0.19218729436397552,0.03030138835310936,1.020136833190918,37836.93359375,4.410983085632324,0.8196073174476624,0.0,0.976344108581543,0.26769089698791504,-5.431018352508545,849.5110473632812,1846.01904296875,1815.4373779296875,2656.301513671875,-28,4.2482590675354,0.7749921679496765,-0.7823113799095154,4408,32
72217.249,0.0018587702652439475,-0.002823976567015052,1.0,0.19216381013393402,0.03022152930498123,1.0198866128921509,37836.93359375,4.410983085632324,0.8196073174476624,0.0,0.976344108581543,0.26769089698791504,-5.429453372955322,1874.923583984375,1844.86767578125,2342.571533203125,2656.1259765625,-19196,4.2482590675354,0.7749921679496765,-0.7823113799095154,4529,-651
72219.228,0.0018587702652439475,-0.002823976567015052,1.0,0.19216381013393402,0.03022152930498123,1.0198866128921509,37836.93359375,4.410983085632324,0.8196073174476624,0.0,0.976344108581543,0.26769089698791504,-5.4278883934021,2567.959228515625,1844.872314453125,2798.515869140625,2656.16943359375,-32664,4.2482590675354,0.7749921679496765,-0.7823113799095154,2897,245
72221.213,0.0018587702652439475,-0.002823976567015052,1.0,0.19216381013393402,0.03022152930498123,1.0198866128921509,37836.93359375,4.410983085632324,0.8196073174476624,0.0,0.9757661819458008,0.3720252513885498,-6.00644588470459,2421.287109375,1845.643798828125,3257.8623046875,2657.0068359375,133,4.248355388641357,0.757603108882904,-0.7791063189506531,4129,-1883
72223.298,0.0022006812505424023,-0.003337306436151266,1.0,0.19247221946716309,0.03026558831334114,1.019968032836914,37897.11328125,4.304131984710693,0.8206686973571777,0.0,0.3346595764160156,0.3783935308456421,-5.444002151489258,2211.6630859375,1846.773193359375,3258.099609375,2658.50390625,-5659,4.248355388641357,0.757603108882904,-0.7791063189506531,3780,576
72225.17,0.0022006812505424023,-0.003337306436151266,1.0,0.19247221946716309,0.03026558831334114,1.019968032836914,37897.11328125,4.304131984710693,0.8206686973571777,0.0,0.3346595764160156,0.3783935308456421,-5.44244384765625,2165.20556640625,1848.136962890625,2717.765869140625,2659.828857421875,-20992,4.248355388641357,0.757603108882904,-0.7791063189506531,5168,-1334
72227.151,0.0022006812505424023,-0.003337306436151266,1.0,0.19247221946716309,0.03026558831334114,1.019968032836914,37897.11328125,4.304131984710693,0.8206686973571777,0.0,0.3346595764160156,0.3783935308456421,-5.440885543823242,1452.324462890625,1848.7451171875,2669.10009765625,2660.944091796875,23201,4.248355388641357,0.757603108882904,-0.7791063189506531,4473,1155
72229.128,0.0022006812505424023,-0.003337306436151266,1.0,0.19242790341377258,0.03023451939225197,1.0198614597320557,37897.11328125,4.304131984710693,0.8206686973571777,0.0,0.32563304901123047,0.40278589725494385,-4.739602565765381,2207.840576171875,1849.729248046875,2630.7412109375,2661.83154296875,15633,4.249859809875488,0.7535377144813538,-0.7829721570014954,4715,-588
72231.102,0.0022006812505424023,-0.003337306436151266,1.0,0.19242790341377258,0.03023451939225197,1.0198614597320557,37897.11328125,4.304131984710693,0.8206686973571777,0.0,0.32563304901123047,0.40278589725494385,-5.414558410644531,2659.88427734375,1851.6270751953125,2439.869873046875,2662.27490234375,30588,4.249859809875488,0.7535377144813538,-0.7829721570014954,3136,-809
72233.197,0.002586780348792672,-0.003914454951882362,1.0,0.19242790341377258,0.03023451939225197,1.0198614597320557,37947.20703125,4.343380451202393,0.8563657402992249,0.0,0.5611238479614258,0.6169681549072266,-5.412992477416992,2424.76708984375,1853.9697265625,2655.253662109375,2662.63427734375,-8394,4.249859809875488,0.7535377144813538,-0.7829721570014954,5161,154
72235.067,0.002586780348792672,-0.003914454951882362,1.0,0.1924884170293808,0.03018857352435589,1.0197820663452148,37947.20703125,4.343380451202393,0.8563657402992249,0.0,0.5611238479614258,0.6169681549072266,-5.411426544189453,1890.9884033203125,1855.9686279296875,2747.2802734375,2663.04638671875,16951,4.249859809875488,0.7535377144813538,-0.7829721570014954,3096,-877
72237.039,0.002586780348792672,-0.003914454951882362,1.0,0.1924884170293808,0.03018857352435589,1.0197820663452148,37947.20703125,4.343380451202393,0.8563657402992249,0.0,0.5169010162353516,0.6358920335769653,-5.29439115524292,1751.90673828125,1857.4935302734375,2460.45947265625,2663.119384765625,-7783,4.257230281829834,0.750383734703064,-0.7836101055145264,5311,-1044
72239.018,0.002586780348792672,-0.003914454951882362,1.0,0.19250375032424927,0.030192896723747253,1.0197539329528809,37947.20703125,4.343380451202393,0.8563657402992249,0.0,0.5879716873168945,0.6401124000549316,-4.653483867645264,2002.4727783203125,1858.95556640625,1935.8590087890625,2662.211669921875,14372,4.24538516998291,0.7496803402900696,-0.7877591252326965,3732,137
72240.998,0.002586780348792672,-0.003914454951882362,1.0,0.19250375032424927,0.030192896723747253,1.0197539329528809,37947.20703125,4.343380451202393,0.8563657402992249,0.0,0.5879716873168945,0.6401124000549316,-5.377986907958984,2454.58251953125,1860.9654541015625,2256.036376953125,2660.915283203125,-26813,4.24538516998291,0.7496803402900696,-0.7877591252326965,4374,556
72243.084,0.003020060248672962,-0.004560074303299189,1.0,0.19250375032424927,0.030192896723747253,1.0197539329528809,37920.890625,4.366198539733887,0.8936269283294678,0.0,0.7248802185058594,0.8636795282363892,-5.376411437988281,2925.47314453125,1864.0556640625,2903.91015625,2660.160400390625,-10437,4.24538516998291,0.7496803402900696,-0.7877591252326965,4525,-749
72244.954,0.003020060248672962,-0.004560074303299189,1.0,0.1925843507051468,0.030122898519039154,1.0197232961654663,37920.890625,4.366198539733887,0.8936269283294678,0.0,0.7248802185058594,0.8636795282363892,-5.374835968017578,2435.80517578125,1867.3885498046875,2767.3681640625,2659.674560546875,-7910,4.24538516998291,0.7496803402900696,-0.7877591252326965,3304,-1536
72246.933,0.003020060248672962,-0.004560074303299189,1.0,0.1925843507051468,0.030122898519039154,1.0197232961654663,37920.890625,4.366198539733887,0.8936269283294678,0.0,0.7248802185058594,0.8636795282363892,-5.373260498046875,1249.541259765625,1869.3397216796875,2308.931640625,2658.803466796875,3337,4.24538516998291,0.7496803402900696,-0.7877591252326965,4447,-1050
72248.916,0.003020060248672962,-0.004560074303299189,1.0,0.1925843507051468,0.030122898519039154,1.0197232961654663,37920.890625,4.366198539733887,0.8936269283294678,0.0,0.8263978958129883,0.7746838331222534,-4.786804676055908,1106.0931396484375,1869.9471435546875,1861.096435546875,2657.016357421875,3624,4.228465557098389,0.7645129561424255,-0.7909904718399048,4842,-657
72250.893,0.003020060248672962,-0.004560074303299189,1.0,0.19265520572662354,0.030107472091913223,1.0196638107299805,37920.890625,4.366198539733887,0.8936269283294678,0.0,0.8263978958129883,0.7746838331222534,-5.3507080078125,2251.66650390625,1870.9610595703125,1797.359619140625,2654.384033203125,27092,4.228465557098389,0.7645129561424255,-0.7909904718399048,4270,-5
72252.981,0.0035036548506468534,-0.00527880247682333,1.0,0.19265520572662354,0.030107472091913223,1.0196638107299805,37902.7109375,4.387355327606201,0.9324641227722168,0.0,0.953338623046875,1.0077069997787476,-5.349125862121582,2993.7060546875,1873.2998046875,2131.33642578125,2651.4970703125,2940,4.228465557098389,0.7645129561424255,-0.7909904718399048,4913,-1562
72254.86,0.0035036548506468534,-0.00527880247682333,1.0,0.19265520572662354,0.030107472091913223,1.0196638107299805,37902.7109375,4.387355327606201,0.9324641227722168,0.0,0.953338623046875,1.0077069997787476,-5.347543716430664,2507.662353515625,1876.0909423828125,2822.21875,2649.32177734375,-17946,4.228465557098389,0.7645129561424255,-0.7909904718399048,4140,-1178
72256.828,0.0035036548506468534,-0.00527880247682333,1.0,0.19266441464424133,0.029917579144239426,1.0193219184875488,37902.7109375,4.387355327606201,0.9324641227722168,0.0,0.953338623046875,1.0077069997787476,-5.345961570739746,1875.3468017578125,1878.41259765625,3292.75830078125,2648.368408203125,-753,4.228465557098389,0.7645129561424255,-0.7909904718399048,3966,-2227
72258.807,0.0035036548506468534,-0.00527880247682333,1.0,0.19266441464424133,0.029917579144239426,1.0193219184875488,37902.7109375,4.387355327606201,0.9324641227722168,0.0,1.0143013000488281,0.8155710697174072,-4.921112060546875,1352.6187744140625,1879.644775390625,2383.6318359375,2647.22216796875,-18292,4.2183051109313965,0.7965356111526489,-0.7933289408683777,4053,-352
72260.794,0.0035036548506468534,-0.00527880247682333,1.0,0.19285978376865387,0.02996916137635708,1.019588828086853,37902.7109375,4.387355327606201,0.9324641227722168,0.0,1.0143013000488281,0.8155710697174072,-5.328757286071777,1242.76904296875,1879.8221435546875,2103.435546875,2645.54443359375,27072,4.2183051109313965,0.7965356111526489,-0.7933289408683777,5058,-898
72262.874,0.004040952306240797,-0.006075168028473854,1.0,0.19285978376865387,0.02996916137635708,1.019588828086853,37957.19921875,4.389662265777588,0.9665547609329224,0.0,1.0281429290771484,1.0201148986816406,-5.327170372009277,2260.040283203125,1880.4759521484375,2696.3388671875,2644.2158203125,22998,4.2183051109313965,0.7965356111526489,-0.7933289408683777,3717,357
72264.744,0.004040952306240797,-0.006075168028473854,1.0,0.19285978376865387,0.02996916137635708,1.019588828086853,37957.19921875,4.389662265777588,0.9665547609329224,0.0,1.0281429290771484,1.0201148986816406,-5.325583457946777,3110.4453125,1882.657958984375,3440.904296875,2644.170654296875,-27975,4.2183051109313965,0.7965356111526489,-0.7933289408683777,3759,-623
72266.724,0.004040952306240797,-0.006075168028473854,1.0,0.19286565482616425,0.029914382845163345,1.0194653272628784,37957.19921875,4.389662265777588,0.9665547609329224,0.0,1.0281429290771484,1.0201148986816406,-5.323996543884277,2845.17529296875,1885.7554931640625,4027.949951171875,2645.975830078125,-29957,4.2183051109313965,0.7965356111526489,-0.7933289408683777,2471,-1047
72268.703,0.004040952306240797,-0.006075168028473854,1.0,0.19286565482616425,0.029914382845163345,1.0194653272628784,37957.19921875,4.389662265777588,0.9665547609329224,0.0,1.0651130676269531,0.9318755865097046,-4.200863361358643,2184.988525390625,1888.7318115234375,3339.33056640625,2648.4013671875,22828,4.212143421173096,0.8112421631813049,-0.799525260925293,4472,-1740
72270.686,0.004040952306240797,-0.006075168028473854,1.0,0.19286565482616425,0.029914382845163345,1.0194653272628784,37957.19921875,4.389662265777588,0.9665547609329224,0.0,1.0651130676269531,0.9318755865097046,-5.2836198806762695,1859.9532470703125,1891.1705322265625,2073.95361328125,2649.65478515625,-5623,4.212143421173096,0.8112421631813049,-0.799525260925293,3770,-1451
72272.766,0.004635425750166178,-0.006952653639018536,1.0,0.19293230772018433,0.029870713129639626,1.0194716453552246,38052.66796875,4.215236663818359,0.978291392326355,0.0,0.01855945587158203,1.0022953748703003,-5.282020568847656,1693.2142333984375,1892.9364013671875,2039.3519287109375,2649.8857421875,-13870,4.212143421173096,0.8112421631813049,-0.799525260925293,3989,-1071
72274.644,0.004635425750166178,-0.006952653639018536,1.0,0.19293230772018433,0.029870713129639626,1.0194716453552246,38052.66796875,4.215236663818359,0.978291392326355,0.0,0.01855945587158203,1.0022953748703003,-5.280421257019043,2741.733642578125,1895.5361328125,2969.879638671875,2650.503662109375,-4216,4.212143421173096,0.8112421631813049,-0.799525260925293,4553,724
72276.626,0.004635425750166178,-0.006952653639018536,1.0,0.19293230772018433,0.029870713129639626,1.0194716453552246,38052.66796875,4.215236663818359,0.978291392326355,0.0,0.01855945587158203,1.0022953748703003,-5.27882194519043,1776.22705078125,1897.5408935546875,2840.282958984375,2651.2705078125,13437,4.212143421173096,0.8112421631813049,-0.799525260925293,4573,-831
72278.599,0.004635425750166178,-0.006952653639018536,1.0,0.19313344359397888,0.029825350269675255,1.0192527770996094,38052.66796875,4.215236663818359,0.978291392326355,0.0,0.01855945587158203,1.0022953748703003,-5.277222633361816,92.2230224609375,1896.805419921875,1741.91162109375,2650.6982421875,4918,4.212143421173096,0.8112421631813049,-0.799525260925293,4240,-856
72280.579,0.004635425750166178,-0.006952653639018536,1.0,0.19313344359397888,0.029825350269675255,1.0192527770996094,38052.66796875,4.215236663818359,0.978291392326355,0.0,0.06264781951904297,1.0062425136566162,-4.482718467712402,-361.450927734375,1893.186279296875,1850.359619140625,2649.156005859375,-19210,4.2047953605651855,0.810584306716919,-0.8039059042930603,4368,-1667
72282.668,0.005291386507451534,-0.007918331772089005,1.0,0.19315965473651886,0.02977639064192772,1.0191950798034668,38049.9375,4.194136619567871,1.0221039056777954,0.0,-0.06395244598388672,1.2691175937652588,-5.24772310256958,594.782958984375,1888.445556640625,2571.88037109375,2647.769775390625,-19964,4.2047953605651855,0.810584306716919,-0.8039059042930603,3275,289
72284.555,0.005291386507451534,-0.007918331772089005,1.0,0.19315965473651886,0.02977639064192772,1.0191950798034668,38049.9375,4.194136619567871,1.0221039056777954,0.0,-0.06395244598388672,1.2691175937652588,-5.246115207672119,2468.961181640625,1885.2730712890625,2866.634765625,2646.9072265625,10749,4.2047953605651855,0.810584306716919,-0.8039059042930603,3516,-1474
72286.513,0.005291386507451534,-0.007918331772089005,1.0,0.19315965473651886,0.02977639064192772,1.0191950798034668,38049.9375,4.194136619567871,1.0221039056777954,0.0,-0.06395244598388672,1.2691175937652588,-5.244507312774658,3409.93310546875,1884.6630859375,3200.798583984375,2646.92724609375,7447,4.2047953605651855,0.810584306716919,-0.8039059042930603,3971,-820
72288.491,0.005291386507451534,-0.007918331772089005,1.0,0.1932668834924698,0.029734157025814056,1.019130825996399,38049.9375,4.194136619567871,1.0221039056777954,0.0,-0.06395244598388672,1.2691175937652588,-5.242899417877197,2837.85595703125,1885.4246826171875,3141.615234375,2647.6025390625,219,4.2047953605651855,0.810584306716919,-0.8039059042930603,3131,-1015
72290.471,0.005291386507451534,-0.007918331772089005,1.0,0.1932668834924698,0.029734157025814056,1.019130825996399,38049.9375,4.194136619567871,1.0221039056777954,0.0,-0.2531261444091797,1.1692135334014893,-4.520691394805908,1362.0833740234375,1885.3616943359375,2557.962646484375,2648.04541015625,-11085,4.236324310302734,0.8272349834442139,-0.807887077331543,2980,-430
72292.565,0.0060110148042440414,-0.00897451676428318,1.0,0.1932668834924698,0.029734157025814056,1.019130825996399,38051.53515625,4.200034141540527,1.075081467628479,0.0,-0.2177410125732422,1.4870789051055908,-5.215781211853027,401.9998779296875,1883.333984375,2287.590576171875,2647.933837890625,-23169,4.236324310302734,0.8272349834442139,-0.807887077331543,3119,-1158
72294.428,0.0060110148042440414,-0.00897451676428318,1.0,0.19314241409301758,0.029634177684783936,1.0190300941467285,38051.53515625,4.200034141540527,1.075081467628479,0.0,-0.2177410125732422,1.4870789051055908,-5.214165687561035,622.1290283203125,1879.9671630859375,2614.85986328125,2647.796875,-30583,4.236324310302734,0.8272349834442139,-0.807887077331543,3302,-277
72296.408,0.0060110148042440414,-0.00897451676428318,1.0,0.19314241409301758,0.029634177684783936,1.0190300941467285,38051.53515625,4.200034141540527,1.075081467628479,0.0,-0.2177410125732422,1.4870789051055908,-5.212550163269043,1974.097412109375,1877.2906494140625,3093.98486328125,2648.277099609375,17181,4.236324310302734,0.8272349834442139,-0.807887077331543,5468,-707
72298.391,0.0060110148042440414,-0.00897451676428318,1.0,0.19314241409301758,0.029634177684783936,1.0190300941467285,38051.53515625,4.200034141540527,1.075081467628479,0.0,-0.2177410125732422,1.4870789051055908,-5.210934638977051,2756.315185546875,1876.2335205078125,3323.6162109375,2649.575927734375,5010,4.236324310302734,0.8272349834442139,-0.807887077331543,4344,-1020
72300.365,0.0060110148042440414,-0.00897451676428318,1.0,0.19326530396938324,0.02970496006309986,1.0192006826400757,38051.53515625,4.200034141540527,1.075081467628479,0.0,-0.2177410125732422,1.4870789051055908,-5.209319114685059,1805.4906005859375,1875.2596435546875,3312.451171875,2651.53955078125,-12157,4.236324310302734,0.8272349834442139,-0.807887077331543,3388,-1811
72302.451,0.006797092035412788,-0.010125890374183655,1.0,0.19326530396938324,0.02970496006309986,1.0192006826400757,38028.4296875,4.22882604598999,1.1339505910873413,0.0,-0.13734912872314453,1.7767099142074585,-5.13135290145874,1161.7974853515625,1873.4991455078125,3367.86376953125,2654.127685546875,14888,4.251717567443848,0.8378322720527649,-0.8083088994026184,3979,481
72304.329,0.006797092035412788,-0.010125890374183655,1.0,0.19326530396938324,0.02970496006309986,1.0192006826400757,38028.4296875,4.22882604598999,1.1339505910873413,0.0,-0.13734912872314453,1.7767099142074585,-5.203555107116699,1677.389892578125,1871.7728271484375,2773.611083984375,2656.4404296875,9573,4.251717567443848,0.8378322720527649,-0.8083088994026184,3940,30
72306.303,0.006797092035412788,-0.010125890374183655,1.0,0.193308487534523,0.02966226078569889,1.0191078186035156,38028.4296875,4.22882604598999,1.1339505910873413,0.0,-0.13734912872314453,1.7767099142074585,-5.201938629150391,2302.7880859375,1870.91015625,2850.40869140625,2658.623779296875,31317,4.251717567443848,0.8378322720527649,-0.8083088994026184,2661,-163
72308.282,0.006797092035412788,-0.010125890374183655,1.0,0.193308487534523,0.02966226078569889,1.0191078186035156,38028.4296875,4.22882604598999,1.1339505910873413,0.0,-0.13734912872314453,1.7767099142074585,-5.200322151184082,1840.6339111328125,1870.15185546875,3253.7529296875,2661.23291015625,-21669,4.251717567443848,0.8378322720527649,-0.8083088994026184,3836,-737
72310.261,0.006797092035412788,-0.010125890374183655,1.0,0.19340291619300842,0.029556727036833763,1.0189898014068604,38028.4296875,4.22882604598999,1.1339505910873413,0.0,-0.20036602020263672,1.8100032806396484,-4.876645565032959,938.8375244140625,1868.2806396484375,3100.877197265625,2663.98974609375,-27559,4.26222038269043,0.8322833776473999,-0.8100882172584534,3001,288
72312.349,0.00765510369092226,-0.011378196068108082,1.0,0.19340291619300842,0.029556727036833763,1.0189898014068604,38078.37109375,4.245129585266113,1.1981501579284668,0.0,-0.10254478454589844,2.1952006816864014,-5.186405658721924,964.5738525390625,1865.5201416015625,2862.594970703125,2666.548828125,32170,4.26222038269043,0.8322833776473999,-0.8100882172584534,4206,-594
72314.218,0.00765510369092226,-0.011378196068108082,1.0,0.19340291619300842,0.029556727036833763,1.0189898014068604,38078.37109375,4.245129585266113,1.1981501579284668,0.0,-0.10254478454589844,2.1952006816864014,-5.18478536605835,1355.018310546875,1862.54296875,2217.042236328125,2668.07958984375,29796,4.26222038269043,0.8322833776473999,-0.8100882172584534,4155,612
72316.196,0.00765510369092226,-0.011378196068108082,1.0,0.19350090622901917,0.02954047918319702,1.0189679861068726,38078.37109375,4.245129585266113,1.1981501579284668,0.0,-0.10254478454589844,2.1952006816864014,-5.183165073394775,2185.330078125,1860.4951171875,2548.06396484375,2669.194091796875,-878,4.26222038269043,0.8322833776473999,-0.8100882172584534,4068,211
