timestamp,posCtl.targetX,posCtl.targetY,posCtl.targetZ,locSrv.x,locSrv.y,locSrv.z,controller.actuatorThrust,controller.pitch,controller.roll,controller.yaw,pid_attitude.pitch_output,pid_attitude.roll_output,pid_attitude.yaw_output,pid_rate.pitch_output,pid_rate.pitch_outI,pid_rate.roll_output,pid_rate.roll_outI,pid_rate.yaw_output,stateEstimate.pitch,stateEstimate.roll,stateEstimate.yaw,snn_control.torque_pitch,snn_control.torque_roll
101693.779,-7.128679726520204e-07,5.558118232329434e-08,1.0,0.20189659297466278,0.025142954662442207,1.0224640369415283,37639.390625,4.5764851570129395,0.48870301246643066,0.0,-0.9445095062255859,-0.06980717182159424,-11.689836502075195,2714.93701171875,1925.4395751953125,1983.3758544921875,1651.3887939453125,-17143,4.733903408050537,0.500337541103363,0.5070897340774536,3499,-299
101695.75,-7.128679726520204e-07,5.558118232329434e-08,1.0,0.20189659297466278,0.025142954662442207,1.0224640369415283,37639.390625,4.5764851570129395,0.48870301246643066,0.0,-0.9445095062255859,-0.06980717182159424,-14.895633697509766,2445.55908203125,1925.01806640625,1304.52880859375,1651.8885498046875,25308,4.733903408050537,0.500337541103363,0.5070897340774536,4282,420
101697.724,-7.128679726520204e-07,5.558118232329434e-08,1.0,0.20189659297466278,0.025142954662442207,1.0224640369415283,37639.390625,4.5764851570129395,0.48870301246643066,0.0,-0.9445095062255859,-0.06980717182159424,-14.896647453308105,2568.857421875,1925.5245361328125,1344.3406982421875,1651.894775390625,-8269,4.733903408050537,0.500337541103363,0.5070897340774536,3730,-808
101699.811,-6.497077151834674e-07,-4.957696475571538e-08,1.0,0.20181572437286377,0.02511574886739254,1.0223811864852905,37635.9453125,4.594476699829102,0.49336671829223633,0.0,-0.8365602493286133,-0.041824936866760254,-14.897661209106445,2567.671875,1926.8011474609375,1607.795166015625,1651.8414306640625,-20976,4.733903408050537,0.500337541103363,0.5070897340774536,5111,1118
101701.681,-6.497077151834674e-07,-4.957696475571538e-08,1.0,0.20181572437286377,0.02511574886739254,1.0223811864852905,37635.9453125,4.594476699829102,0.49336671829223633,0.0,-0.8365602493286133,-0.041824936866760254,-14.898674964904785,1654.155517578125,1927.5006103515625,1997.5565185546875,1652.25732421875,-24129,4.733903408050537,0.500337541103363,0.5070897340774536,4914,596
101703.663,-6.497077151834674e-07,-4.957696475571538e-08,1.0,0.20181572437286377,0.02511574886739254,1.0223811864852905,37635.9453125,4.594476699829102,0.49336671829223633,0.0,-0.8022222518920898,-0.018990933895111084,-11.458688735961914,847.817138671875,1926.6448974609375,2003.7584228515625,1653.0714111328125,-12252,4.728180408477783,0.4965318739414215,0.48807889223098755,4057,416
101705.64,-6.497077151834674e-07,-4.957696475571538e-08,1.0,0.2018592208623886,0.025102578103542328,1.022384524345398,37635.9453125,4.594476699829102,0.49336671829223633,0.0,-0.8022222518920898,-0.018990933895111084,-14.7865629196167,629.09423828125,1924.205078125,1569.5072021484375,1653.6376953125,-32560,4.728180408477783,0.4965318739414215,0.48807889223098755,5256,-337
101707.63,-6.497077151834674e-07,-4.957696475571538e-08,1.0,0.2018592208623886,0.025102578103542328,1.022384524345398,37635.9453125,4.594476699829102,0.49336671829223633,0.0,-0.8022222518920898,-0.018990933895111084,-14.7875394821167,1169.7279052734375,1921.1700439453125,1342.0001220703125,1653.6939697265625,-18978,4.728180408477783,0.4965318739414215,0.48807889223098755,3733,-772
101709.711,-3.01785291867418e-07,-6.260038389882538e-07,1.0,0.2018592208623886,0.025102578103542328,1.022384524345398,37631.96484375,4.603862762451172,0.4971117079257965,0.0,-0.745905876159668,0.00347900390625,-14.7885160446167,1604.6978759765625,1918.22265625,1405.5543212890625,1653.4102783203125,-18770,4.728180408477783,0.4965318739414215,0.48807889223098755,4179,-95
101711.576,-3.01785291867418e-07,-6.260038389882538e-07,1.0,0.20162054896354675,0.025163918733596802,1.0222727060317993,37631.96484375,4.603862762451172,0.4971117079257965,0.0,-0.745905876159668,0.00347900390625,-14.7894926071167,1841.666259765625,1915.6678466796875,1635.4410400390625,1653.150390625,-20704,4.728180408477783,0.4965318739414215,0.48807889223098755,3670,-293
101713.554,-3.01785291867418e-07,-6.260038389882538e-07,1.0,0.20162054896354675,0.025163918733596802,1.0222727060317993,37631.96484375,4.603862762451172,0.4971117079257965,0.0,-0.8780364990234375,0.01251232624053955,-11.835870742797852,2043.801025390625,1913.71240234375,1898.24169921875,1653.260498046875,-28540,4.750202178955078,0.4950263202190399,0.47175532579421997,4296,-861
101715.537,-3.01785291867418e-07,-6.260038389882538e-07,1.0,0.20154628157615662,0.02513158693909645,1.0223335027694702,37631.96484375,4.603862762451172,0.4971117079257965,0.0,-0.8780364990234375,0.01251232624053955,-14.693437576293945,2152.65234375,1912.403076171875,1738.2740478515625,1653.46533203125,-27833,4.750202178955078,0.4950263202190399,0.47175532579421997,3302,-277
101717.513,-3.01785291867418e-07,-6.260038389882538e-07,1.0,0.20154628157615662,0.02513158693909645,1.0223335027694702,37631.96484375,4.603862762451172,0.4971117079257965,0.0,-0.8780364990234375,0.01251232624053955,-14.694380760192871,1952.279296875,1911.3665771484375,1618.889404296875,1653.589599609375,10980,4.750202178955078,0.4950263202190399,0.47175532579421997,4495,-432
101719.609,7.387466212094296e-07,-2.344335143789067e-06,1.0,0.20154628157615662,0.02513158693909645,1.0223335027694702,37698.30078125,4.602913856506348,0.5026935338973999,0.0,-0.8837299346923828,0.04600328207015991,-14.695323944091797,2520.0751953125,1911.314453125,1903.802490234375,1654.0262451171875,12310,4.750202178955078,0.4950263202190399,0.47175532579421997,3178,501
101721.474,7.387466212094296e-07,-2.344335143789067e-06,1.0,0.20160825550556183,0.02515246905386448,1.0222444534301758,37698.30078125,4.602913856506348,0.5026935338973999,0.0,-0.8837299346923828,0.04600328207015991,-14.696267127990723,3523.4130859375,1913.4178466796875,2057.984130859375,1654.9276123046875,-6154,4.750202178955078,0.4950263202190399,0.47175532579421997,4052,-933
101723.456,7.387466212094296e-07,-2.344335143789067e-06,1.0,0.20160825550556183,0.02515246905386448,1.0222444534301758,37698.30078125,4.602913856506348,0.5026935338973999,0.0,-0.8837299346923828,0.04600328207015991,-14.697210311889648,3219.12353515625,1916.9068603515625,1980.365234375,1656.1109619140625,19033,4.750202178955078,0.4950263202190399,0.47175532579421997,4709,325
101725.429,7.387466212094296e-07,-2.344335143789067e-06,1.0,0.20160825550556183,0.02515246905386448,1.0222444534301758,37698.30078125,4.602913856506348,0.5026935338973999,0.0,-0.9292459487915039,0.0569157600402832,-10.74322509765625,2209.616455078125,1920.2001953125,2061.4130859375,1657.6356201171875,30262,4.757788181304932,0.49320757389068604,0.449905127286911,4387,-875
101727.409,7.387466212094296e-07,-2.344335143789067e-06,1.0,0.20143267512321472,0.02515934221446514,1.0222690105438232,37698.30078125,4.602913856506348,0.5026935338973999,0.0,-0.9292459487915039,0.0569157600402832,-14.567909240722656,1676.1884765625,1922.6160888671875,2181.718994140625,1659.6021728515625,29568,4.757788181304932,0.49320757389068604,0.449905127286911,4313,929
101729.498,3.055626166315051e-06,-6.157433290354675e-06,1.0,0.20143267512321472,0.02515934221446514,1.0222690105438232,37735.79296875,4.620977401733398,0.5115616917610168,0.0,-0.8208646774291992,0.11012470722198486,-14.568809509277344,2204.56884765625,1925.0020751953125,2133.292236328125,1661.86962890625,-7094,4.757788181304932,0.49320757389068604,0.449905127286911,4427,135
101731.371,3.055626166315051e-06,-6.157433290354675e-06,1.0,0.20143267512321472,0.02515934221446514,1.0222690105438232,37735.79296875,4.620977401733398,0.5115616917610168,0.0,-0.8208646774291992,0.11012470722198486,-14.569709777832031,2581.572998046875,1927.862060546875,2047.481689453125,1664.2701416015625,8300,4.757788181304932,0.49320757389068604,0.449905127286911,5738,639
101733.346,3.055626166315051e-06,-6.157433290354675e-06,1.0,0.20136471092700958,0.025182001292705536,1.0222117900848389,37735.79296875,4.620977401733398,0.5115616917610168,0.0,-0.5987462997436523,0.19478291273117065,-10.801751136779785,2610.6826171875,1931.1513671875,2218.04638671875,1667.0052490234375,-19338,4.720768451690674,0.4790978729724884,0.4290829300880432,5134,1052
101735.326,3.055626166315051e-06,-6.157433290354675e-06,1.0,0.20136471092700958,0.025182001292705536,1.0222117900848389,37735.79296875,4.620977401733398,0.5115616917610168,0.0,-0.5987462997436523,0.19478291273117065,-14.446493148803711,2158.327392578125,1934.19140625,1999.708251953125,1669.724609375,4354,4.720768451690674,0.4790978729724884,0.4290829300880432,3825,-854
101737.306,3.055626166315051e-06,-6.157433290354675e-06,1.0,0.20136471092700958,0.025182001292705536,1.0222117900848389,37735.79296875,4.620977401733398,0.5115616917610168,0.0,-0.5987462997436523,0.19478291273117065,-14.447351455688477,1635.0318603515625,1936.3228759765625,1506.6025390625,1671.7703857421875,6030,4.720768451690674,0.4790978729724884,0.4290829300880432,4452,-392
101739.384,7.412066679535201e-06,-1.3303885680215899e-05,1.0,0.20142066478729248,0.025156689807772636,1.0223002433776855,37792.65234375,4.482478618621826,0.5005587935447693,0.0,-1.429738998413086,0.1287655234336853,-14.448209762573242,1002.489013671875,1936.8533935546875,1014.570068359375,1672.5977783203125,-11166,4.720768451690674,0.4790978729724884,0.4290829300880432,6283,-465
101741.266,7.412066679535201e-06,-1.3303885680215899e-05,1.0,0.20142066478729248,0.025156689807772636,1.0223002433776855,37792.65234375,4.482478618621826,0.5005587935447693,0.0,-1.4774551391601562,0.13230711221694946,-14.206962585449219,1867.552978515625,1937.2025146484375,1044.13134765625,1672.4495849609375,16929,4.7287211418151855,0.4785076081752777,0.42774534225463867,4826,1031
101743.249,7.412066679535201e-06,-1.3303885680215899e-05,1.0,0.20109793543815613,0.02523454651236534,1.0221515893936157,37792.65234375,4.482478618621826,0.5005587935447693,0.0,-1.2910537719726562,0.2344897985458374,-11.119062423706055,1941.7823486328125,1937.499267578125,2065.18798828125,1672.84912109375,3687,4.6976542472839355,0.4614771604537964,0.40938735008239746,6135,1267
101745.221,7.412066679535201e-06,-1.3303885680215899e-05,1.0,0.20109793543815613,0.02523454651236534,1.0221515893936157,37792.65234375,4.482478618621826,0.5005587935447693,0.0,-1.2910537719726562,0.2344897985458374,-14.332530975341797,1896.3094482421875,1937.6912841796875,2325.36279296875,1674.050537109375,26597,4.6976542472839355,0.4614771604537964,0.40938735008239746,5386,481
101747.202,7.412066679535201e-06,-1.3303885680215899e-05,1.0,0.20109793543815613,0.02523454651236534,1.0221515893936157,37792.65234375,4.482478618621826,0.5005587935447693,0.0,-1.2910537719726562,0.2344897985458374,-14.333349227905273,1677.8839111328125,1937.5052490234375,2104.99755859375,1675.624267578125,-20288,4.6976542472839355,0.4614771604537964,0.40938735008239746,2717,-269
101749.279,1.4750014088349417e-05,-2.530286838009488e-05,1.0,0.20104776322841644,0.025180421769618988,1.0220762491226196,37844.2109375,4.490790843963623,0.5093095302581787,0.0,-1.241180419921875,0.28699421882629395,-14.334169387817383,934.3307495117188,1936.0146484375,1886.0345458984375,1677.214111328125,8430,4.6976542472839355,0.4614771604537964,0.40938735008239746,4680,-67
101751.162,1.4750014088349417e-05,-2.530286838009488e-05,1.0,0.20104776322841644,0.025180421769618988,1.0220762491226196,37844.2109375,4.490790843963623,0.5093095302581787,0.0,-1.2814979553222656,0.2864289879798889,-13.99686336517334,1076.087646484375,1933.6290283203125,1447.8765869140625,1678.2318115234375,-31490,4.704373836517334,0.4615713655948639,0.40751928091049194,4938,-174
101753.138,1.4750014088349417e-05,-2.530286838009488e-05,1.0,0.20104776322841644,0.025180421769618988,1.0220762491226196,37844.2109375,4.490790843963623,0.5093095302581787,0.0,-1.219862937927246,0.32167643308639526,-10.551534652709961,1068.657958984375,1930.491943359375,1284.536376953125,1678.5545654296875,-26368,4.694101333618164,0.45569679141044617,0.3866738975048065,3862,1354
101755.109,1.4750014088349417e-05,-2.530286838009488e-05,1.0,0.20109954476356506,0.025187937542796135,1.0220978260040283,37844.2109375,4.490790843963623,0.5093095302581787,0.0,-1.219862937927246,0.32167643308639526,-14.200250625610352,927.7276611328125,1926.5458984375,1181.59228515625,1678.161376953125,-31372,4.694101333618164,0.45569679141044617,0.3866738975048065,3114,156
101757.092,1.4750014088349417e-05,-2.530286838009488e-05,1.0,0.20109954476356506,0.025187937542796135,1.0220978260040283,37844.2109375,4.490790843963623,0.5093095302581787,0.0,-1.2590360641479492,0.3268235921859741,-13.959808349609375,1949.6875,1923.292724609375,1389.7828369140625,1677.4501953125,-28683,4.700630187988281,0.45483893156051636,0.38534122705459595,3551,-549
101759.174,2.6177143809036352e-05,-4.39203686255496e-05,1.0,0.20109954476356506,0.025187937542796135,1.0220978260040283,37845.43359375,4.48723030090332,0.5182963609695435,0.0,-1.2803993225097656,0.3807445764541626,-14.193796157836914,2852.486328125,1921.8226318359375,1681.1883544921875,1676.86328125,-16166,4.700630187988281,0.45483893156051636,0.38534122705459595,3879,241
101761.053,2.6177143809036352e-05,-4.39203686255496e-05,1.0,0.20109954476356506,0.025187937542796135,1.0220978260040283,37845.43359375,4.48723030090332,0.5182963609695435,0.0,-1.2803993225097656,0.3807445764541626,-14.19456672668457,2632.93701171875,1921.546142578125,1876.078125,1676.64013671875,21223,4.700630187988281,0.45483893156051636,0.38534122705459595,3409,287
101763.036,2.6177143809036352e-05,-4.39203686255496e-05,1.0,0.20086389780044556,0.02524559013545513,1.0219746828079224,37845.43359375,4.48723030090332,0.5182963609695435,0.0,-1.368910789489746,0.3407934308052063,-10.091374397277832,1619.4599609375,1920.9136962890625,1621.7978515625,1676.3814697265625,-9241,4.715382099151611,0.4614974558353424,0.36266764998435974,3892,-1616
101765.01,2.6177143809036352e-05,-4.39203686255496e-05,1.0,0.20077437162399292,0.02523837983608246,1.021896243095398,37845.43359375,4.48723030090332,0.5182963609695435,0.0,-1.368910789489746,0.3407934308052063,-14.059976577758789,1057.0546875,1919.2371826171875,1361.3829345703125,1675.7467041015625,-17952,4.715382099151611,0.4614974558353424,0.36266764998435974,4382,-323
101766.991,2.6177143809036352e-05,-4.39203686255496e-05,1.0,0.20077437162399292,0.02523837983608246,1.021896243095398,37845.43359375,4.48723030090332,0.5182963609695435,0.0,-1.368910789489746,0.3407934308052063,-14.060701370239258,1352.8826904296875,1917.087646484375,1281.7474365234375,1674.69384765625,-16453,4.715382099151611,0.4614974558353424,0.36266764998435974,3500,443
101769.07,4.296464612707496e-05,-7.117984932847321e-05,1.0,0.20077437162399292,0.02523837983608246,1.021896243095398,37811.43359375,4.504917621612549,0.5296443104743958,0.0,-1.262786865234375,0.40888112783432007,-14.06142807006836,2316.18798828125,1915.8302001953125,1457.6678466796875,1673.528564453125,8589,4.715382099151611,0.4614974558353424,0.36266764998435974,3874,-221
101770.943,4.296464612707496e-05,-7.117984932847321e-05,1.0,0.20083171129226685,0.025204738602042198,1.0218505859375,37811.43359375,4.504917621612549,0.5296443104743958,0.0,-1.262786865234375,0.40888112783432007,-14.062152862548828,2468.135986328125,1915.519287109375,1925.884033203125,1672.894775390625,4085,4.715382099151611,0.4614974558353424,0.36266764998435974,3549,-1556
101772.933,4.296464612707496e-05,-7.117984932847321e-05,1.0,0.20083171129226685,0.025204738602042198,1.0218505859375,37811.43359375,4.504917621612549,0.5296443104743958,0.0,-1.3263530731201172,0.3314899206161499,-9.431177139282227,1758.918212890625,1915.0518798828125,2252.04296875,1673.138671875,-12668,4.725976467132568,0.4743959903717041,0.33707842230796814,4282,420
101774.906,4.296464612707496e-05,-7.117984932847321e-05,1.0,0.20083171129226685,0.025204738602042198,1.0218505859375,37811.43359375,4.504917621612549,0.5296443104743958,0.0,-1.3263530731201172,0.3314899206161499,-13.909966468811035,830.6077880859375,1913.218994140625,1757.461669921875,1673.453857421875,-22580,4.725976467132568,0.4743959903717041,0.33707842230796814,4261,-885
101776.895,4.296464612707496e-05,-7.117984932847321e-05,1.0,0.20056180655956268,0.02528616040945053,1.0217424631118774,37811.43359375,4.504917621612549,0.5296443104743958,0.0,-1.3263530731201172,0.3314899206161499,-13.910640716552734,1265.2318115234375,1910.8306884765625,1348.362060546875,1673.283203125,27526,4.725976467132568,0.4743959903717041,0.33707842230796814,4344,-369
101778.967,6.655784818576649e-05,-0.00010933719022432342,1.0,0.20056180655956268,0.02528616040945053,1.0217424631118774,37819.9296875,4.451275825500488,0.5368698835372925,0.0,-1.6910133361816406,0.3775615096092224,-13.511452674865723,2395.372314453125,1909.4884033203125,1416.960205078125,1672.7999267578125,-10093,4.733111381530762,0.47394296526908875,0.33486926555633545,3836,-173
101780.842,6.655784818576649e-05,-0.00010933719022432342,1.0,0.20051491260528564,0.025311695411801338,1.0216931104660034,37819.9296875,4.451275825500488,0.5368698835372925,0.0,-1.6910133361816406,0.3775615096092224,-13.898724555969238,2789.80078125,1909.54345703125,1391.9932861328125,1672.02392578125,9288,4.733111381530762,0.47394296526908875,0.33486926555633545,3552,-1760
101782.821,6.655784818576649e-05,-0.00010933719022432342,1.0,0.20051491260528564,0.025311695411801338,1.0216931104660034,37819.9296875,4.451275825500488,0.5368698835372925,0.0,-1.762770652770996,0.38027340173721313,-13.439597129821777,1121.85009765625,1908.54052734375,1307.2393798828125,1670.8922119140625,15738,4.745070934295654,0.47349098324775696,0.3323289752006531,4080,-111
101784.795,6.655784818576649e-05,-0.00010933719022432342,1.0,0.20051491260528564,0.025311695411801338,1.0216931104660034,37819.9296875,4.451275825500488,0.5368698835372925,0.0,-1.7380542755126953,0.3301454186439514,-9.503519058227539,1238.655029296875,1906.813720703125,1036.7117919921875,1669.10595703125,-24168,4.7409515380859375,0.4818456470966339,0.3081232011318207,3078,-1365
101786.778,6.655784818576649e-05,-0.00010933719022432342,1.0,0.2003696709871292,0.025376316159963608,1.0214626789093018,37819.9296875,4.451275825500488,0.5368698835372925,0.0,-1.7380542755126953,0.3301454186439514,-13.740144729614258,2244.33740234375,1905.8260498046875,891.205322265625,1666.5836181640625,6180,4.7409515380859375,0.4818456470966339,0.3081232011318207,5228,-767
101788.865,9.857360419118777e-05,-0.0001609313621884212,1.0,0.2003696709871292,0.025376316159963608,1.0214626789093018,37803.00390625,4.397459030151367,0.543684184551239,0.0,-2.060955047607422,0.3710312247276306,-13.740760803222656,1782.975830078125,1904.840576171875,1815.3673095703125,1664.6826171875,29182,4.7409515380859375,0.4818456470966339,0.3081232011318207,2953,17
101790.736,9.857360419118777e-05,-0.0001609313621884212,1.0,0.2003696709871292,0.025376316159963608,1.0214626789093018,37803.00390625,4.397459030151367,0.543684184551239,0.0,-2.060955047607422,0.3710312247276306,-13.741376876831055,2252.408935546875,1904.483154296875,2339.912109375,1663.9996337890625,20428,4.7409515380859375,0.4818456470966339,0.3081232011318207,3583,-1650
101792.717,9.857360419118777e-05,-0.0001609313621884212,1.0,0.2003939151763916,0.025389190763235092,1.021724820137024,37803.00390625,4.397459030151367,0.543684184551239,0.0,-2.060955047607422,0.3710312247276306,-13.741992950439453,2065.6142578125,1904.400390625,1701.452880859375,1663.4810791015625,12494,4.7409515380859375,0.4818456470966339,0.3081232011318207,4720,-1460
101794.689,9.857360419118777e-05,-0.0001609313621884212,1.0,0.2003939151763916,0.025389190763235092,1.021724820137024,37803.00390625,4.397459030151367,0.543684184551239,0.0,-2.060955047607422,0.3710312247276306,-13.742609024047852,1374.1915283203125,1903.6253662109375,568.3966064453125,1661.5914306640625,92,4.7409515380859375,0.4818456470966339,0.3081232011318207,4324,-558
101796.668,9.857360419118777e-05,-0.0001609313621884212,1.0,0.2003939151763916,0.025389190763235092,1.021724820137024,37803.00390625,4.397459030151367,0.543684184551239,0.0,-2.058835029602051,0.25822556018829346,-9.33200454711914,1458.67529296875,1902.387939453125,374.181640625,1658.304443359375,-3820,4.740598201751709,0.5006465911865234,0.28375208377838135,3930,-1646
101798.755,0.00014066690346226096,-0.00022853750851936638,1.0,0.20029130578041077,0.025289665907621384,1.0214970111846924,37773.44921875,4.240330219268799,0.5394559502601624,0.0,-3.001607894897461,0.2328561544418335,-13.597517967224121,1255.610595703125,1900.4969482421875,1038.914306640625,1654.7442626953125,-29026,4.740598201751709,0.5006465911865234,0.28375208377838135,5426,-1502
101800.649,0.00014066690346226096,-0.00022853750851936638,1.0,0.20029130578041077,0.025289665907621384,1.0214970111846924,37773.44921875,4.240330219268799,0.5394559502601624,0.0,-3.051936149597168,0.23587632179260254,-13.11092758178711,2225.1552734375,1899.3555908203125,1421.134765625,1651.4703369140625,25568,4.74898624420166,0.5001432299613953,0.2810606360435486,5045,553
101802.611,0.00014066690346226096,-0.00022853750851936638,1.0,0.20029130578041077,0.025289665907621384,1.0214970111846924,37773.44921875,4.240330219268799,0.5394559502601624,0.0,-3.051936149597168,0.23587632179260254,-13.58249282836914,1830.7579345703125,1898.314208984375,2000.35009765625,1649.210205078125,-756,4.74898624420166,0.5001432299613953,0.2810606360435486,4157,-1717
101804.588,0.00014066690346226096,-0.00022853750851936638,1.0,0.20022247731685638,0.025414898991584778,1.0215365886688232,37773.44921875,4.240330219268799,0.5394559502601624,0.0,-3.051936149597168,0.23587632179260254,-13.583054542541504,1403.960693359375,1896.7894287109375,1881.528564453125,1647.638671875,1085,4.74898624420166,0.5001432299613953,0.2810606360435486,4489,-1210
101806.565,0.00014066690346226096,-0.00022853750851936638,1.0,0.20022247731685638,0.025414898991584778,1.0215365886688232,37773.44921875,4.240330219268799,0.5394559502601624,0.0,-3.003925323486328,0.05722653865814209,-8.768779754638672,1378.891357421875,1894.830810546875,983.0496826171875,1645.44580078125,-5863,4.7409844398498535,0.5299181938171387,0.2544596195220947,3557,-1078
101808.656,0.00019489524129312485,-0.0003152624412905425,1.0,0.20016808807849884,0.02538634091615677,1.0216341018676758,37762.859375,4.23734712600708,0.5539572238922119,0.0,-3.0218238830566406,0.14423418045043945,-13.424467086791992,2047.02685546875,1893.403564453125,1334.9664306640625,1643.2073974609375,-27216,4.7409844398498535,0.5299181938171387,0.2544596195220947,3401,-1097
101810.521,0.00019489524129312485,-0.0003152624412905425,1.0,0.20016808807849884,0.02538634091615677,1.0216341018676758,37762.859375,4.23734712600708,0.5539572238922119,0.0,-3.0218238830566406,0.14423418045043945,-13.424976348876953,2712.638671875,1893.3065185546875,1876.6800537109375,1641.655517578125,29979,4.7409844398498535,0.5299181938171387,0.2544596195220947,3643,470
101812.502,0.00019489524129312485,-0.0003152624412905425,1.0,0.20016808807849884,0.02538634091615677,1.0216341018676758,37762.859375,4.23734712600708,0.5539572238922119,0.0,-3.094759941101074,0.15398383140563965,-12.905945777893066,2081.94384765625,1893.4769287109375,1525.1141357421875,1640.2088623046875,22824,4.753140449523926,0.528293251991272,0.25158926844596863,4155,-2297
101814.481,0.00019489524129312485,-0.0003152624412905425,1.0,0.20010048151016235,0.025370735675096512,1.021600604057312,37762.859375,4.23734712600708,0.5539572238922119,0.0,-2.980433464050293,0.020393013954162598,-9.75966739654541,1153.9599609375,1892.6341552734375,438.1405029296875,1637.4041748046875,18781,4.734086036682129,0.5505583882331848,0.23142875730991364,4366,-632
101816.46,0.00019489524129312485,-0.0003152624412905425,1.0,0.20010048151016235,0.025370735675096512,1.021600604057312,37762.859375,4.23734712600708,0.5539572238922119,0.0,-3.0428638458251953,0.032859206199645996,-12.745932579040527,1367.34130859375,1891.233154296875,511.294677734375,1633.5706787109375,28591,4.744491100311279,0.5484806895256042,0.22843272984027863,3540,-84
101818.568,0.00026326990337111056,-0.0004242445866111666,1.0,0.20010048151016235,0.025370735675096512,1.021600604057312,37777.234375,4.2221856117248535,0.5702035427093506,0.0,-3.1338329315185547,0.13033711910247803,-13.270694732666016,2559.80029296875,1890.9576416015625,1006.4747924804688,1629.5452880859375,13521,4.744491100311279,0.5484806895256042,0.22843272984027863,4085,-573
101820.416,0.00026326990337111056,-0.0004242445866111666,1.0,0.20006121695041656,0.025366682559251785,1.0215007066726685,37777.234375,4.2221856117248535,0.5702035427093506,0.0,-3.1338329315185547,0.13033711910247803,-13.271150588989258,3171.437255859375,1892.4332275390625,1285.4482421875,1625.737060546875,-19692,4.744491100311279,0.5484806895256042,0.22843272984027863,4025,-1703
101822.396,0.00026326990337111056,-0.0004242445866111666,1.0,0.20006121695041656,0.025366682559251785,1.0215007066726685,37777.234375,4.2221856117248535,0.5702035427093506,0.0,-3.2115068435668945,0.13915979862213135,-12.772335052490234,2604.68212890625,1894.60986328125,1870.496826171875,1622.8936767578125,-21561,4.757436752319336,0.5470102429389954,0.2256743460893631,3880,-1704
101824.375,0.00026326990337111056,-0.0004242445866111666,1.0,0.20006121695041656,0.025366682559251785,1.0215007066726685,37777.234375,4.2221856117248535,0.5702035427093506,0.0,-3.030449867248535,-0.07212460041046143,-9.897310256958008,1966.983154296875,1896.5174560546875,1903.75244140625,1620.9013671875,-21246,4.727260589599609,0.5822243094444275,0.20712099969387054,3625,-631
101826.356,0.00026326990337111056,-0.0004242445866111666,1.0,0.19990798830986023,0.025377962738275528,1.0214325189590454,37777.234375,4.2221856117248535,0.5702035427093506,0.0,-3.030449867248535,-0.07212460041046143,-13.144559860229492,1631.66748046875,1897.7525634765625,1842.23974609375,1619.5379638671875,-31400,4.727260589599609,0.5822243094444275,0.20712099969387054,4827,88
101828.46,0.0003477230202406645,-0.0005583894671872258,1.0,0.19990798830986023,0.025377962738275528,1.0214325189590454,37739.87109375,4.197730541229248,0.5848641395568848,0.0,-3.2357282638549805,0.026300668716430664,-12.585683822631836,2323.8330078125,1899.34765625,1693.96435546875,1618.50244140625,23530,4.737018585205078,0.580480694770813,0.20403103530406952,4322,459
101830.315,0.0003477230202406645,-0.0005583894671872258,1.0,0.19990798830986023,0.025377962738275528,1.0214325189590454,37739.87109375,4.197730541229248,0.5848641395568848,0.0,-3.2357282638549805,0.026300668716430664,-13.126835823059082,2634.254150390625,1901.65380859375,1312.433349609375,1617.233154296875,27496,4.737018585205078,0.580480694770813,0.20403103530406952,4114,-647
101832.294,0.0003477230202406645,-0.0005583894671872258,1.0,0.19987396895885468,0.025275470688939095,1.0214046239852905,37739.87109375,4.197730541229248,0.5848641395568848,0.0,-3.2357282638549805,0.026300668716430664,-13.127243995666504,1689.11181640625,1903.2899169921875,841.4849853515625,1615.1439208984375,-27088,4.737018585205078,0.580480694770813,0.20403103530406952,4180,537
101834.275,0.0003477230202406645,-0.0005583894671872258,1.0,0.19987396895885468,0.025275470688939095,1.0214046239852905,37739.87109375,4.197730541229248,0.5848641395568848,0.0,-2.9584951400756836,-0.09076237678527832,-9.239809036254883,2223.235107421875,1905.07763671875,1039.34716796875,1612.6383056640625,32224,4.690813064575195,0.5999912023544312,0.18255147337913513,4006,-527
101836.252,0.0003477230202406645,-0.0005583894671872258,1.0,0.19985005259513855,0.02526816911995411,1.0213203430175781,37739.87109375,4.197730541229248,0.5848641395568848,0.0,-2.9584951400756836,-0.09076237678527832,-12.99909782409668,2562.09326171875,1907.440185546875,1468.4549560546875,1610.3612060546875,-29288,4.690813064575195,0.5999912023544312,0.18255147337913513,4796,-490
101838.347,0.00045070055057294667,-0.0007213752251118422,1.0,0.19985005259513855,0.02526816911995411,1.0213203430175781,37740.1640625,4.1494317054748535,0.5933119654655457,0.0,-3.2989654541015625,-0.03150522708892822,-12.560840606689453,2316.91357421875,1909.9515380859375,1903.175537109375,1608.8560791015625,-4764,4.699259281158447,0.5985628366470337,0.18012817203998566,4904,-875
101840.207,0.00045070055057294667,-0.0007213752251118422,1.0,0.19985005259513855,0.02526816911995411,1.0213203430175781,37740.1640625,4.1494317054748535,0.5933119654655457,0.0,-3.2989654541015625,-0.03150522708892822,-12.985279083251953,2626.831787109375,1912.9962158203125,2529.92041015625,1608.829833984375,-18161,4.699259281158447,0.5985628366470337,0.18012817203998566,3447,-1076
101842.19,0.00045070055057294667,-0.0007213752251118422,1.0,0.1996300369501114,0.025326525792479515,1.0213611125946045,37740.1640625,4.1494317054748535,0.5933119654655457,0.0,-3.2989654541015625,-0.03150522708892822,-12.985639572143555,2629.38037109375,1916.48388671875,2087.87158203125,1609.4459228515625,31089,4.699259281158447,0.5985628366470337,0.18012817203998566,4231,-30
101844.165,0.00045070055057294667,-0.0007213752251118422,1.0,0.1996300369501114,0.025326525792479515,1.0213611125946045,37740.1640625,4.1494317054748535,0.5933119654655457,0.0,-3.349760055541992,-0.027382850646972656,-12.559764862060547,1482.9881591796875,1918.8092041015625,1175.8233642578125,1609.3812255859375,-23,4.7077250480651855,0.5978757739067078,0.17777331173419952,4805,-157
101846.143,0.00045070055057294667,-0.0007213752251118422,1.0,0.1996300369501114,0.025326525792479515,1.0213611125946045,37740.1640625,4.1494317054748535,0.5933119654655457,0.0,-2.9679079055786133,-0.10936295986175537,-9.114469528198242,1419.6483154296875,1920.0797119140625,1421.03369140625,1609.07666015625,-26822,4.644083023071289,0.6115391254425049,0.1564600020647049,5442,-1159
101848.234,0.0005746302776969969,-0.0009168148972094059,1.0,0.19960062205791473,0.025259755551815033,1.021287202835083,37789.828125,3.9435677528381348,0.5823889970779419,0.0,-4.203091621398926,-0.17490077018737793,-12.844611167907715,592.55517578125,1919.3695068359375,2066.66650390625,1609.4324951171875,-26184,4.644083023071289,0.6115391254425049,0.1564600020647049,4569,762
101850.133,0.0005746302776969969,-0.0009168148972094059,1.0,0.19960062205791473,0.025259755551815033,1.021287202835083,37789.828125,3.9435677528381348,0.5823889970779419,0.0,-4.237532615661621,-0.16750788688659668,-12.426060676574707,1154.582275390625,1917.760009765625,1873.323974609375,1610.0799560546875,3681,4.649823188781738,0.610306978225708,0.15414586663246155,5572,-473
101852.081,0.0005746302776969969,-0.0009168148972094059,1.0,0.19960062205791473,0.025259755551815033,1.021287202835083,37789.828125,3.9435677528381348,0.5823889970779419,0.0,-4.237532615661621,-0.16750788688659668,-12.831342697143555,1000.8831787109375,1915.1995849609375,1552.32275390625,1610.5419921875,-4229,4.649823188781738,0.610306978225708,0.15414586663246155,3148,-820
101854.07,0.0005746302776969969,-0.0009168148972094059,1.0,0.1995629072189331,0.0252529364079237,1.0212807655334473,37789.828125,3.9435677528381348,0.5823889970779419,0.0,-4.237532615661621,-0.16750788688659668,-12.831650733947754,1058.230712890625,1911.9278564453125,1765.2578125,1611.13232421875,-11310,4.649823188781738,0.610306978225708,0.15414586663246155,3003,-752
101856.041,0.0005746302776969969,-0.0009168148972094059,1.0,0.1995629072189331,0.0252529364079237,1.0212807655334473,37789.828125,3.9435677528381348,0.5823889970779419,0.0,-4.038714408874512,-0.1542520523071289,-9.308706283569336,1293.7928466796875,1908.3818359375,1901.193603515625,1612.010009765625,-10220,4.616686820983887,0.6080976724624634,0.1346805989742279,4213,-473
101858.131,0.0007221479318104684,-0.001148683950304985,1.0,0.1995629072189331,0.0252529364079237,1.0212807655334473,37750.98828125,3.9590892791748047,0.5993005037307739,0.0,-3.945585250854492,-0.05278301239013672,-12.715396881103516,1812.676025390625,1905.3033447265625,1869.7430419921875,1613.0836181640625,-13508,4.616686820983887,0.6080976724624634,0.1346805989742279,4598,-71
101859.998,0.0007221479318104684,-0.001148683950304985,1.0,0.19934915006160736,0.02532593533396721,1.0213994979858398,37750.98828125,3.9590892791748047,0.5993005037307739,0.0,-3.945585250854492,-0.05278301239013672,-12.715665817260742,2089.112060546875,1902.986083984375,1699.649658203125,1614.0924072265625,28449,4.616686820983887,0.6080976724624634,0.1346805989742279,3254,325
101861.984,0.0007221479318104684,-0.001148683950304985,1.0,0.19934915006160736,0.02532593533396721,1.0213994979858398,37750.98828125,3.9590892791748047,0.5993005037307739,0.0,-3.945585250854492,-0.05278301239013672,-12.715934753417969,1323.0516357421875,1900.285400390625,1658.288818359375,1614.99072265625,23914,4.616686820983887,0.6080976724624634,0.1346805989742279,4095,-1150
101863.958,0.0007221479318104684,-0.001148683950304985,1.0,0.19938883185386658,0.025274965912103653,1.0212079286575317,37750.98828125,3.9590892791748047,0.5993005037307739,0.0,-3.945585250854492,-0.05278301239013672,-12.716203689575195,1022.9254150390625,1896.8695068359375,1347.6611328125,1615.38232421875,-12654,4.616686820983887,0.6080976724624634,0.1346805989742279,3759,707
101865.934,0.0007221479318104684,-0.001148683950304985,1.0,0.19938883185386658,0.025274965912103653,1.0212079286575317,37750.98828125,3.9590892791748047,0.5993005037307739,0.0,-3.883838653564453,-0.0011154413223266602,-10.00443172454834,1452.0467529296875,1893.4345703125,1180.83349609375,1615.129638671875,-1376,4.606395721435547,0.5994864106178284,0.11969710886478424,4136,19
101868.018,0.0008955426746979356,-0.0014206133782863617,1.0,0.19938883185386658,0.025274965912103653,1.0212079286575317,37727.015625,3.9743223190307617,0.6166872978210449,0.0,-3.792440414428711,0.10320532321929932,-12.626781463623047,1520.2972412109375,1890.078857421875,1716.1658935546875,1615.0538330078125,17850,4.606395721435547,0.5994864106178284,0.11969710886478424,4493,946
101869.906,0.0008955426746979356,-0.0014206133782863617,1.0,0.19931355118751526,0.02523234114050865,1.0213598012924194,37727.015625,3.9743223190307617,0.6166872978210449,0.0,-3.792440414428711,0.10320532321929932,-12.627020835876465,2019.3914794921875,1887.45849609375,1592.895751953125,1614.9613037109375,-18326,4.606395721435547,0.5994864106178284,0.11969710886478424,4299,82
101871.996,0.0008955426746979356,-0.0014206133782863617,1.0,0.19931355118751526,0.02523234114050865,1.0213598012924194,37727.015625,3.9743223190307617,0.6166872978210449,0.0,-3.792440414428711,0.10320532321929932,-12.627260208129883,2424.03662109375,1885.9921875,1285.051513671875,1614.4449462890625,11918,4.606395721435547,0.5994864106178284,0.11969710886478424,2986,-1228
101873.853,0.0008955426746979356,-0.0014206133782863617,1.0,0.19931355118751526,0.02523234114050865,1.0213598012924194,37727.015625,3.9743223190307617,0.6166872978210449,0.0,-3.792440414428711,0.10320532321929932,-12.6274995803833,1982.877197265625,1884.90087890625,1990.150390625,1614.5155029296875,16083,4.606395721435547,0.5994864106178284,0.11969710886478424,3159,48
101875.834,0.0008955426746979356,-0.0014206133782863617,1.0,0.19922667741775513,0.02526813931763172,1.0213156938552856,37727.015625,3.9743223190307617,0.6166872978210449,0.0,-3.726222038269043,0.08193612098693848,-9.347917556762695,2319.32080078125,1884.5711669921875,2743.23681640625,1616.0771484375,-2950,4.5953593254089355,0.6030312776565552,0.10157674551010132,3702,193
101877.92,0.0010982091771438718,-0.001737189944833517,1.0,0.19922667741775513,0.02526813931763172,1.0213156938552856,37714.5234375,3.9888644218444824,0.6349316239356995,0.0,-3.6389694213867188,0.19140207767486572,-12.519184112548828,2436.4462890625,1885.03173828125,2361.057373046875,1618.368896484375,-14162,4.5953593254089355,0.6030312776565552,0.10157674551010132,2392,-751
101879.793,0.0010982091771438718,-0.001737189944833517,1.0,0.19922667741775513,0.02526813931763172,1.0213156938552856,37714.5234375,3.9888644218444824,0.6349316239356995,0.0,-3.6389694213867188,0.19140207767486572,-12.519387245178223,1434.6309814453125,1884.815185546875,1231.752685546875,1619.76123046875,30513,4.5953593254089355,0.6030312776565552,0.10157674551010132,4626,-720
101881.766,0.0010982091771438718,-0.001737189944833517,1.0,0.19912946224212646,0.025302743539214134,1.021130084991455,37714.5234375,3.9888644218444824,0.6349316239356995,0.0,-3.6389694213867188,0.19140207767486572,-12.519590377807617,1024.5047607421875,1883.489501953125,1193.919677734375,1620.35302734375,3686,4.5953593254089355,0.6030312776565552,0.10157674551010132,4814,-276
101883.748,0.0010982091771438718,-0.001737189944833517,1.0,0.19912946224212646,0.025302743539214134,1.021130084991455,37714.5234375,3.9888644218444824,0.6349316239356995,0.0,-3.6389694213867188,0.19140207767486572,-12.519793510437012,1528.177490234375,1881.9130859375,1551.3787841796875,1620.753662109375,-32754,4.5953593254089355,0.6030312776565552,0.10157674551010132,3892,1504
101885.735,0.0010982091771438718,-0.001737189944833517,1.0,0.19912946224212646,0.025302743539214134,1.021130084991455,37714.5234375,3.9888644218444824,0.6349316239356995,0.0,-3.448568344116211,0.2472066879272461,-9.619722366333008,1866.85009765625,1880.5810546875,1891.494384765625,1621.447509765625,2456,4.563625812530518,0.5937305092811584,0.08555331081151962,3648,-648
101887.81,0.0013322639279067516,-0.0021016511600464582,1.0,0.1990172266960144,0.02525262162089348,1.0209052562713623,37716.37109375,4.007358074188232,0.6555854082107544,0.0,-3.3015975952148438,0.37505578994750977,-12.342658996582031,1761.9793701171875,1879.3145751953125,2689.0,1623.446533203125,31920,4.557624340057373,0.5930761098861694,0.08510395139455795,4171,-344
101889.682,0.0013322639279067516,-0.0021016511600464582,1.0,0.1990172266960144,0.02525262162089348,1.0209052562713623,37716.37109375,4.007358074188232,0.6555854082107544,0.0,-3.3015975952148438,0.37505578994750977,-12.421466827392578,1875.3770751953125,1878.25537109375,2660.166015625,1626.4906005859375,22189,4.557624340057373,0.5930761098861694,0.08510395139455795,2872,-681
101891.752,0.0013322639279067516,-0.0021016511600464582,1.0,0.19904685020446777,0.02527482435107231,1.020931363105774,37716.37109375,4.007358074188232,0.6555854082107544,0.0,-3.3015975952148438,0.37505578994750977,-12.421636581420898,2371.3720703125,1878.0303955078125,2135.405029296875,1629.70166015625,5498,4.557624340057373,0.5930761098861694,0.08510395139455795,4049,-1724
101893.638,0.0013322639279067516,-0.0021016511600464582,1.0,0.19904685020446777,0.02527482435107231,1.020931363105774,37716.37109375,4.007358074188232,0.6555854082107544,0.0,-3.3015975952148438,0.37505578994750977,-12.421806335449219,3378.69384765625,1879.8414306640625,1723.7626953125,1632.4991455078125,8790,4.557624340057373,0.5930761098861694,0.08510395139455795,4858,1028
101895.62,0.0013322639279067516,-0.0021016511600464582,1.0,0.19904685020446777,0.02527482435107231,1.020931363105774,37716.37109375,4.007358074188232,0.6555854082107544,0.0,-3.19661808013916,0.4795818328857422,-8.809894561767578,3056.9892578125,1882.9161376953125,1475.778076171875,1634.6185302734375,-22716,4.540127754211426,0.5756551027297974,0.06514791399240494,3707,-584
101897.719,0.0016015813453122973,-0.002519244560971856,1.0,0.19891661405563354,0.02529502660036087,1.0210239887237549,37760.42578125,3.8365912437438965,0.6606400609016418,0.0,-4.221219062805176,0.5099097490310669,-12.30233097076416,612.8704833984375,1883.78369140625,1603.128173828125,1636.3404541015625,12936,4.540127754211426,0.5756551027297974,0.06514791399240494,5412,69
101899.576,0.0016015813453122973,-0.002519244560971856,1.0,0.19891661405563354,0.02529502660036087,1.0210239887237549,37760.42578125,3.8365912437438965,0.6606400609016418,0.0,-4.221219062805176,0.5099097490310669,-12.302461624145508,1328.758056640625,1883.7667236328125,2039.31884765625,1638.31005859375,480,4.540127754211426,0.5756551027297974,0.06514791399240494,4393,307
101901.563,0.0016015813453122973,-0.002519244560971856,1.0,0.19891661405563354,0.02529502660036087,1.0210239887237549,37760.42578125,3.8365912437438965,0.6606400609016418,0.0,-4.221219062805176,0.5099097490310669,-12.302592277526855,1991.192138671875,1883.8956298828125,2108.0390625,1640.57470703125,32765,4.540127754211426,0.5756551027297974,0.06514791399240494,4210,-1434
101903.533,0.0016015813453122973,-0.002519244560971856,1.0,0.19879132509231567,0.025216666981577873,1.0208290815353394,37760.42578125,3.8365912437438965,0.6606400609016418,0.0,-4.221219062805176,0.5099097490310669,-12.302722930908203,1789.025390625,1883.8765869140625,2107.30517578125,1643.080810546875,17004,4.540127754211426,0.5756551027297974,0.06514791399240494,3841,78
101905.513,0.0016015813453122973,-0.002519244560971856,1.0,0.19879132509231567,0.025216666981577873,1.0208290815353394,37760.42578125,3.8365912437438965,0.6606400609016418,0.0,-3.8953428268432617,0.6132287979125977,-9.160655975341797,1819.0123291015625,1883.7744140625,2473.12890625,1646.2718505859375,2199,4.485815048217773,0.5584352612495422,0.047787901014089584,4603,597
101907.606,0.0019083942752331495,-0.0029935375787317753,1.0,0.19879132509231567,0.025216666981577873,1.0208290815353394,37803.734375,3.819403648376465,0.6829626560211182,0.0,-3.9984683990478516,0.7471643686294556,-12.198753356933594,1328.8382568359375,1882.950439453125,2047.296630859375,1649.46142578125,-28082,4.485815048217773,0.5584352612495422,0.047787901014089584,4018,484
101909.474,0.0019083942752331495,-0.0029935375787317753,1.0,0.19879601895809174,0.025256488472223282,1.0209392309188843,37803.734375,3.819403648376465,0.6829626560211182,0.0,-3.9984683990478516,0.7471643686294556,-12.198848724365234,1100.400390625,1881.2227783203125,1487.1492919921875,1651.899658203125,-4038,4.485815048217773,0.5584352612495422,0.047787901014089584,4151,-305
101911.455,0.0019083942752331495,-0.0029935375787317753,1.0,0.19879601895809174,0.025256488472223282,1.0209392309188843,37803.734375,3.819403648376465,0.6829626560211182,0.0,-3.9984683990478516,0.7471643686294556,-12.198944091796875,1267.56396484375,1878.9677734375,1478.8275146484375,1653.698486328125,14359,4.485815048217773,0.5584352612495422,0.047787901014089584,3824,846
101913.427,0.0019083942752331495,-0.0029935375787317753,1.0,0.198691263794899,0.02528396248817444,1.020943284034729,37803.734375,3.819403648376465,0.6829626560211182,0.0,-3.9984683990478516,0.7471643686294556,-12.199039459228516,1926.3275146484375,1877.154052734375,1870.0006103515625,1655.4835205078125,29388,4.485815048217773,0.5584352612495422,0.047787901014089584,4095,1430
101915.413,0.0019083942752331495,-0.0029935375787317753,1.0,0.198691263794899,0.02528396248817444,1.020943284034729,37803.734375,3.819403648376465,0.6829626560211182,0.0,-3.834437370300293,0.848427414894104,-9.28783893585205,2764.234130859375,1876.825927734375,2054.859619140625,1657.500732421875,-28957,4.458476543426514,0.5415580868721008,0.03170356899499893,3116,238
101917.494,0.002255756640806794,-0.0035287768114358187,1.0,0.198691263794899,0.02528396248817444,1.020943284034729,37815.95703125,3.8308181762695312,0.7137507200241089,0.0,-3.7659502029418945,1.0331557989120483,-12.102660179138184,2821.0966796875,1877.8101806640625,1741.6451416015625,1659.2916259765625,-2399,4.458476543426514,0.5415580868721008,0.03170356899499893,3606,-855
101919.37,0.002255756640806794,-0.0035287768114358187,1.0,0.19859090447425842,0.025223100557923317,1.020713210105896,37815.95703125,3.8308181762695312,0.7137507200241089,0.0,-3.7659502029418945,1.0331557989120483,-12.102723121643066,1643.6561279296875,1878.317626953125,1383.5992431640625,1660.4149169921875,-10612,4.458476543426514,0.5415580868721008,0.03170356899499893,3505,-683
101921.367,0.002255756640806794,-0.0035287768114358187,1.0,0.19859090447425842,0.025223100557923317,1.020713210105896,37815.95703125,3.8308181762695312,0.7137507200241089,0.0,-3.7227487564086914,1.032700538635254,-12.038715362548828,1131.867431640625,1877.745849609375,1520.4698486328125,1661.1634521484375,-4533,4.4512763023376465,0.5416339635848999,0.03134958818554878,4569,369
101923.327,0.002255756640806794,-0.0035287768114358187,1.0,0.19859090447425842,0.025223100557923317,1.020713210105896,37815.95703125,3.8308181762695312,0.7137507200241089,0.0,-3.7227487564086914,1.032700538635254,-12.100725173950195,1774.980712890625,1877.13330078125,1864.517333984375,1662.05712890625,721,4.4512763023376465,0.5416339635848999,0.03134958818554878,3826,827
101925.302,0.002255756640806794,-0.0035287768114358187,1.0,0.1986338198184967,0.025269750505685806,1.0208344459533691,37815.95703125,3.8308181762695312,0.7137507200241089,0.0,-3.7227487564086914,1.032700538635254,-12.100788116455078,2195.3525390625,1877.0472412109375,1695.44287109375,1662.8453369140625,452,4.4512763023376465,0.5416339635848999,0.03134958818554878,4929,-806
101927.388,0.002647541696205735,-0.004130149260163307,1.0,0.1986338198184967,0.025269750505685806,1.0208344459533691,37793.1015625,3.8656396865844727,0.7501099109649658,0.0,-3.289867401123047,1.2656325101852417,-9.037481307983398,2309.408935546875,1877.5511474609375,1816.6279296875,1663.7060546875,-24379,4.4139509201049805,0.5391711592674255,0.014425083994865417,3711,166
101929.265,0.002647541696205735,-0.004130149260163307,1.0,0.1986338198184967,0.025269750505685806,1.0208344459533691,37793.1015625,3.8656396865844727,0.7501099109649658,0.0,-3.289867401123047,1.2656325101852417,-11.999298095703125,2051.25927734375,1878.201904296875,1647.2657470703125,1664.4005126953125,-3982,4.4139509201049805,0.5391711592674255,0.014425083994865417,4336,772
101931.242,0.002647541696205735,-0.004130149260163307,1.0,0.19845594465732574,0.025213202461600304,1.0206159353256226,37793.1015625,3.8656396865844727,0.7501099109649658,0.0,-3.289867401123047,1.2656325101852417,-11.999326705932617,1993.747802734375,1878.8974609375,1389.2325439453125,1664.6119384765625,29754,4.4139509201049805,0.5391711592674255,0.014425083994865417,3886,154
101933.218,0.002647541696205735,-0.004130149260163307,1.0,0.19845594465732574,0.025213202461600304,1.0206159353256226,37793.1015625,3.8656396865844727,0.7501099109649658,0.0,-3.289867401123047,1.2656325101852417,-11.99935531616211,1819.473388671875,1879.3970947265625,847.2438354492188,1663.6995849609375,31132,4.4139509201049805,0.5391711592674255,0.014425083994865417,4670,267
101935.228,0.002647541696205735,-0.004130149260163307,1.0,0.19841183722019196,0.02518896572291851,1.0205998420715332,37793.1015625,3.8656396865844727,0.7501099109649658,0.0,-3.0605335235595703,1.211686134338379,-8.87911605834961,1933.101806640625,1879.8843994140625,902.07177734375,1661.9261474609375,-958,4.375728607177734,0.5481622219085693,-0.002813778817653656,4094,-188
101937.283,0.003086754120886326,-0.004801773000508547,1.0,0.19841183722019196,0.02518896572291851,1.0205998420715332,37755.67578125,3.8927230834960938,0.7874561548233032,0.0,-2.8598098754882812,1.4397304058074951,-11.785223960876465,2553.21240234375,1881.1865234375,2071.3544921875,1660.9954833984375,-25564,4.369358062744141,0.5475010871887207,-0.0034253005869686604,4114,9
101939.154,0.003086754120886326,-0.004801773000508547,1.0,0.19841183722019196,0.02518896572291851,1.0205998420715332,37755.67578125,3.8927230834960938,0.7874561548233032,0.0,-2.8598098754882812,1.4397304058074951,-11.892233848571777,2196.8642578125,1882.6905517578125,2059.36767578125,1660.7513427734375,-724,4.369358062744141,0.5475010871887207,-0.0034253005869686604,3873,702
101941.139,0.003086754120886326,-0.004801773000508547,1.0,0.19846241176128387,0.025166083127260208,1.020591378211975,37755.67578125,3.8927230834960938,0.7874561548233032,0.0,-2.8598098754882812,1.4397304058074951,-11.892227172851562,1612.4639892578125,1883.5823974609375,1741.674560546875,1660.656005859375,4908,4.369358062744141,0.5475010871887207,-0.0034253005869686604,3642,3
101943.113,0.003086754120886326,-0.004801773000508547,1.0,0.19846241176128387,0.025166083127260208,1.020591378211975,37755.67578125,3.8927230834960938,0.7874561548233032,0.0,-2.8598098754882812,1.4397304058074951,-11.892220497131348,2501.380126953125,1885.147216796875,1463.090576171875,1660.3134765625,-16422,4.369358062744141,0.5475010871887207,-0.0034253005869686604,4570,513
101945.091,0.003086754120886326,-0.004801773000508547,1.0,0.19846241176128387,0.025166083127260208,1.020591378211975,37755.67578125,3.8927230834960938,0.7874561548233032,0.0,-2.618968963623047,1.3049712181091309,-8.58514404296875,3205.35400390625,1888.2073974609375,1497.7620849609375,1659.8121337890625,4829,4.329217910766602,0.5699609518051147,-0.021696200594305992,4170,531
101947.187,0.0035767322406172752,-0.005548171233385801,1.0,0.19828513264656067,0.025169622153043747,1.0204715728759766,37780.0390625,3.7310352325439453,0.8087822794914246,0.0,-3.5890960693359375,1.4329279661178589,-11.782506942749023,1362.9647216796875,1890.0548095703125,1725.83740234375,1659.482666015625,27207,4.329217910766602,0.5699609518051147,-0.021696200594305992,3338,-1370
101949.052,0.0035767322406172752,-0.005548171233385801,1.0,0.19828513264656067,0.025169622153043747,1.0204715728759766,37780.0390625,3.7310352325439453,0.8087822794914246,0.0,-3.5890960693359375,1.4329279661178589,-11.782463073730469,1395.952880859375,1890.934326171875,963.8959350585938,1658.2823486328125,-14616,4.329217910766602,0.5699609518051147,-0.021696200594305992,3903,-80
101951.034,0.0035767322406172752,-0.005548171233385801,1.0,0.19828513264656067,0.025169622153043747,1.0204715728759766,37780.0390625,3.7310352325439453,0.8087822794914246,0.0,-3.5890960693359375,1.4329279661178589,-11.782419204711914,2160.050048828125,1892.024658203125,577.346923828125,1655.8441162109375,-10845,4.329217910766602,0.5699609518051147,-0.021696200594305992,4607,559
101953.016,0.0035767322406172752,-0.005548171233385801,1.0,0.19823497533798218,0.02518841251730919,1.0204459428787231,37780.0390625,3.7310352325439453,0.8087822794914246,0.0,-3.5890960693359375,1.4329279661178589,-11.78237533569336,2514.06103515625,1893.7603759765625,766.3777465820312,1652.630615234375,-24556,4.329217910766602,0.5699609518051147,-0.021696200594305992,4005,380
101954.989,0.0035767322406172752,-0.005548171233385801,1.0,0.19823497533798218,0.02518841251730919,1.0204459428787231,37780.0390625,3.7310352325439453,0.8087822794914246,0.0,-3.282534599304199,1.256270170211792,-8.210381507873535,1923.5479736328125,1895.2445068359375,1078.7869873046875,1649.192138671875,-14613,4.2781243324279785,0.5994039177894592,-0.0414305180311203,3417,-2408
101957.085,0.004121435806155205,-0.006374475080519915,1.0,0.19823497533798218,0.02518841251730919,1.0204459428787231,37725.59765625,3.74115252494812,0.8519444465637207,0.0,-3.2218308448791504,1.5152431726455688,-11.663804054260254,1419.90771484375,1895.8465576171875,1706.70654296875,1646.406982421875,-7548,4.2781243324279785,0.5994039177894592,-0.0414305180311203,4733,-876
101958.945,0.004121435806155205,-0.006374475080519915,1.0,0.1983189731836319,0.02514522895216942,1.0204648971557617,37725.59765625,3.74115252494812,0.8519444465637207,0.0,-3.2218308448791504,1.5152431726455688,-11.663721084594727,1969.67529296875,1896.4461669921875,1287.94287109375,1643.6119384765625,10368,4.2781243324279785,0.5994039177894592,-0.0414305180311203,4889,-317
101960.929,0.004121435806155205,-0.006374475080519915,1.0,0.1983189731836319,0.02514522895216942,1.0204648971557617,37725.59765625,3.74115252494812,0.8519444465637207,0.0,-3.2218308448791504,1.5152431726455688,-11.6636381149292,2457.08203125,1897.6915283203125,1373.761474609375,1640.926513671875,-17901,4.2781243324279785,0.5994039177894592,-0.0414305180311203,3749,-2525
101962.909,0.004121435806155205,-0.006374475080519915,1.0,0.1983189731836319,0.02514522895216942,1.0204648971557617,37725.59765625,3.74115252494812,0.8519444465637207,0.0,-3.2218308448791504,1.5152431726455688,-11.663555145263672,3046.75244140625,1900.2579345703125,1731.890625,1638.8126220703125,-24227,4.2781243324279785,0.5994039177894592,-0.0414305180311203,4670,-353
101964.882,0.004121435806155205,-0.006374475080519915,1.0,0.1981719732284546,0.02515457570552826,1.0204102993011475,37725.59765625,3.74115252494812,0.8519444465637207,0.0,-3.2218308448791504,1.5152431726455688,-11.663472175598145,2665.1201171875,1903.412353515625,1993.915771484375,1637.5263671875,-8457,4.2781243324279785,0.5994039177894592,-0.0414305180311203,3878,-66
101966.967,0.00472324388101697,-0.007283056620508432,1.0,0.1981719732284546,0.02515457570552826,1.0204102993011475,37670.1015625,3.7116947174072266,0.8944083452224731,0.0,-3.0892696380615234,1.4830105304718018,-7.555166721343994,766.6920166015625,1904.5238037109375,1636.8624267578125,1636.455078125,11299,4.2265729904174805,0.6472399234771729,-0.06412763148546219,3776,129
101968.839,0.00472324388101697,-0.007283056620508432,1.0,0.1981288194656372,0.025127479806542397,1.0203534364700317,37670.1015625,3.7116947174072266,0.8944083452224731,0.0,-3.0892696380615234,1.4830105304718018,-11.527033805847168,-54.3863525390625,1902.8404541015625,869.104248046875,1634.5416259765625,6362,4.2265729904174805,0.6472399234771729,-0.06412763148546219,4780,-948
101970.826,0.00472324388101697,-0.007283056620508432,1.0,0.1981288194656372,0.025127479806542397,1.0203534364700317,37670.1015625,3.7116947174072266,0.8944083452224731,0.0,-3.0892696380615234,1.4830105304718018,-11.52690601348877,614.2781982421875,1899.7237548828125,368.5728759765625,1631.2635498046875,24925,4.2265729904174805,0.6472399234771729,-0.06412763148546219,3306,-334
101972.797,0.00472324388101697,-0.007283056620508432,1.0,0.1981288194656372,0.025127479806542397,1.0203534364700317,37670.1015625,3.7116947174072266,0.8944083452224731,0.0,-3.0892696380615234,1.4830105304718018,-11.526778221130371,1374.0185546875,1896.429931640625,667.7352294921875,1627.25244140625,24089,4.2265729904174805,0.6472399234771729,-0.06412763148546219,3542,-1100
101974.777,0.00472324388101697,-0.007283056620508432,1.0,0.19820433855056763,0.02508828416466713,1.0203983783721924,37670.1015625,3.7116947174072266,0.8944083452224731,0.0,-3.0892696380615234,1.4830105304718018,-11.526650428771973,1885.685302734375,1893.67431640625,1383.0736083984375,1623.589111328125,22842,4.2265729904174805,0.6472399234771729,-0.06412763148546219,3638,-1108
101976.863,0.00538641307502985,-0.008280815556645393,1.0,0.19820433855056763,0.02508828416466713,1.0203983783721924,37663.9140625,3.68794846534729,0.9394091367721558,0.0,-3.1065402030944824,1.4779175519943237,-7.760129451751709,2013.8681640625,1891.541259765625,1664.164794921875,1620.594482421875,7412,4.205705165863037,0.6930895447731018,-0.08493620157241821,2805,-1097
101978.739,0.00538641307502985,-0.008280815556645393,1.0,0.19811178743839264,0.02505781129002571,1.020194172859192,37663.9140625,3.68794846534729,0.9394091367721558,0.0,-3.1065402030944824,1.4779175519943237,-11.401459693908691,1875.23681640625,1889.7442626953125,1395.500244140625,1617.8026123046875,17282,4.205705165863037,0.6930895447731018,-0.08493620157241821,3335,-1617
101980.72,0.00538641307502985,-0.008280815556645393,1.0,0.19811178743839264,0.02505781129002571,1.020194172859192,37663.9140625,3.68794846534729,0.9394091367721558,0.0,-3.1065402030944824,1.4779175519943237,-11.401289939880371,2280.14990234375,1888.7686767578125,1175.3546142578125,1614.8900146484375,-5793,4.205705165863037,0.6930895447731018,-0.08493620157241821,2639,-1042
101982.694,0.00538641307502985,-0.008280815556645393,1.0,0.19811178743839264,0.02505781129002571,1.020194172859192,37663.9140625,3.68794846534729,0.9394091367721558,0.0,-3.1065402030944824,1.4779175519943237,-11.40112018585205,3374.442138671875,1889.93505859375,1439.9293212890625,1612.2330322265625,27602,4.205705165863037,0.6930895447731018,-0.08493620157241821,5777,-1607
101984.677,0.00538641307502985,-0.008280815556645393,1.0,0.19811178743839264,0.02505781129002571,1.020194172859192,37663.9140625,3.68794846534729,0.9394091367721558,0.0,-3.1065402030944824,1.4779175519943237,-11.40095043182373,3689.775390625,1893.30224609375,1981.586669921875,1610.513671875,-20470,4.205705165863037,0.6930895447731018,-0.08493620157241821,4529,-345
101986.762,0.006110828835517168,-0.009373685345053673,1.0,0.19805991649627686,0.025086674839258194,1.0203027725219727,37647.734375,3.826094627380371,1.0144965648651123,0.0,-2.277663230895996,1.928442120552063,-11.40078067779541,3784.33935546875,1898.62255859375,2493.10546875,1610.2579345703125,-5099,4.205705165863037,0.6930895447731018,-0.08493620157241821,4402,-923
101988.632,0.006110828835517168,-0.009373685345053673,1.0,0.19805991649627686,0.025086674839258194,1.0203027725219727,37647.734375,3.826094627380371,1.0144965648651123,0.0,-2.113534927368164,1.668748140335083,-8.158574104309082,2926.939208984375,1904.41943359375,1743.8369140625,1610.2230224609375,12850,4.178350448608398,0.7363718748092651,-0.10284780710935593,4693,-160
101990.613,0.006110828835517168,-0.009373685345053673,1.0,0.1980736404657364,0.025051238015294075,1.0203537940979004,37647.734375,3.826094627380371,1.0144965648651123,0.0,-2.113534927368164,1.668748140335083,-11.292899131774902,2310.4814453125,1909.784423828125,1523.8587646484375,1610.0791015625,9575,4.178350448608398,0.7363718748092651,-0.10284780710935593,3401,83
101992.595,0.006110828835517168,-0.009373685345053673,1.0,0.1980736404657364,0.025051238015294075,1.0203537940979004,37647.734375,3.826094627380371,1.0144965648651123,0.0,-2.113534927368164,1.668748140335083,-11.292693138122559,1388.1258544921875,1913.5548095703125,1063.642822265625,1609.2315673828125,19505,4.178350448608398,0.7363718748092651,-0.10284780710935593,4433,63
101994.569,0.006110828835517168,-0.009373685345053673,1.0,0.1980736404657364,0.025051238015294075,1.0203537940979004,37647.734375,3.826094627380371,1.0144965648651123,0.0,-2.113534927368164,1.668748140335083,-11.292487144470215,804.8609619140625,1915.2161865234375,1008.1966552734375,1607.7259521484375,21924,4.178350448608398,0.7363718748092651,-0.10284780710935593,3657,-445
101996.677,0.006907796021550894,-0.010565214790403843,1.0,0.1980322152376175,0.025026319548487663,1.020129919052124,37663.5390625,3.8560853004455566,1.0745617151260376,0.0,-1.9335908889770508,2.0291390419006348,-11.292281150817871,1425.936279296875,1915.9473876953125,1550.345458984375,1606.3966064453125,-32498,4.178350448608398,0.7363718748092651,-0.10284780710935593,3927,476
101998.528,0.006907796021550894,-0.010565214790403843,1.0,0.1980322152376175,0.025026319548487663,1.020129919052124,37663.5390625,3.8560853004455566,1.0745617151260376,0.0,-1.5297317504882812,1.886603593826294,-8.348197937011719,2444.95068359375,1917.2603759765625,1269.899658203125,1604.842041015625,17020,4.1110405921936035,0.7601277828216553,-0.11911214143037796,4459,225
102000.506,0.006907796021550894,-0.010565214790403843,1.0,0.1980322152376175,0.025026319548487663,1.020129919052124,37663.5390625,3.8560853004455566,1.0745617151260376,0.0,-1.5297317504882812,1.886603593826294,-11.194217681884766,1851.8175048828125,1918.2659912109375,1338.31787109375,1603.1934814453125,-12264,4.1110405921936035,0.7601277828216553,-0.11911214143037796,4159,-357
102002.482,0.006907796021550894,-0.010565214790403843,1.0,0.19801034033298492,0.02500682882964611,1.0200239419937134,37663.5390625,3.8560853004455566,1.0745617151260376,0.0,-1.5297317504882812,1.886603593826294,-11.193979263305664,791.6112060546875,1917.6025390625,1530.37744140625,1601.724609375,-21947,4.1110405921936035,0.7601277828216553,-0.11911214143037796,3119,-36
