timestamp,posCtl.targetX,posCtl.targetY,posCtl.targetZ,locSrv.x,locSrv.y,locSrv.z,controller.actuatorThrust,controller.pitch,controller.roll,controller.yaw,pid_attitude.pitch_output,pid_attitude.roll_output,pid_attitude.yaw_output,pid_rate.pitch_output,pid_rate.pitch_outI,pid_rate.roll_output,pid_rate.roll_outI,pid_rate.yaw_output,stateEstimate.pitch,stateEstimate.roll,stateEstimate.yaw,snn_control.torque_pitch,snn_control.torque_roll
132195.913,-1.2598559351317817e-06,-2.2279539280134486e-07,1.0,0.1999409794807434,0.010338768362998962,1.0219149589538574,37618.40234375,4.278651237487793,0.37124648690223694,0.0,-2.1237001419067383,-0.1138458251953125,7.881255626678467,2599.89306640625,1437.807861328125,1370.1793212890625,847.777099609375,1138,4.632601261138916,0.3902207911014557,-2.117708683013916,4188,-2430
132197.786,-1.2598559351317817e-06,-2.2279539280134486e-07,1.0,0.1999409794807434,0.010338768362998962,1.0219149589538574,37618.40234375,4.278651237487793,0.37124648690223694,0.0,-2.1237001419067383,-0.1138458251953125,7.885490894317627,2216.345703125,1440.5625,1219.716796875,848.27880859375,2836,4.632601261138916,0.3902207911014557,-2.117708683013916,4709,-1715
132199.763,-1.2598559351317817e-06,-2.2279539280134486e-07,1.0,0.19987374544143677,0.010302010923624039,1.0219755172729492,37618.40234375,4.278651237487793,0.37124648690223694,0.0,-2.1237001419067383,-0.1138458251953125,7.889726161956787,1171.74755859375,1442.4970703125,761.1317749023438,848.580322265625,-3980,4.632601261138916,0.3902207911014557,-2.117708683013916,4681,-1430
132201.745,-1.2598559351317817e-06,-2.2279539280134486e-07,1.0,0.19987374544143677,0.010302010923624039,1.0219755172729492,37618.40234375,4.278651237487793,0.37124648690223694,0.0,-1.9807605743408203,-0.11843347549438477,9.199722290039062,457.75408935546875,1442.7957763671875,518.584716796875,848.3917846679688,26476,4.60877799987793,0.3909853994846344,-2.124922752380371,4816,665
132203.728,-1.2598559351317817e-06,-2.2279539280134486e-07,1.0,0.1998896449804306,0.010303102433681488,1.0221089124679565,37618.40234375,4.278651237487793,0.37124648690223694,0.0,-1.9807605743408203,-0.11843347549438477,7.9415106773376465,591.941650390625,1441.911376953125,442.3592834472656,847.6942138671875,-10722,4.60877799987793,0.3909853994846344,-2.124922752380371,3885,-1158
132205.807,-9.610896540834801e-07,-6.704351562802913e-07,1.0,0.1998896449804306,0.010303102433681488,1.0221089124679565,37607.65625,4.263777256011963,0.3772820234298706,0.0,-2.11592960357666,-0.06810039281845093,7.991805553436279,1135.5775146484375,1440.7674560546875,493.50494384765625,846.64208984375,9796,4.616432189941406,0.3886320888996124,-2.1251771450042725,4793,-2222
132207.676,-9.610896540834801e-07,-6.704351562802913e-07,1.0,0.1998896449804306,0.010303102433681488,1.0221089124679565,37607.65625,4.263777256011963,0.3772820234298706,0.0,-2.11592960357666,-0.06810039281845093,7.951537609100342,1440.28466796875,1439.8148193359375,581.550537109375,845.4135131835938,996,4.616432189941406,0.3886320888996124,-2.1251771450042725,2662,-1793
132209.666,-9.610896540834801e-07,-6.704351562802913e-07,1.0,0.1997164785861969,0.010304300114512444,1.0219480991363525,37607.65625,4.263777256011963,0.3772820234298706,0.0,-2.11592960357666,-0.06810039281845093,7.9557881355285645,1485.1690673828125,1439.0823974609375,992.4212036132812,844.5867919921875,-3744,4.616432189941406,0.3886320888996124,-2.1251771450042725,5194,-1070
132211.634,-9.610896540834801e-07,-6.704351562802913e-07,1.0,0.1997164785861969,0.010304300114512444,1.0219480991363525,37607.65625,4.263777256011963,0.3772820234298706,0.0,-2.1681089401245117,-0.06063348054885864,8.128902435302734,1402.24609375,1438.423828125,1221.0867919921875,844.4000854492188,9156,4.625128746032715,0.38738760352134705,-2.126110076904297,5683,-1633
132213.614,-9.610896540834801e-07,-6.704351562802913e-07,1.0,0.1997164785861969,0.010304300114512444,1.0219480991363525,37607.65625,4.263777256011963,0.3772820234298706,0.0,-2.069615364074707,-0.10775935649871826,9.672757148742676,1730.216064453125,1438.264404296875,1105.813232421875,844.5928344726562,-29680,4.608713150024414,0.395241916179657,-2.1355180740356445,4195,-1975
132215.701,-5.916126255556264e-09,-2.0976819996576523e-06,1.0,0.19963446259498596,0.010336298495531082,1.0219085216522217,37648.859375,4.063719272613525,0.3634212017059326,0.0,-3.269963264465332,-0.1909242868423462,8.030628204345703,898.58251953125,1437.4129638671875,945.6635131835938,844.8878173828125,6456,4.608713150024414,0.395241916179657,-2.1355180740356445,4350,127
132217.577,-5.916126255556264e-09,-2.0976819996576523e-06,1.0,0.19963446259498596,0.010336298495531082,1.0219085216522217,37648.859375,4.063719272613525,0.3634212017059326,0.0,-3.269963264465332,-0.1909242868423462,8.034899711608887,1561.666748046875,1436.869873046875,1449.767578125,845.9386596679688,-28408,4.608713150024414,0.395241916179657,-2.1355180740356445,5399,-3406
132219.556,-5.916126255556264e-09,-2.0976819996576523e-06,1.0,0.19963446259498596,0.010336298495531082,1.0219085216522217,37648.859375,4.063719272613525,0.3634212017059326,0.0,-3.269963264465332,-0.1909242868423462,8.03917121887207,1539.929443359375,1436.55517578125,1743.9737548828125,848.009033203125,12364,4.608713150024414,0.395241916179657,-2.1355180740356445,5005,-2922
132221.536,-5.916126255556264e-09,-2.0976819996576523e-06,1.0,0.19962157309055328,0.010239466093480587,1.0218734741210938,37648.859375,4.063719272613525,0.3634212017059326,0.0,-3.269963264465332,-0.1909242868423462,8.043441772460938,1633.0098876953125,1436.5548095703125,1403.885009765625,850.4722900390625,-24344,4.608713150024414,0.395241916179657,-2.1355180740356445,5167,-220
132223.514,-5.916126255556264e-09,-2.0976819996576523e-06,1.0,0.19962157309055328,0.010239466093480587,1.0218734741210938,37648.859375,4.063719272613525,0.3634212017059326,0.0,-3.145136833190918,-0.11766207218170166,10.480100631713867,1778.239990234375,1437.0093994140625,1163.353271484375,852.9388427734375,-29904,4.587908744812012,0.38303154706954956,-2.148956537246704,4595,-215
132225.603,2.207214947702596e-06,-5.395258540374925e-06,1.0,0.19962157309055328,0.010239466093480587,1.0218734741210938,37637.43359375,4.022627353668213,0.3648627996444702,0.0,-3.391688346862793,-0.10901248455047607,8.132668495178223,1546.4647216796875,1437.5335693359375,944.5725708007812,855.1135864257812,-40,4.587908744812012,0.38303154706954956,-2.148956537246704,4703,-994
132227.47,2.207214947702596e-06,-5.395258540374925e-06,1.0,0.19949758052825928,0.010288898833096027,1.0219457149505615,37637.43359375,4.022627353668213,0.3648627996444702,0.0,-3.391688346862793,-0.10901248455047607,8.136966705322266,1806.585205078125,1438.461181640625,852.5374755859375,856.9199829101562,-10168,4.587908744812012,0.38303154706954956,-2.148956537246704,4598,17
132229.449,2.207214947702596e-06,-5.395258540374925e-06,1.0,0.19949758052825928,0.010288898833096027,1.0219457149505615,37637.43359375,4.022627353668213,0.3648627996444702,0.0,-3.391688346862793,-0.10901248455047607,8.141263961791992,2021.12548828125,1440.009033203125,1086.2239990234375,858.7286987304688,16204,4.587908744812012,0.38303154706954956,-2.148956537246704,4795,-2266
132231.426,2.207214947702596e-06,-5.395258540374925e-06,1.0,0.19942374527454376,0.010288250632584095,1.0218266248703003,37637.43359375,4.022627353668213,0.3648627996444702,0.0,-3.391688346862793,-0.10901248455047607,8.145561218261719,1918.8739013671875,1441.934814453125,1538.225341796875,861.1387329101562,6404,4.587908744812012,0.38303154706954956,-2.148956537246704,4751,108
132233.427,2.207214947702596e-06,-5.395258540374925e-06,1.0,0.19942374527454376,0.010288250632584095,1.0218266248703003,37637.43359375,4.022627353668213,0.3648627996444702,0.0,-3.4408836364746094,-0.10108315944671631,8.234915733337402,1531.197998046875,1443.6563720703125,1615.546875,864.1489868164062,32760,4.5961079597473145,0.3817099928855896,-2.1494264602661133,3534,60
132235.488,6.459205906139687e-06,-1.1711512343026698e-05,1.0,0.19942374527454376,0.010288250632584095,1.0218266248703003,37607.02734375,3.9794468879699707,0.36779463291168213,0.0,-3.408365249633789,0.060286760330200195,11.160686492919922,1290.943115234375,1444.8857421875,1206.8917236328125,867.1105346679688,-23936,4.5475077629089355,0.35774683952331543,-2.1660213470458984,6159,-1537
132237.363,6.459205906139687e-06,-1.1711512343026698e-05,1.0,0.19940921664237976,0.010310272686183453,1.02197265625,37607.02734375,3.9794468879699707,0.36779463291168213,0.0,-3.408365249633789,0.060286760330200195,8.260912895202637,1039.347900390625,1445.368896484375,738.4937744140625,869.4039306640625,-27180,4.5475077629089355,0.35774683952331543,-2.1660213470458984,4684,-2112
132239.341,6.459205906139687e-06,-1.1711512343026698e-05,1.0,0.19940921664237976,0.010310272686183453,1.02197265625,37607.02734375,3.9794468879699707,0.36779463291168213,0.0,-3.4511489868164062,0.07401323318481445,8.332176208496094,949.3651123046875,1445.1104736328125,594.61083984375,870.9467163085938,-32180,4.554638385772705,0.3554590940475464,-2.166391134262085,4496,-455
132241.321,6.459205906139687e-06,-1.1711512343026698e-05,1.0,0.19940921664237976,0.010310272686183453,1.02197265625,37607.02734375,3.9794468879699707,0.36779463291168213,0.0,-3.4511489868164062,0.07401323318481445,8.271797180175781,568.1565551757812,1443.727783203125,379.078125,871.57568359375,25164,4.554638385772705,0.3554590940475464,-2.166391134262085,3972,1017
132243.302,6.459205906139687e-06,-1.1711512343026698e-05,1.0,0.1992422640323639,0.010301105678081512,1.0218262672424316,37607.02734375,3.9794468879699707,0.36779463291168213,0.0,-3.4511489868164062,0.07401323318481445,8.276130676269531,549.9029541015625,1441.3868408203125,572.3389892578125,871.7006225585938,27700,4.554638385772705,0.3554590940475464,-2.166391134262085,3695,-99
132245.383,1.3731637409364339e-05,-2.2496118617709726e-05,1.0,0.1992422640323639,0.010301105678081512,1.0218262672424316,37586.44921875,4.137570381164551,0.3858744502067566,0.0,-2.502408027648926,0.18249213695526123,8.280463218688965,2017.9471435546875,1440.206298828125,841.2926635742188,871.76416015625,1788,4.554638385772705,0.3554590940475464,-2.166391134262085,4727,433
132247.263,1.3731637409364339e-05,-2.2496118617709726e-05,1.0,0.19915418326854706,0.010272395797073841,1.0219405889511108,37586.44921875,4.137570381164551,0.3858744502067566,0.0,-2.286383628845215,0.28779923915863037,11.799407005310059,2098.744873046875,1440.100830078125,996.998291015625,871.9838256835938,-4032,4.51863431930542,0.33790791034698486,-2.1858086585998535,4685,-949
132249.236,1.3731637409364339e-05,-2.2496118617709726e-05,1.0,0.19915418326854706,0.010272395797073841,1.0219405889511108,37586.44921875,4.137570381164551,0.3858744502067566,0.0,-2.286383628845215,0.28779923915863037,8.405712127685547,2132.102294921875,1440.9344482421875,1288.478759765625,872.72119140625,1604,4.51863431930542,0.33790791034698486,-2.1858086585998535,5509,-1557
132251.221,1.3731637409364339e-05,-2.2496118617709726e-05,1.0,0.19915418326854706,0.010272395797073841,1.0219405889511108,37586.44921875,4.137570381164551,0.3858744502067566,0.0,-2.286383628845215,0.28779923915863037,8.410083770751953,2235.64501953125,1442.686279296875,1444.681884765625,874.096435546875,17944,4.51863431930542,0.33790791034698486,-2.1858086585998535,3702,-155
132253.197,1.3731637409364339e-05,-2.2496118617709726e-05,1.0,0.19910496473312378,0.010314145125448704,1.0217722654342651,37586.44921875,4.137570381164551,0.3858744502067566,0.0,-2.286383628845215,0.28779923915863037,8.41445541381836,1799.177978515625,1444.6190185546875,947.3902587890625,875.3385620117188,-17952,4.51863431930542,0.33790791034698486,-2.1858086585998535,5240,-2558
132255.28,2.517715620342642e-05,-3.9381378883263096e-05,1.0,0.19910496473312378,0.010314145125448704,1.0217722654342651,37639.640625,4.031641960144043,0.3873881697654724,0.0,-2.770814895629883,0.30916231870651245,11.237964630126953,617.0052490234375,1445.12548828125,607.5499267578125,876.0156860351562,26432,4.493444442749023,0.33586111664772034,-2.2013838291168213,4724,193
132257.153,2.517715620342642e-05,-3.9381378883263096e-05,1.0,0.19910496473312378,0.010314145125448704,1.0217722654342651,37639.640625,4.031641960144043,0.3873881697654724,0.0,-2.770814895629883,0.30916231870651245,8.516712188720703,668.4286499023438,1444.5126953125,780.2913818359375,876.4517211914062,10768,4.493444442749023,0.33586111664772034,-2.2013838291168213,4683,-1953
132259.234,2.517715620342642e-05,-3.9381378883263096e-05,1.0,0.19900861382484436,0.010266141965985298,1.0217158794403076,37639.640625,4.031641960144043,0.3873881697654724,0.0,-2.770814895629883,0.30916231870651245,8.521114349365234,1327.73095703125,1443.8472900390625,862.4555053710938,876.7960205078125,-29408,4.493444442749023,0.33586111664772034,-2.2013838291168213,4339,-609
132261.112,2.517715620342642e-05,-3.9381378883263096e-05,1.0,0.19900861382484436,0.010266141965985298,1.0217158794403076,37639.640625,4.031641960144043,0.3873881697654724,0.0,-2.770814895629883,0.30916231870651245,8.525517463684082,1837.579833984375,1443.8177490234375,747.38232421875,876.9102172851562,-26336,4.493444442749023,0.33586111664772034,-2.2013838291168213,4400,-1736
132263.089,2.517715620342642e-05,-3.9381378883263096e-05,1.0,0.19900861382484436,0.010266141965985298,1.0217158794403076,37639.640625,4.031641960144043,0.3873881697654724,0.0,-2.770814895629883,0.30916231870651245,8.52992057800293,1294.2232666015625,1443.593994140625,791.997802734375,876.8921508789062,8168,4.493444442749023,0.33586111664772034,-2.2013838291168213,5258,-928
132265.175,4.214315413264558e-05,-6.435978866647929e-05,1.0,0.19877834618091583,0.010343801230192184,1.0220927000045776,37634.03125,3.8761396408081055,0.3798285722732544,0.0,-3.5341758728027344,0.26778656244277954,11.431957244873047,599.3970947265625,1442.28369140625,473.883056640625,876.3405151367188,-3328,4.4651689529418945,0.33519747853279114,-2.217392683029175,4267,-678
132267.047,4.214315413264558e-05,-6.435978866647929e-05,1.0,0.19877834618091583,0.010343801230192184,1.0220927000045776,37634.03125,3.8761396408081055,0.3798285722732544,0.0,-3.5341758728027344,0.26778656244277954,8.634841918945312,1160.480224609375,1440.8179931640625,300.91778564453125,875.115234375,26140,4.4651689529418945,0.33519747853279114,-2.217392683029175,4346,-727
132269.031,4.214315413264558e-05,-6.435978866647929e-05,1.0,0.19877834618091583,0.010343801230192184,1.0220927000045776,37634.03125,3.8761396408081055,0.3798285722732544,0.0,-3.5341758728027344,0.26778656244277954,8.639276504516602,1120.327392578125,1439.17138671875,905.7149658203125,874.13623046875,19664,4.4651689529418945,0.33519747853279114,-2.217392683029175,5688,-2685
132271.005,4.214315413264558e-05,-6.435978866647929e-05,1.0,0.19855493307113647,0.010301757603883743,1.0220386981964111,37634.03125,3.8761396408081055,0.3798285722732544,0.0,-3.5341758728027344,0.26778656244277954,8.64371109008789,1304.079345703125,1437.6212158203125,1245.19384765625,873.8156127929688,-9952,4.4651689529418945,0.33519747853279114,-2.217392683029175,2988,-710
132272.983,4.214315413264558e-05,-6.435978866647929e-05,1.0,0.19855493307113647,0.010301757603883743,1.0220386981964111,37634.03125,3.8761396408081055,0.3798285722732544,0.0,-3.5341758728027344,0.26778656244277954,8.64814567565918,1612.1934814453125,1436.5635986328125,1197.156494140625,873.979248046875,-29168,4.4651689529418945,0.33519747853279114,-2.217392683029175,4304,-1676
132275.087,6.607906834688038e-05,-9.951335232472047e-05,1.0,0.19855493307113647,0.010301757603883743,1.0220386981964111,37603.59375,3.8933207988739014,0.38933464884757996,0.0,-3.303309917449951,0.2662539482116699,10.635345458984375,2119.21484375,1436.5924072265625,842.7318115234375,874.0739135742188,19808,4.443872451782227,0.34495899081230164,-2.228347063064575,4096,-535
132276.941,6.607906834688038e-05,-9.951335232472047e-05,1.0,0.1985042840242386,0.01031054649502039,1.0221672058105469,37603.59375,3.8933207988739014,0.38933464884757996,0.0,-3.303309917449951,0.2662539482116699,8.722785949707031,2316.9013671875,1437.78857421875,591.054443359375,873.7758178710938,-6360,4.443872451782227,0.34495899081230164,-2.228347063064575,4679,-1169
132278.999,6.607906834688038e-05,-9.951335232472047e-05,1.0,0.1985042840242386,0.01031054649502039,1.0221672058105469,37603.59375,3.8933207988739014,0.38933464884757996,0.0,-3.303309917449951,0.2662539482116699,8.727241516113281,2160.397705078125,1439.7462158203125,561.521240234375,873.1119384765625,-28524,4.443872451782227,0.34495899081230164,-2.228347063064575,4557,-1853
132280.901,6.607906834688038e-05,-9.951335232472047e-05,1.0,0.1985042840242386,0.01031054649502039,1.0221672058105469,37603.59375,3.8933207988739014,0.38933464884757996,0.0,-3.303309917449951,0.2662539482116699,8.731698989868164,2180.825439453125,1442.3623046875,571.1419067382812,872.1574096679688,-24020,4.443872451782227,0.34495899081230164,-2.228347063064575,4317,-650
132282.891,6.607906834688038e-05,-9.951335232472047e-05,1.0,0.1985415369272232,0.010245643556118011,1.0221498012542725,37603.59375,3.8933207988739014,0.38933464884757996,0.0,-3.031999111175537,0.22224372625350952,10.576467514038086,2689.24658203125,1446.19970703125,653.7600708007812,871.0721435546875,-2848,4.398653984069824,0.35229402780532837,-2.2385144233703613,4127,-1091
132284.987,9.873032831819728e-05,-0.000147338563692756,1.0,0.1985415369272232,0.010245643556118011,1.0221498012542725,37562.421875,3.9061312675476074,0.39890074729919434,0.0,-2.955136299133301,0.2796403169631958,8.801656723022461,2266.798583984375,1450.4859619140625,870.8035888671875,870.168701171875,8296,4.398653984069824,0.35229402780532837,-2.2385144233703613,4053,242
132286.836,9.873032831819728e-05,-0.000147338563692756,1.0,0.1983652412891388,0.010297422297298908,1.0220388174057007,37562.421875,3.9061312675476074,0.39890074729919434,0.0,-2.955136299133301,0.2796403169631958,8.806133270263672,1642.6435546875,1454.3089599609375,717.4300537109375,869.21337890625,-27152,4.398653984069824,0.35229402780532837,-2.2385144233703613,4793,-951
132288.816,9.873032831819728e-05,-0.000147338563692756,1.0,0.1983652412891388,0.010297422297298908,1.0220388174057007,37562.421875,3.9061312675476074,0.39890074729919434,0.0,-2.955136299133301,0.2796403169631958,8.810609817504883,1282.17822265625,1457.2613525390625,488.58209228515625,867.9114990234375,-17080,4.398653984069824,0.35229402780532837,-2.2385144233703613,4172,-1750
132290.869,9.873032831819728e-05,-0.000147338563692756,1.0,0.1983652412891388,0.010297422297298908,1.0220388174057007,37562.421875,3.9061312675476074,0.39890074729919434,0.0,-2.955136299133301,0.2796403169631958,8.81508731842041,1338.320556640625,1459.56005859375,491.14080810546875,866.326416015625,3216,4.398653984069824,0.35229402780532837,-2.2385144233703613,5159,-1572
132292.779,9.873032831819728e-05,-0.000147338563692756,1.0,0.19828152656555176,0.010291613638401031,1.022066593170166,37562.421875,3.9061312675476074,0.39890074729919434,0.0,-2.574294090270996,0.18692386150360107,10.898693084716797,2082.810546875,1462.302978515625,672.9835205078125,864.749755859375,-15360,4.335180282592773,0.3677467703819275,-2.2500011920928955,6075,-862
132294.885,0.00014190457295626402,-0.00021039268176537007,1.0,0.19828152656555176,0.010291613638401031,1.022066593170166,37557.6953125,3.921903610229492,0.4072754383087158,0.0,-2.4796600341796875,0.23717200756072998,8.8930082321167,1918.31884765625,1465.1927490234375,778.7552490234375,863.3231201171875,532,4.335180282592773,0.3677467703819275,-2.2500011920928955,5619,-1472
132296.732,0.00014190457295626402,-0.00021039268176537007,1.0,0.19830326735973358,0.010304821655154228,1.0221984386444092,37557.6953125,3.921903610229492,0.4072754383087158,0.0,-2.4796600341796875,0.23717200756072998,8.89750862121582,1590.438720703125,1467.7646484375,664.2111206054688,861.8707275390625,-26840,4.335180282592773,0.3677467703819275,-2.2500011920928955,5180,-1731
132298.762,0.00014190457295626402,-0.00021039268176537007,1.0,0.19830326735973358,0.010304821655154228,1.0221984386444092,37557.6953125,3.921903610229492,0.4072754383087158,0.0,-2.4796600341796875,0.23717200756072998,8.902008056640625,1663.052001953125,1470.1650390625,399.0057373046875,860.045654296875,-7996,4.335180282592773,0.3677467703819275,-2.2500011920928955,5831,-2519
132300.692,0.00014190457295626402,-0.00021039268176537007,1.0,0.19830326735973358,0.010304821655154228,1.0221984386444092,37557.6953125,3.921903610229492,0.4072754383087158,0.0,-2.4796600341796875,0.23717200756072998,8.90650749206543,1620.0770263671875,1472.3623046875,437.6383056640625,857.96435546875,-12560,4.335180282592773,0.3677467703819275,-2.2500011920928955,4135,-771
132302.674,0.00014190457295626402,-0.00021039268176537007,1.0,0.19816912710666656,0.010324686765670776,1.022109031677246,37557.6953125,3.921903610229492,0.4072754383087158,0.0,-2.4796600341796875,0.23717200756072998,8.91100788116455,1472.4327392578125,1474.19091796875,787.6473999023438,856.1386108398438,32204,4.335180282592773,0.3677467703819275,-2.2500011920928955,4660,-2345
132304.773,0.00019751205400098115,-0.00029133385396562517,1.0,0.19816912710666656,0.010324686765670776,1.022109031677246,37576.49609375,3.962489604949951,0.42114898562431335,0.0,-1.9347753524780273,0.19844001531600952,11.673667907714844,2151.3515625,1476.614501953125,525.9898681640625,854.1795654296875,18816,4.284952163696289,0.38807564973831177,-2.2652394771575928,5602,-2031
132306.626,0.00019751205400098115,-0.00029133385396562517,1.0,0.19816912710666656,0.010324686765670776,1.022109031677246,37576.49609375,3.962489604949951,0.42114898562431335,0.0,-1.9347753524780273,0.19844001531600952,9.011497497558594,1641.9716796875,1478.8515625,-151.0418701171875,851.210693359375,-18456,4.284952163696289,0.38807564973831177,-2.2652394771575928,3569,-604
132308.61,0.00019751205400098115,-0.00029133385396562517,1.0,0.1980939507484436,0.010328231379389763,1.0220211744308472,37576.49609375,3.962489604949951,0.42114898562431335,0.0,-1.9347753524780273,0.19844001531600952,9.016027450561523,1465.263427734375,1480.6951904296875,319.39898681640625,848.0317993164062,1336,4.284952163696289,0.38807564973831177,-2.2652394771575928,5226,-1968
132310.612,0.00019751205400098115,-0.00029133385396562517,1.0,0.1980939507484436,0.010328231379389763,1.0220211744308472,37576.49609375,3.962489604949951,0.42114898562431335,0.0,-1.9347753524780273,0.19844001531600952,9.02055835723877,1728.967529296875,1482.5601806640625,1469.865234375,846.2142944335938,-21508,4.284952163696289,0.38807564973831177,-2.2652394771575928,4476,-2937
132312.563,0.00019751205400098115,-0.00029133385396562517,1.0,0.1980939507484436,0.010328231379389763,1.0220211744308472,37576.49609375,3.962489604949951,0.42114898562431335,0.0,-1.9347753524780273,0.19844001531600952,9.025089263916016,1809.969482421875,1484.5482177734375,1258.2042236328125,845.250244140625,-13736,4.284952163696289,0.38807564973831177,-2.2652394771575928,3728,-555
132314.662,0.0002677325683180243,-0.0003932404797524214,1.0,0.19811345636844635,0.010251643136143684,1.0219937562942505,37580.265625,3.82275652885437,0.41593343019485474,0.0,-2.5287652015686035,0.010210812091827393,11.725852966308594,1204.120849609375,1485.8292236328125,197.194580078125,843.5850830078125,26976,4.244217395782471,0.41423162817955017,-2.2801356315612793,4010,-1382
132316.524,0.0002677325683180243,-0.0003932404797524214,1.0,0.19811345636844635,0.010251643136143684,1.0219937562942505,37580.265625,3.82275652885437,0.41593343019485474,0.0,-2.5287652015686035,0.010210812091827393,9.123586654663086,1924.5699462890625,1487.4796142578125,697.96142578125,842.00537109375,1992,4.244217395782471,0.41423162817955017,-2.2801356315612793,5938,-1852
132318.51,0.0002677325683180243,-0.0003932404797524214,1.0,0.19811345636844635,0.010251643136143684,1.0219937562942505,37580.265625,3.82275652885437,0.41593343019485474,0.0,-2.5287652015686035,0.010210812091827393,9.12814712524414,2404.254638671875,1490.0738525390625,1323.47314453125,841.331787109375,-6848,4.244217395782471,0.41423162817955017,-2.2801356315612793,4053,43
132320.482,0.0002677325683180243,-0.0003932404797524214,1.0,0.19791670143604279,0.010316278785467148,1.0218379497528076,37580.265625,3.82275652885437,0.41593343019485474,0.0,-2.5287652015686035,0.010210812091827393,9.132707595825195,2131.45263671875,1493.0867919921875,1113.3726806640625,841.1334228515625,-22792,4.244217395782471,0.41423162817955017,-2.2801356315612793,4144,-1115
132322.472,0.0002677325683180243,-0.0003932404797524214,1.0,0.19791670143604279,0.010316278785467148,1.0218379497528076,37580.265625,3.82275652885437,0.41593343019485474,0.0,-2.5287652015686035,0.010210812091827393,9.13726806640625,989.14501953125,1494.9232177734375,269.72760009765625,840.20751953125,19720,4.244217395782471,0.41423162817955017,-2.2801356315612793,4830,-1688
132324.566,0.00035501684760674834,-0.0005194763070903718,1.0,0.19791775941848755,0.010303742252290249,1.0219329595565796,37551.47265625,3.860105276107788,0.4260808825492859,0.0,-2.030409336090088,0.0009600520133972168,12.297784805297852,1072.1695556640625,1495.888671875,74.23162841796875,838.4169921875,-17312,4.198506832122803,0.42592087388038635,-2.2975716590881348,3927,-442
132326.42,0.00035501684760674834,-0.0005194763070903718,1.0,0.19791775941848755,0.010303742252290249,1.0219329595565796,37551.47265625,3.860105276107788,0.4260808825492859,0.0,-1.991971492767334,0.005073845386505127,9.308469772338867,1757.210693359375,1497.0401611328125,441.4547119140625,836.3983154296875,-5776,4.192100524902344,0.42523524165153503,-2.29788875579834,4380,-877
132328.399,0.00035501684760674834,-0.0005194763070903718,1.0,0.19791775941848755,0.010303742252290249,1.0219329595565796,37551.47265625,3.860105276107788,0.4260808825492859,0.0,-1.991971492767334,0.005073845386505127,9.257574081420898,2418.71630859375,1499.2255859375,302.799560546875,834.0078125,6424,4.192100524902344,0.42523524165153503,-2.29788875579834,4667,908
132330.377,0.00035501684760674834,-0.0005194763070903718,1.0,0.1978791505098343,0.010318751446902752,1.021972894668579,37551.47265625,3.860105276107788,0.4260808825492859,0.0,-1.991971492767334,0.005073845386505127,9.26216983795166,2359.7080078125,1502.190185546875,217.9967041015625,831.1981201171875,-8416,4.192100524902344,0.42523524165153503,-2.29788875579834,4442,-2390
132332.359,0.00035501684760674834,-0.0005194763070903718,1.0,0.1978791505098343,0.010318751446902752,1.021972894668579,37551.47265625,3.860105276107788,0.4260808825492859,0.0,-1.7545208930969238,-0.1280037760734558,12.034332275390625,2141.776123046875,1505.5091552734375,241.34893798828125,828.0744018554688,4064,4.152525424957275,0.4474148452281952,-2.3131790161132812,3787,-1032
132334.458,0.00046148430556058884,-0.0006730103050358593,1.0,0.1978791505098343,0.010318751446902752,1.021972894668579,37543.25390625,3.8942971229553223,0.43763652443885803,0.0,-1.5493698120117188,-0.05866992473602295,9.363163948059082,1408.1181640625,1508.1414794921875,422.3033142089844,824.9345092773438,12472,4.152525424957275,0.4474148452281952,-2.3131790161132812,3975,-1307
132336.315,0.00046148430556058884,-0.0006730103050358593,1.0,0.19778618216514587,0.010332785546779633,1.0219323635101318,37543.25390625,3.8942971229553223,0.43763652443885803,0.0,-1.5493698120117188,-0.05866992473602295,9.367790222167969,685.5538940429688,1509.2369384765625,230.728515625,821.5300903320312,13592,4.152525424957275,0.4474148452281952,-2.3131790161132812,5313,-680
132338.306,0.00046148430556058884,-0.0006730103050358593,1.0,0.19778618216514587,0.010332785546779633,1.0219323635101318,37543.25390625,3.8942971229553223,0.43763652443885803,0.0,-1.5493698120117188,-0.05866992473602295,9.372416496276855,558.1351318359375,1508.882080078125,308.71343994140625,818.0140991210938,-21536,4.152525424957275,0.4474148452281952,-2.3131790161132812,3679,-1246
132340.275,0.00046148430556058884,-0.0006730103050358593,1.0,0.19777244329452515,0.010253798216581345,1.021824836730957,37543.25390625,3.8942971229553223,0.43763652443885803,0.0,-1.5493698120117188,-0.05866992473602295,9.377042770385742,1556.53515625,1508.650146484375,612.5377807617188,814.8143920898438,-12044,4.152525424957275,0.4474148452281952,-2.3131790161132812,4917,-1127
132342.25,0.00046148430556058884,-0.0006730103050358593,1.0,0.19777244329452515,0.010253798216581345,1.021824836730957,37543.25390625,3.8942971229553223,0.43763652443885803,0.0,-1.5493698120117188,-0.05866992473602295,9.381669044494629,2395.787109375,1509.6385498046875,574.6007690429688,811.8316650390625,-11300,4.152525424957275,0.4474148452281952,-2.3131790161132812,5007,-2969
132344.359,0.0005900053074583411,-0.0008578276028856635,1.0,0.19777244329452515,0.010253798216581345,1.021824836730957,37571.71484375,3.9297611713409424,0.44840046763420105,0.0,-1.1714959144592285,-0.19238770008087158,11.870598793029785,2066.260986328125,1511.2022705078125,586.63037109375,809.0494995117188,-25376,4.1250104904174805,0.4804650843143463,-2.326904296875,4998,-1940
132346.217,0.0005900053074583411,-0.0008578276028856635,1.0,0.19777244329452515,0.010253798216581345,1.021824836730957,37571.71484375,3.9297611713409424,0.44840046763420105,0.0,-1.1714959144592285,-0.19238770008087158,9.473328590393066,1355.9041748046875,1512.2967529296875,782.0721435546875,806.6981201171875,6776,4.1250104904174805,0.4804650843143463,-2.326904296875,4024,-857
132348.191,0.0005900053074583411,-0.0008578276028856635,1.0,0.19768868386745453,0.010312807746231556,1.021713137626648,37571.71484375,3.9297611713409424,0.44840046763420105,0.0,-1.1714959144592285,-0.19238770008087158,9.477982521057129,1412.1038818359375,1513.07421875,457.77325439453125,804.2767333984375,-19792,4.1250104904174805,0.4804650843143463,-2.326904296875,4849,-2643
132350.17,0.0005900053074583411,-0.0008578276028856635,1.0,0.19768868386745453,0.010312807746231556,1.021713137626648,37571.71484375,3.9297611713409424,0.44840046763420105,0.0,-1.1714959144592285,-0.19238770008087158,9.482636451721191,1840.09228515625,1514.1568603515625,57.17144775390625,801.2667236328125,-19712,4.1250104904174805,0.4804650843143463,-2.326904296875,4687,-2020
132352.158,0.0005900053074583411,-0.0008578276028856635,1.0,0.19768868386745453,0.010312807746231556,1.021713137626648,37571.71484375,3.9297611713409424,0.44840046763420105,0.0,-1.1714959144592285,-0.19238770008087158,9.487290382385254,1805.727294921875,1515.4459228515625,197.03009033203125,797.9571533203125,-3752,4.1250104904174805,0.4804650843143463,-2.326904296875,5299,-679
132354.24,0.0007426184602081776,-0.0010771636152639985,1.0,0.1976429969072342,0.010279495269060135,1.0217041969299316,37553.87109375,4.095992565155029,0.47457265853881836,0.0,-0.17410755157470703,-0.035354554653167725,9.491944313049316,2278.380859375,1517.53466796875,341.73944091796875,794.5953979492188,-30608,4.1250104904174805,0.4804650843143463,-2.326904296875,3985,-1452
132356.114,0.0007426184602081776,-0.0010771636152639985,1.0,0.1976429969072342,0.010279495269060135,1.0217041969299316,37553.87109375,4.095992565155029,0.47457265853881836,0.0,0.004237174987792969,-0.1884831190109253,12.166378021240234,1184.7548828125,1518.829833984375,9.02105712890625,790.7516479492188,8176,4.0952863693237305,0.5059865117073059,-2.3416543006896973,3899,-2355
132358.088,0.0007426184602081776,-0.0010771636152639985,1.0,0.19769638776779175,0.010289874859154224,1.021721601486206,37553.87109375,4.095992565155029,0.47457265853881836,0.0,0.004237174987792969,-0.1884831190109253,9.589811325073242,1191.694091796875,1519.47216796875,539.5477294921875,787.21826171875,-888,4.0952863693237305,0.5059865117073059,-2.3416543006896973,4449,-2819
132360.064,0.0007426184602081776,-0.0010771636152639985,1.0,0.19769638776779175,0.010289874859154224,1.021721601486206,37553.87109375,4.095992565155029,0.47457265853881836,0.0,0.004237174987792969,-0.1884831190109253,9.594494819641113,1447.0511474609375,1519.91015625,904.474853515625,784.433837890625,10496,4.0952863693237305,0.5059865117073059,-2.3416543006896973,4934,-1786
132362.05,0.0007426184602081776,-0.0010771636152639985,1.0,0.19769638776779175,0.010289874859154224,1.021721601486206,37553.87109375,4.095992565155029,0.47457265853881836,0.0,0.004237174987792969,-0.1884831190109253,9.599178314208984,990.6046142578125,1519.5699462890625,843.2593994140625,782.1948852539062,17112,4.0952863693237305,0.5059865117073059,-2.3416543006896973,4837,-3981
132364.15,0.0009230730938725173,-0.0013351459056138992,1.0,0.197539284825325,0.010302210226655006,1.0216246843338013,37584.01171875,4.148263454437256,0.4905984103679657,0.0,0.31786251068115234,-0.09232860803604126,9.603861808776855,1587.8006591796875,1519.377685546875,732.521484375,780.2654418945312,-11552,4.0952863693237305,0.5059865117073059,-2.3416543006896973,4857,-275
132366.01,0.0009230730938725173,-0.0013351459056138992,1.0,0.197539284825325,0.010302210226655006,1.0216246843338013,37584.01171875,4.148263454437256,0.4905984103679657,0.0,0.44484615325927734,-0.2862258553504944,12.415599822998047,1965.2017822265625,1519.811279296875,627.5506591796875,778.4563598632812,32528,4.074122428894043,0.5383027195930481,-2.3571627140045166,4224,-2263
132367.995,0.0009230730938725173,-0.0013351459056138992,1.0,0.19748923182487488,0.01029813103377819,1.0215673446655273,37584.01171875,4.148263454437256,0.4905984103679657,0.0,0.44484615325927734,-0.2862258553504944,9.706341743469238,1891.4970703125,1520.6671142578125,963.3314208984375,777.197021484375,29296,4.074122428894043,0.5383027195930481,-2.3571627140045166,5274,-358
132369.963,0.0009230730938725173,-0.0013351459056138992,1.0,0.19748923182487488,0.01029813103377819,1.0215673446655273,37584.01171875,4.148263454437256,0.4905984103679657,0.0,0.44484615325927734,-0.2862258553504944,9.711055755615234,1647.451416015625,1521.548095703125,779.8870239257812,776.1524658203125,-29584,4.074122428894043,0.5383027195930481,-2.3571627140045166,3737,-1626
132371.94,0.0009230730938725173,-0.0013351459056138992,1.0,0.19748923182487488,0.01029813103377819,1.0215673446655273,37584.01171875,4.148263454437256,0.4905984103679657,0.0,0.44484615325927734,-0.2862258553504944,9.715770721435547,1767.9833984375,1522.6094970703125,579.626953125,775.0215454101562,-9832,4.074122428894043,0.5383027195930481,-2.3571627140045166,5569,-2459
132374.167,0.0011370921274647117,-0.00163919641636312,1.0,0.197524294257164,0.010209741070866585,1.0215404033660889,37569.80859375,3.906741142272949,0.47237372398376465,0.0,-1.001652717590332,-0.48371458053588867,12.415380477905273,1048.5582275390625,1522.8614501953125,643.4630126953125,773.9051513671875,-26400,4.073683261871338,0.5529928207397461,-2.372051477432251,3815,-1434
132375.903,0.0011370921274647117,-0.00163919641636312,1.0,0.197524294257164,0.010209741070866585,1.0215404033660889,37569.80859375,3.906741142272949,0.47237372398376465,0.0,-1.001652717590332,-0.48371458053588867,9.814591407775879,1995.173095703125,1523.7000732421875,1572.7119140625,774.0397338867188,-20368,4.073683261871338,0.5529928207397461,-2.372051477432251,5117,-1840
132377.886,0.0011370921274647117,-0.00163919641636312,1.0,0.197524294257164,0.010209741070866585,1.0215404033660889,37569.80859375,3.906741142272949,0.47237372398376465,0.0,-0.9579591751098633,-0.4822862148284912,9.901758193969727,1360.2314453125,1524.180419921875,1914.92626953125,775.6708984375,-5432,4.06640100479126,0.5527547597885132,-2.372506856918335,3522,-1957
132379.858,0.0011370921274647117,-0.00163919641636312,1.0,0.19746775925159454,0.01026786956936121,1.0214061737060547,37569.80859375,3.906741142272949,0.47237372398376465,0.0,-0.9579591751098633,-0.4822862148284912,9.826812744140625,813.097900390625,1523.63330078125,1308.635009765625,777.738037109375,17200,4.06640100479126,0.5527547597885132,-2.372506856918335,5179,-747
132381.84,0.0011370921274647117,-0.00163919641636312,1.0,0.19746775925159454,0.01026786956936121,1.0214061737060547,37569.80859375,3.906741142272949,0.47237372398376465,0.0,-0.8924961090087891,-0.43377184867858887,12.300973892211914,1005.59423828125,1522.4881591796875,471.7801513671875,779.0509643554688,12032,4.055490493774414,0.5446690320968628,-2.3861498832702637,3442,-157
132383.951,0.0013784904731437564,-0.0019819356966763735,1.0,0.19746775925159454,0.01026786956936121,1.0214061737060547,37577.00390625,3.9512829780578613,0.48617205023765564,0.0,-0.6252450942993164,-0.3509818911552429,9.91821575164795,1606.578125,1521.6470947265625,169.708251953125,779.3322143554688,-18544,4.055490493774414,0.5446690320968628,-2.3861498832702637,5562,-1012
132385.799,0.0013784904731437564,-0.0019819356966763735,1.0,0.1974533051252365,0.010251719504594803,1.0214406251907349,37577.00390625,3.9512829780578613,0.48617205023765564,0.0,-0.6252450942993164,-0.3509818911552429,9.922987937927246,1646.490478515625,1521.1134033203125,499.4545593261719,779.1936645507812,7328,4.055490493774414,0.5446690320968628,-2.3861498832702637,4038,269
132387.782,0.0013784904731437564,-0.0019819356966763735,1.0,0.1974533051252365,0.010251719504594803,1.0214406251907349,37577.00390625,3.9512829780578613,0.48617205023765564,0.0,-0.5841608047485352,-0.3480972647666931,9.990938186645508,1728.1265869140625,1520.94482421875,1154.428466796875,779.5779418945312,4752,4.048643112182617,0.5441882610321045,-2.3864989280700684,3925,-1634
132389.76,0.0013784904731437564,-0.0019819356966763735,1.0,0.1974533051252365,0.010251719504594803,1.0214406251907349,37577.00390625,3.9512829780578613,0.48617205023765564,0.0,-0.5841608047485352,-0.3480972647666931,9.9346284866333,1260.67333984375,1520.4580078125,1204.138427734375,780.463134765625,-29128,4.048643112182617,0.5441882610321045,-2.3864989280700684,3884,-700
132391.74,0.0013784904731437564,-0.0019819356966763735,1.0,0.19748856127262115,0.010266875848174095,1.0214542150497437,37577.00390625,3.9512829780578613,0.48617205023765564,0.0,-0.5829191207885742,-0.3012848496437073,12.353837013244629,913.4948120117188,1519.24462890625,1045.257568359375,781.5523681640625,896,4.048436164855957,0.5363861918449402,-2.3998382091522217,3194,-219
132393.93,0.0016614486230537295,-0.0023824519012123346,1.0,0.19748856127262115,0.010266875848174095,1.0214542150497437,37621.71875,3.9921178817749023,0.5044628977775574,0.0,-0.3379096984863281,-0.19153976440429688,10.024263381958008,1837.73583984375,1518.658935546875,1259.6700439453125,783.0955200195312,21216,4.048436164855957,0.5363861918449402,-2.3998382091522217,4956,-1104
132395.692,0.0016614486230537295,-0.0023824519012123346,1.0,0.19733107089996338,0.010252784937620163,1.0212515592575073,37621.71875,3.9921178817749023,0.5044628977775574,0.0,-0.3379096984863281,-0.19153976440429688,10.02906322479248,1481.9512939453125,1518.1226806640625,1147.9464111328125,784.8656005859375,-21208,4.048436164855957,0.5363861918449402,-2.3998382091522217,4044,-1074
132397.672,0.0016614486230537295,-0.0023824519012123346,1.0,0.19733107089996338,0.010252784937620163,1.0212515592575073,37621.71875,3.9921178817749023,0.5044628977775574,0.0,-0.3379096984863281,-0.19153976440429688,10.033863067626953,715.47021484375,1516.6075439453125,989.8587646484375,786.6116943359375,11904,4.048436164855957,0.5363861918449402,-2.3998382091522217,3162,341
132399.655,0.0016614486230537295,-0.0023824519012123346,1.0,0.19733107089996338,0.010252784937620163,1.0212515592575073,37621.71875,3.9921178817749023,0.5044628977775574,0.0,-0.3379096984863281,-0.19153976440429688,10.038662910461426,1076.0882568359375,1514.760009765625,1182.112060546875,788.5913696289062,12512,4.048436164855957,0.5363861918449402,-2.3998382091522217,3466,-737
132401.629,0.0016614486230537295,-0.0023824519012123346,1.0,0.19730247557163239,0.010259854607284069,1.0212575197219849,37621.71875,3.9921178817749023,0.5044628977775574,0.0,-0.3379096984863281,-0.19153976440429688,10.043462753295898,1049.205322265625,1512.6025390625,994.933349609375,790.513671875,3752,4.048436164855957,0.5363861918449402,-2.3998382091522217,4812,-1051
132403.721,0.0019777470733970404,-0.00283012050203979,1.0,0.19730247557163239,0.010259854607284069,1.0212575197219849,37606.390625,4.1514410972595215,0.5426548719406128,0.0,0.6180295944213867,0.037612080574035645,10.048262596130371,1800.72021484375,1511.1907958984375,934.279052734375,792.304931640625,-6512,4.048436164855957,0.5363861918449402,-2.3998382091522217,4106,32
132405.712,0.0019777470733970404,-0.00283012050203979,1.0,0.19730247557163239,0.010259854607284069,1.0212575197219849,37606.390625,4.1514410972595215,0.5426548719406128,0.0,0.6193914413452148,0.15007710456848145,13.202156066894531,1956.3692626953125,1510.6085205078125,1377.0166015625,794.57421875,14744,4.048209190368652,0.5176420211791992,-2.417236328125,3709,-144
132407.58,0.0019777470733970404,-0.00283012050203979,1.0,0.19733864068984985,0.010212736204266548,1.0211610794067383,37606.390625,4.1514410972595215,0.5426548719406128,0.0,0.6193914413452148,0.15007710456848145,10.162321090698242,2001.123779296875,1510.7772216796875,1877.1065673828125,797.9041748046875,-24896,4.048209190368652,0.5176420211791992,-2.417236328125,3400,-758
132409.547,0.0019777470733970404,-0.00283012050203979,1.0,0.19733864068984985,0.010212736204266548,1.0211610794067383,37606.390625,4.1514410972595215,0.5426548719406128,0.0,0.6193914413452148,0.15007710456848145,10.167156219482422,1356.018310546875,1510.7115478515625,1884.0028076171875,802.1217041015625,9904,4.048209190368652,0.5176420211791992,-2.417236328125,5004,-1936
132411.526,0.0019777470733970404,-0.00283012050203979,1.0,0.19733864068984985,0.010212736204266548,1.0211610794067383,37606.390625,4.1514410972595215,0.5426548719406128,0.0,0.6193914413452148,0.15007710456848145,10.171990394592285,917.9998779296875,1509.86767578125,1396.84716796875,806.4235229492188,7280,4.048209190368652,0.5176420211791992,-2.417236328125,3674,-573
132413.616,0.0023412599693983793,-0.003339360235258937,1.0,0.1973249614238739,0.010251698084175587,1.0211074352264404,37656.0625,3.9245588779449463,0.5360890030860901,0.0,-0.8140769004821777,0.2694334387779236,12.781009674072266,-258.718017578125,1506.8104248046875,811.9010009765625,810.0109252929688,-5808,4.060238361358643,0.49118342995643616,-2.431623935699463,2803,-2372
132415.506,0.0023412599693983793,-0.003339360235258937,1.0,0.1973249614238739,0.010251698084175587,1.0211074352264404,37656.0625,3.9245588779449463,0.5360890030860901,0.0,-0.8140769004821777,0.2694334387779236,10.26804256439209,424.7662353515625,1502.8253173828125,458.37701416015625,812.5281982421875,16000,4.060238361358643,0.49118342995643616,-2.431623935699463,2529,-267
132417.586,0.0023412599693983793,-0.003339360235258937,1.0,0.1973249614238739,0.010251698084175587,1.0211074352264404,37656.0625,3.9245588779449463,0.5360890030860901,0.0,-0.8140769004821777,0.2694334387779236,10.272905349731445,631.7432861328125,1498.348876953125,784.4403076171875,814.5857543945312,-9488,4.060238361358643,0.49118342995643616,-2.431623935699463,3126,-305
132419.445,0.0023412599693983793,-0.003339360235258937,1.0,0.1973617523908615,0.010209317319095135,1.021088719367981,37656.0625,3.9245588779449463,0.5360890030860901,0.0,-0.8140769004821777,0.2694334387779236,10.277769088745117,1747.3209228515625,1494.9549560546875,1322.947509765625,816.9749755859375,13920,4.060238361358643,0.49118342995643616,-2.431623935699463,3659,-269
132421.428,0.0023412599693983793,-0.003339360235258937,1.0,0.1973617523908615,0.010209317319095135,1.021088719367981,37656.0625,3.9245588779449463,0.5360890030860901,0.0,-0.8140769004821777,0.2694334387779236,10.282632827758789,2622.582275390625,1493.6319580078125,1544.766357421875,819.9324340820312,16752,4.060238361358643,0.49118342995643616,-2.431623935699463,3133,-659
132423.517,0.002750908024609089,-0.003913115710020065,1.0,0.19727566838264465,0.010202769190073013,1.0209789276123047,37646.6484375,3.9674322605133057,0.5670241713523865,0.0,-0.7128853797912598,0.6068091988563538,13.193328857421875,2488.956298828125,1493.8563232421875,1299.45458984375,823.0322875976562,-5280,4.086246490478516,0.4658893048763275,-2.4476780891418457,3582,297
132425.49,0.002750908024609089,-0.003913115710020065,1.0,0.19727566838264465,0.010202769190073013,1.0209789276123047,37646.6484375,3.9674322605133057,0.5670241713523865,0.0,-0.7128853797912598,0.6068091988563538,10.388748168945312,1117.22607421875,1493.54150390625,598.9461669921875,825.3135986328125,-15424,4.086246490478516,0.4658893048763275,-2.4476780891418457,3951,115
132427.368,0.002750908024609089,-0.003913115710020065,1.0,0.19727566838264465,0.010202769190073013,1.0209789276123047,37646.6484375,3.9674322605133057,0.5670241713523865,0.0,-0.7128853797912598,0.6068091988563538,10.39364242553711,-29.5775146484375,1491.2513427734375,936.8552856445312,827.3607788085938,32136,4.086246490478516,0.4658893048763275,-2.4476780891418457,4365,-1653
132429.333,0.002750908024609089,-0.003913115710020065,1.0,0.19730234146118164,0.010201159864664078,1.0208817720413208,37646.6484375,3.9674322605133057,0.5670241713523865,0.0,-0.7128853797912598,0.6068091988563538,10.398538589477539,130.6087646484375,1487.53369140625,1552.615966796875,830.0301513671875,31080,4.086246490478516,0.4658893048763275,-2.4476780891418457,3873,-432
132431.317,0.002750908024609089,-0.003913115710020065,1.0,0.19730234146118164,0.010201159864664078,1.0208817720413208,37646.6484375,3.9674322605133057,0.5670241713523865,0.0,-0.7128853797912598,0.6068091988563538,10.403432846069336,1222.58203125,1484.0870361328125,1653.1982421875,833.3477172851562,-17408,4.086246490478516,0.4658893048763275,-2.4476780891418457,4848,-1747
132433.407,0.0032094581983983517,-0.00455355504527688,1.0,0.19730234146118164,0.010201159864664078,1.0208817720413208,37662.03515625,4.003663063049316,0.6012290716171265,0.0,-0.5456027984619141,0.9307007789611816,12.873946189880371,2119.7783203125,1482.06494140625,1070.0540771484375,836.4239501953125,-6384,4.094596862792969,0.4461122751235962,-2.4613001346588135,3538,-167
132435.28,0.0032094581983983517,-0.00455355504527688,1.0,0.1974356472492218,0.010240081697702408,1.0207780599594116,37662.03515625,4.003663063049316,0.6012290716171265,0.0,-0.5456027984619141,0.9307007789611816,10.495010375976562,2027.869384765625,1481.1090087890625,313.56732177734375,838.2877807617188,31040,4.094596862792969,0.4461122751235962,-2.4613001346588135,3851,230
132437.253,0.0032094581983983517,-0.00455355504527688,1.0,0.1974356472492218,0.010240081697702408,1.0207780599594116,37662.03515625,4.003663063049316,0.6012290716171265,0.0,-0.5039205551147461,0.9330167770385742,10.452852249145508,1267.3333740234375,1480.02880859375,471.8060607910156,839.3509521484375,-29616,4.087649822235107,0.44572627544403076,-2.4610400199890137,3462,646
132439.238,0.0032094581983983517,-0.00455355504527688,1.0,0.1974356472492218,0.010240081697702408,1.0207780599594116,37662.03515625,4.003663063049316,0.6012290716171265,0.0,-0.5039205551147461,0.9330167770385742,10.503293991088867,839.7957763671875,1478.2772216796875,926.2003784179688,840.351318359375,-192,4.087649822235107,0.44572627544403076,-2.4610400199890137,4319,-209
132441.216,0.0032094581983983517,-0.00455355504527688,1.0,0.19730688631534576,0.010164136998355389,1.020775318145752,37662.03515625,4.003663063049316,0.6012290716171265,0.0,-0.5039205551147461,0.9330167770385742,10.508214950561523,1293.7843017578125,1476.573974609375,1357.61181640625,841.8726806640625,-2752,4.087649822235107,0.44572627544403076,-2.4610400199890137,3854,-1129
132443.303,0.003721491899341345,-0.00526728481054306,1.0,0.19730688631534576,0.010164136998355389,1.020775318145752,37687.54296875,4.005956649780273,0.6361654996871948,0.0,-0.5695552825927734,1.2076115608215332,12.091504096984863,1951.709228515625,1475.7890625,1437.972412109375,843.9324951171875,8960,4.100882530212402,0.43489691615104675,-2.4697601795196533,4600,-1828
132445.174,0.003721491899341345,-0.00526728481054306,1.0,0.19738930463790894,0.010243565775454044,1.0206273794174194,37687.54296875,4.005956649780273,0.6361654996871948,0.0,-0.5695552825927734,1.2076115608215332,10.570415496826172,2006.361328125,1475.8424072265625,1063.4482421875,845.9390258789062,-29048,4.100882530212402,0.43489691615104675,-2.4697601795196533,3882,-945
132447.161,0.003721491899341345,-0.00526728481054306,1.0,0.19738930463790894,0.010243565775454044,1.0206273794174194,37687.54296875,4.005956649780273,0.6361654996871948,0.0,-0.5695552825927734,1.2076115608215332,10.575355529785156,1985.180908203125,1476.56494140625,1004.5574951171875,847.8201904296875,32584,4.100882530212402,0.43489691615104675,-2.4697601795196533,5775,-2148
132449.189,0.003721491899341345,-0.00526728481054306,1.0,0.19738930463790894,0.010243565775454044,1.0206273794174194,37687.54296875,4.005956649780273,0.6361654996871948,0.0,-0.5695552825927734,1.2076115608215332,10.58029556274414,1889.095458984375,1477.7154541015625,951.0118408203125,849.5230712890625,-30264,4.100882530212402,0.43489691615104675,-2.4697601795196533,3968,-107
132451.105,0.003721491899341345,-0.00526728481054306,1.0,0.19729429483413696,0.010384400375187397,1.0202232599258423,37687.54296875,4.005956649780273,0.6361654996871948,0.0,-0.5695552825927734,1.2076115608215332,10.585234642028809,1306.1619873046875,1478.4447021484375,495.76300048828125,850.46923828125,4488,4.100882530212402,0.43489691615104675,-2.4697601795196533,3956,-856
132453.269,0.004293946549296379,-0.006064592394977808,1.0,0.19729429483413696,0.010384400375187397,1.0202232599258423,37673.8515625,4.156294822692871,0.6931555271148682,0.0,0.3324737548828125,1.5495517253875732,10.590173721313477,1634.009521484375,1479.2586669921875,214.86871337890625,850.4102783203125,96,4.100882530212402,0.43489691615104675,-2.4697601795196533,4348,-500
132455.068,0.004293946549296379,-0.006064592394977808,1.0,0.19729429483413696,0.010384400375187397,1.0202232599258423,37673.8515625,4.156294822692871,0.6931555271148682,0.0,0.4249076843261719,1.566833257675171,12.096406936645508,1183.894775390625,1479.542724609375,140.88494873046875,849.4164428710938,-19872,4.085476875305176,0.43201664090156555,-2.4780545234680176,3555,-566
132457.116,0.004293946549296379,-0.006064592394977808,1.0,0.19739636778831482,0.01027894951403141,1.020448088645935,37673.8515625,4.156294822692871,0.6931555271148682,0.0,0.4249076843261719,1.566833257675171,10.649852752685547,1807.0821533203125,1480.21533203125,979.0687255859375,848.761962890625,22688,4.085476875305176,0.43201664090156555,-2.4780545234680176,3430,-1597
132459.022,0.004293946549296379,-0.006064592394977808,1.0,0.19739636778831482,0.01027894951403141,1.020448088645935,37673.8515625,4.156294822692871,0.6931555271148682,0.0,0.4249076843261719,1.566833257675171,10.654808044433594,2454.918212890625,1482.072998046875,1331.822998046875,848.8605346679688,-17216,4.085476875305176,0.43201664090156555,-2.4780545234680176,3657,-36
132461.003,0.004293946549296379,-0.006064592394977808,1.0,0.19739636778831482,0.01027894951403141,1.020448088645935,37673.8515625,4.156294822692871,0.6931555271148682,0.0,0.4249076843261719,1.566833257675171,10.659765243530273,2266.388916015625,1484.6632080078125,1018.756103515625,849.1688232421875,11136,4.085476875305176,0.43201664090156555,-2.4780545234680176,3806,-676
132463.085,0.00491722347214818,-0.006928140763193369,1.0,0.19741028547286987,0.010220185853540897,1.0203759670257568,37691.64453125,4.159341335296631,0.7359158992767334,0.0,0.44318675994873047,1.8233954906463623,10.66472053527832,1273.6976318359375,1486.5380859375,1122.864013671875,849.789794921875,27104,4.085476875305176,0.43201664090156555,-2.4780545234680176,5631,-2569
132464.955,0.00491722347214818,-0.006928140763193369,1.0,0.19741028547286987,0.010220185853540897,1.0203759670257568,37691.64453125,4.159341335296631,0.7359158992767334,0.0,0.5057029724121094,1.7029321193695068,12.539852142333984,1170.801513671875,1487.677978515625,424.9904479980469,849.740966796875,21440,4.075057506561279,0.45209386944770813,-2.488386869430542,5144,-1258
132466.947,0.00491722347214818,-0.006928140763193369,1.0,0.19741028547286987,0.010220185853540897,1.0203759670257568,37691.64453125,4.159341335296631,0.7359158992767334,0.0,0.5057029724121094,1.7029321193695068,10.73666763305664,1794.04248046875,1489.034423828125,282.96051025390625,848.9456176757812,15312,4.075057506561279,0.45209386944770813,-2.488386869430542,4052,-1393
132468.959,0.00491722347214818,-0.006928140763193369,1.0,0.19746874272823334,0.010138267651200294,1.0203124284744263,37691.64453125,4.159341335296631,0.7359158992767334,0.0,0.5057029724121094,1.7029321193695068,10.741644859313965,1962.143798828125,1490.7933349609375,385.5934143066406,847.666748046875,-17744,4.075057506561279,0.45209386944770813,-2.488386869430542,3490,644
132470.896,0.00491722347214818,-0.006928140763193369,1.0,0.19746874272823334,0.010138267651200294,1.0203124284744263,37691.64453125,4.159341335296631,0.7359158992767334,0.0,0.5057029724121094,1.7029321193695068,10.746622085571289,1934.749755859375,1492.8482666015625,499.1737060546875,846.1383666992188,-32320,4.075057506561279,0.45209386944770813,-2.488386869430542,5065,-945
132472.987,0.0056102080270648,-0.007884597405791283,1.0,0.19743672013282776,0.010190639644861221,1.0202720165252686,37679.51171875,4.155797481536865,0.7839444875717163,0.0,0.4844398498535156,1.9911036491394043,10.751598358154297,1337.4296875,1494.3515625,388.80596923828125,844.2574462890625,23360,4.075057506561279,0.45209386944770813,-2.488386869430542,4442,-1668
132474.854,0.0056102080270648,-0.007884597405791283,1.0,0.19743672013282776,0.010190639644861221,1.0202720165252686,37679.51171875,4.155797481536865,0.7839444875717163,0.0,0.4844398498535156,1.9911036491394043,10.756574630737305,1119.276123046875,1495.1031494140625,531.7943115234375,842.276123046875,-16416,4.075057506561279,0.45209386944770813,-2.488386869430542,4032,-781
132476.84,0.0056102080270648,-0.007884597405791283,1.0,0.19743672013282776,0.010190639644861221,1.0202720165252686,37679.51171875,4.155797481536865,0.7839444875717163,0.0,0.5532932281494141,1.7983014583587646,12.736333847045898,1533.5582275390625,1495.7799072265625,1190.02392578125,841.0902099609375,22736,4.063581943511963,0.48422756791114807,-2.4992971420288086,4119,-1074
132478.825,0.0056102080270648,-0.007884597405791283,1.0,0.19751085340976715,0.010163739323616028,1.0202046632766724,37679.51171875,4.155797481536865,0.7839444875717163,0.0,0.5532932281494141,1.7983014583587646,10.832035064697266,2589.76220703125,1497.7998046875,1569.77392578125,841.073486328125,25328,4.063581943511963,0.48422756791114807,-2.4992971420288086,3694,-638
132480.83,0.0056102080270648,-0.007884597405791283,1.0,0.19751085340976715,0.010163739323616028,1.0202046632766724,37679.51171875,4.155797481536865,0.7839444875717163,0.0,0.5532932281494141,1.7983014583587646,10.83703327178955,2958.373046875,1501.4256591796875,545.3020629882812,840.6658325195312,-30304,4.063581943511963,0.48422756791114807,-2.4992971420288086,5576,-989
132482.887,0.00636968994513154,-0.008929095230996609,1.0,0.19751085340976715,0.010163739323616028,1.0202046632766724,37700.20703125,4.148244857788086,0.8374502658843994,0.0,0.5079774856567383,2.1193361282348633,10.842031478881836,2031.0032958984375,1505.1483154296875,-237.82403564453125,838.8904418945312,1264,4.063581943511963,0.48422756791114807,-2.4992971420288086,3570,-271
132484.75,0.00636968994513154,-0.008929095230996609,1.0,0.19742101430892944,0.010290190577507019,1.019816517829895,37700.20703125,4.148244857788086,0.8374502658843994,0.0,0.5079774856567383,2.1193361282348633,10.847030639648438,715.7938842773438,1507.1953125,-77.97100830078125,836.1920776367188,-32176,4.063581943511963,0.48422756791114807,-2.4992971420288086,3506,645
132486.741,0.00636968994513154,-0.008929095230996609,1.0,0.19742101430892944,0.010290190577507019,1.019816517829895,37700.20703125,4.148244857788086,0.8374502658843994,0.0,0.6203784942626953,1.904881238937378,12.98846435546875,777.9006958007812,1507.927734375,549.6883544921875,833.56494140625,28032,4.044848442077637,0.5199700593948364,-2.5111005306243896,5589,-1422
132488.731,0.00636968994513154,-0.008929095230996609,1.0,0.19742101430892944,0.010290190577507019,1.019816517829895,37700.20703125,4.148244857788086,0.8374502658843994,0.0,0.6203784942626953,1.904881238937378,10.927894592285156,1895.998291015625,1509.0540771484375,747.8753662109375,831.2645263671875,14416,4.044848442077637,0.5199700593948364,-2.5111005306243896,5031,-1511
132490.689,0.00636968994513154,-0.008929095230996609,1.0,0.19750270247459412,0.010146520100533962,1.0200387239456177,37700.20703125,4.148244857788086,0.8374502658843994,0.0,0.6203784942626953,1.904881238937378,10.932916641235352,2793.7255859375,1511.7020263671875,582.330322265625,829.0185546875,25472,4.044848442077637,0.5199700593948364,-2.5111005306243896,4906,-2054
132492.769,0.007200445514172316,-0.010067343711853027,1.0,0.19750270247459412,0.010146520100533962,1.0200387239456177,37732.22265625,4.146739959716797,0.8920027613639832,0.0,0.6113491058349609,2.23219633102417,10.937938690185547,2519.45751953125,1515.2476806640625,804.622802734375,827.1168823242188,14400,4.044848442077637,0.5199700593948364,-2.5111005306243896,5342,-1213
132494.648,0.007200445514172316,-0.010067343711853027,1.0,0.19750270247459412,0.010146520100533962,1.0200387239456177,37732.22265625,4.146739959716797,0.8920027613639832,0.0,0.6113491058349609,2.23219633102417,10.942960739135742,1919.147705078125,1518.7362060546875,655.0092163085938,825.30517578125,31264,4.044848442077637,0.5199700593948364,-2.5111005306243896,4042,-1406
132496.629,0.007200445514172316,-0.010067343711853027,1.0,0.19754165410995483,0.010106673464179039,1.0199823379516602,37732.22265625,4.146739959716797,0.8920027613639832,0.0,0.6113491058349609,2.23219633102417,10.947982788085938,1644.535400390625,1521.8070068359375,705.38037109375,823.6376342773438,-20528,4.044848442077637,0.5199700593948364,-2.5111005306243896,4749,-1483
132498.608,0.007200445514172316,-0.010067343711853027,1.0,0.19754165410995483,0.010106673464179039,1.0199823379516602,37732.22265625,4.146739959716797,0.8920027613639832,0.0,0.7614126205444336,1.9781123399734497,13.013404846191406,1934.80419921875,1524.9124755859375,109.07696533203125,821.2984619140625,-21032,4.019837856292725,0.5623173713684082,-2.5224838256835938,4742,-1632
132500.586,0.007200445514172316,-0.010067343711853027,1.0,0.1976412981748581,0.010041163302958012,1.0199048519134521,37732.22265625,4.146739959716797,0.8920027613639832,0.0,0.7614126205444336,1.9781123399734497,11.026372909545898,1949.14306640625,1528.0618896484375,-352.0035400390625,817.7894287109375,-4544,4.019837856292725,0.5623173713684082,-2.5224838256835938,3776,-316
132502.668,0.008107420057058334,-0.011305795051157475,1.0,0.1976412981748581,0.010041163302958012,1.0199048519134521,37723.80859375,4.192124366760254,0.9558056592941284,0.0,1.0337190628051758,2.3609297275543213,11.031417846679688,1543.102783203125,1530.702880859375,-179.1011962890625,813.5416870117188,-32256,4.019837856292725,0.5623173713684082,-2.5224838256835938,4766,-2255
132504.54,0.008107420057058334,-0.011305795051157475,1.0,0.1976412981748581,0.010041163302958012,1.0199048519134521,37723.80859375,4.192124366760254,0.9558056592941284,0.0,1.0337190628051758,2.3609297275543213,11.036462783813477,1224.434326171875,1532.492919921875,358.4261474609375,809.400634765625,22240,4.019837856292725,0.5623173713684082,-2.5224838256835938,5170,-577
132506.529,0.008107420057058334,-0.011305795051157475,1.0,0.1976011097431183,0.010051901452243328,1.0198620557785034,37723.80859375,4.192124366760254,0.9558056592941284,0.0,1.0337190628051758,2.3609297275543213,11.041507720947266,1905.312744140625,1534.47900390625,1317.8218994140625,806.63134765625,2208,4.019837856292725,0.5623173713684082,-2.5224838256835938,4890,-2950
