timestamp,posCtl.targetX,posCtl.targetY,posCtl.targetZ,locSrv.x,locSrv.y,locSrv.z,controller.actuatorThrust,controller.pitch,controller.roll,controller.yaw,pid_attitude.pitch_output,pid_attitude.roll_output,pid_attitude.yaw_output,pid_rate.pitch_output,pid_rate.pitch_outI,pid_rate.roll_output,pid_rate.roll_outI,pid_rate.yaw_output,stateEstimate.pitch,stateEstimate.roll,stateEstimate.yaw,snn_control.torque_pitch,snn_control.torque_roll
41777.835,2.247419672585238e-08,-2.0369797937291878e-07,1.0,0.08521348237991333,-0.004939358681440353,1.0218923091888428,38317.5859375,1.7338552474975586,-0.010444574058055878,0.0,-0.39470672607421875,-0.016746077686548233,5.752353668212891,3491.755615234375,2580.77392578125,2446.6044921875,2623.683349609375,-24945,1.7996397018432617,-0.00765356095507741,-1.9133729934692383,2430,-1198
41779.705,2.247419672585238e-08,-2.0369797937291878e-07,1.0,0.08540195971727371,-0.0050288038328289986,1.0218629837036133,38317.5859375,1.7338552474975586,-0.010444574058055878,0.0,-0.39470672607421875,-0.016746077686548233,5.756180286407471,2528.587646484375,2582.8662109375,2429.60546875,2622.48583984375,-9604,1.7996397018432617,-0.00765356095507741,-1.9133729934692383,1815,-1857
41781.677,2.247419672585238e-08,-2.0369797937291878e-07,1.0,0.08540195971727371,-0.0050288038328289986,1.0218629837036133,38317.5859375,1.7338552474975586,-0.010444574058055878,0.0,-0.39470672607421875,-0.016746077686548233,5.760006904602051,1575.46875,2583.26611328125,2450.287841796875,2621.260009765625,-24544,1.7996397018432617,-0.00765356095507741,-1.9133729934692383,1949,-1243
41783.662,2.247419672585238e-08,-2.0369797937291878e-07,1.0,0.08544030785560608,-0.005028473678976297,1.0216913223266602,38317.5859375,1.7338552474975586,-0.010444574058055878,0.0,-0.39470672607421875,-0.016746077686548233,5.763833522796631,2254.614013671875,2583.1611328125,2554.763916015625,2620.151123046875,-19171,1.7996397018432617,-0.00765356095507741,-1.9133729934692383,2394,-293
41785.635,2.247419672585238e-08,-2.0369797937291878e-07,1.0,0.08544030785560608,-0.005028473678976297,1.0216913223266602,38317.5859375,1.7338552474975586,-0.010444574058055878,0.0,-0.39470672607421875,-0.016746077686548233,5.767660140991211,2755.306884765625,2583.30322265625,2794.91015625,2619.4609375,-1507,1.7996397018432617,-0.00765356095507741,-1.9133729934692383,1948,-1629
41787.775,1.9748576107758709e-07,-4.6826815491840534e-07,1.0,0.08544030785560608,-0.005028473678976297,1.0216913223266602,38330.23828125,1.7689285278320312,-0.023722775280475616,0.0,-0.0722193717956543,-0.1684870421886444,4.292935848236084,3192.291748046875,2584.232421875,2972.2470703125,2619.356689453125,4714,1.7809650897979736,0.004358400125056505,-1.9052042961120605,2846,599
41789.593,1.9748576107758709e-07,-4.6826815491840534e-07,1.0,0.0855918675661087,-0.0051130130887031555,1.0218524932861328,38330.23828125,1.7689285278320312,-0.023722775280475616,0.0,-0.0722193717956543,-0.1684870421886444,5.726268768310547,3185.34423828125,2585.805908203125,2621.435791015625,2619.2724609375,6065,1.7809650897979736,0.004358400125056505,-1.9052042961120605,934,-3258
41791.572,1.9748576107758709e-07,-4.6826815491840534e-07,1.0,0.0855918675661087,-0.0051130130887031555,1.0218524932861328,38330.23828125,1.7689285278320312,-0.023722775280475616,0.0,-0.0722193717956543,-0.1684870421886444,5.730079174041748,1976.8037109375,2586.3046875,2146.64599609375,2618.572998046875,-14538,1.7809650897979736,0.004358400125056505,-1.9052042961120605,2287,-2070
41793.551,1.9748576107758709e-07,-4.6826815491840534e-07,1.0,0.0855918675661087,-0.0051130130887031555,1.0218524932861328,38330.23828125,1.7689285278320312,-0.023722775280475616,0.0,-0.0722193717956543,-0.1684870421886444,5.733889579772949,2563.900390625,2586.68994140625,2514.204345703125,2617.85205078125,-18007,1.7809650897979736,0.004358400125056505,-1.9052042961120605,1872,-631
41795.53,1.9748576107758709e-07,-4.6826815491840534e-07,1.0,0.0854678824543953,-0.005053670145571232,1.021730661392212,38330.23828125,1.7689285278320312,-0.023722775280475616,0.0,-0.0722193717956543,-0.1684870421886444,5.73769998550415,3875.44775390625,2588.7265625,3038.7568359375,2617.8125,-13665,1.7809650897979736,0.004358400125056505,-1.9052042961120605,2361,-982
41797.619,8.5956116890884e-07,-1.4671998087578686e-06,1.0,0.0854678824543953,-0.005053670145571232,1.021730661392212,38272.5078125,1.8226230144500732,-0.03799145296216011,0.0,0.30425405502319336,-0.270361065864563,4.876246452331543,3140.216796875,2591.15576171875,3040.821044921875,2618.342529296875,10408,1.771914005279541,0.007068725768476725,-1.9004238843917847,1777,-2027
41799.486,8.5956116890884e-07,-1.4671998087578686e-06,1.0,0.0854678824543953,-0.005053670145571232,1.021730661392212,38272.5078125,1.8226230144500732,-0.03799145296216011,0.0,0.30425405502319336,-0.270361065864563,5.71661901473999,1737.6697998046875,2592.041015625,2273.46240234375,2618.32470703125,21087,1.771914005279541,0.007068725768476725,-1.9004238843917847,1362,-2112
41801.465,8.5956116890884e-07,-1.4671998087578686e-06,1.0,0.08570057898759842,-0.0050445967353880405,1.0212733745574951,38272.5078125,1.8226230144500732,-0.03799145296216011,0.0,0.30425405502319336,-0.270361065864563,5.720419883728027,1723.6982421875,2591.621337890625,1667.834228515625,2617.044189453125,-32764,1.771914005279541,0.007068725768476725,-1.9004238843917847,1440,-1489
41803.445,8.5956116890884e-07,-1.4671998087578686e-06,1.0,0.08570057898759842,-0.0050445967353880405,1.0212733745574951,38272.5078125,1.8226230144500732,-0.03799145296216011,0.0,0.30425405502319336,-0.270361065864563,5.7242207527160645,1989.226318359375,2590.469970703125,1733.207763671875,2614.8017578125,-9463,1.771914005279541,0.007068725768476725,-1.9004238843917847,1892,-437
41805.423,8.5956116890884e-07,-1.4671998087578686e-06,1.0,0.08570057898759842,-0.0050445967353880405,1.0212733745574951,38272.5078125,1.8226230144500732,-0.03799145296216011,0.0,0.30425405502319336,-0.270361065864563,5.728021621704102,2418.8388671875,2589.283447265625,2279.69140625,2612.489013671875,23200,1.771914005279541,0.007068725768476725,-1.9004238843917847,3096,-805
41807.539,2.5459810331085464e-06,-4.007287770946277e-06,1.0,0.08570057898759842,-0.0050445967353880405,1.0212733745574951,38276.19140625,1.7834229469299316,-0.04356751963496208,0.0,0.09072017669677734,-0.32980018854141235,4.328640937805176,2681.8955078125,2588.419189453125,2589.461181640625,2610.53369140625,5180,1.7683029174804688,0.011399179697036743,-1.8926715850830078,1437,-601
41809.38,2.5459810331085464e-06,-4.007287770946277e-06,1.0,0.08568596094846725,-0.005086703225970268,1.0216950178146362,38276.19140625,1.7834229469299316,-0.04356751963496208,0.0,0.09072017669677734,-0.32980018854141235,5.689078330993652,3065.32080078125,2588.3349609375,2756.300048828125,2609.1005859375,26088,1.7683029174804688,0.011399179697036743,-1.8926715850830078,1755,-971
41811.362,2.5459810331085464e-06,-4.007287770946277e-06,1.0,0.08577070385217667,-0.005086814984679222,1.0216859579086304,38276.19140625,1.7834229469299316,-0.04356751963496208,0.0,0.09072017669677734,-0.32980018854141235,5.692863464355469,2431.94384765625,2588.056884765625,2554.4453125,2607.8349609375,-7629,1.7683029174804688,0.011399179697036743,-1.8926715850830078,2794,-1427
41813.348,2.5459810331085464e-06,-4.007287770946277e-06,1.0,0.08577070385217667,-0.005086814984679222,1.0216859579086304,38276.19140625,1.7834229469299316,-0.04356751963496208,0.0,0.09072017669677734,-0.32980018854141235,5.696648597717285,2109.893798828125,2587.1884765625,2737.6435546875,2606.954833984375,22692,1.7683029174804688,0.011399179697036743,-1.8926715850830078,1622,-1576
41815.318,2.5459810331085464e-06,-4.007287770946277e-06,1.0,0.08577070385217667,-0.005086814984679222,1.0216859579086304,38276.19140625,1.7834229469299316,-0.04356751963496208,0.0,0.09072017669677734,-0.32980018854141235,5.700433731079102,2799.494873046875,2586.74853515625,2708.72412109375,2606.35791015625,20022,1.7683029174804688,0.011399179697036743,-1.8926715850830078,2555,-1252
41817.406,5.951683760940796e-06,-9.127839803113602e-06,1.0,0.08598211407661438,-0.005132683552801609,1.0213215351104736,38295.08203125,1.8280599117279053,-0.05579297989606857,0.0,0.3135974407196045,-0.47157660126686096,4.306906700134277,3047.640869140625,2586.99609375,2064.41357421875,2605.13916015625,-10365,1.7757936716079712,0.022803116589784622,-1.8849517107009888,2985,-143
41819.332,5.951683760940796e-06,-9.127839803113602e-06,1.0,0.08598211407661438,-0.005132683552801609,1.0213215351104736,38295.08203125,1.8280599117279053,-0.05579297989606857,0.0,0.3135974407196045,-0.47157660126686096,5.661654472351074,3055.6708984375,2587.826171875,2140.748291015625,2603.5068359375,15410,1.7757936716079712,0.022803116589784622,-1.8849517107009888,2267,-1170
41821.266,5.951683760940796e-06,-9.127839803113602e-06,1.0,0.08598211407661438,-0.005132683552801609,1.0213215351104736,38295.08203125,1.8280599117279053,-0.05579297989606857,0.0,0.3135974407196045,-0.47157660126686096,5.665424346923828,3436.047119140625,2589.646484375,2416.112548828125,2601.898681640625,2148,1.7757936716079712,0.022803116589784622,-1.8849517107009888,2128,-1165
41823.234,5.951683760940796e-06,-9.127839803113602e-06,1.0,0.08609243482351303,-0.005155983846634626,1.021284818649292,38295.08203125,1.8280599117279053,-0.05579297989606857,0.0,0.2719838619232178,-0.4848672151565552,5.968576908111572,2621.46044921875,2591.203857421875,2854.17236328125,2600.896240234375,7204,1.7827292680740356,0.025018222630023956,-1.8866057395935059,2393,-1169
41825.211,5.951683760940796e-06,-9.127839803113602e-06,1.0,0.08609243482351303,-0.005155983846634626,1.021284818649292,38295.08203125,1.8280599117279053,-0.05579297989606857,0.0,0.2719838619232178,-0.4848672151565552,5.682894706726074,2671.295166015625,2592.6064453125,2996.246337890625,2600.588623046875,22403,1.7827292680740356,0.025018222630023956,-1.8866057395935059,2817,-1476
41827.305,1.199981943500461e-05,-1.8207385437563062e-05,1.0,0.08618032187223434,-0.005199958570301533,1.0212442874908447,38357.91796875,1.866042137145996,-0.06836949288845062,0.0,0.5376183986663818,-0.6026175618171692,3.3514418601989746,3211.73388671875,2594.598388671875,2723.1650390625,2600.49560546875,27426,1.7764390707015991,0.032066769897937775,-1.8737040758132935,2792,-2289
41829.172,1.199981943500461e-05,-1.8207385437563062e-05,1.0,0.08618032187223434,-0.005199958570301533,1.0212442874908447,38357.91796875,1.866042137145996,-0.06836949288845062,0.0,0.5376183986663818,-0.6026175618171692,5.612979888916016,2328.695556640625,2595.901611328125,2650.236083984375,2600.484375,10460,1.7764390707015991,0.032066769897937775,-1.8737040758132935,1753,-1594
41831.151,1.199981943500461e-05,-1.8207385437563062e-05,1.0,0.08618032187223434,-0.005199958570301533,1.0212442874908447,38357.91796875,1.866042137145996,-0.06836949288845062,0.0,0.5376183986663818,-0.6026175618171692,5.616727352142334,2337.13037109375,2596.64208984375,2813.022216796875,2600.758056640625,5101,1.7764390707015991,0.032066769897937775,-1.8737040758132935,2800,-833
41833.13,1.199981943500461e-05,-1.8207385437563062e-05,1.0,0.08618347346782684,-0.005138430744409561,1.0210800170898438,38357.91796875,1.866042137145996,-0.06836949288845062,0.0,0.5376183986663818,-0.6026175618171692,5.620474815368652,2425.584716796875,2597.0302734375,2884.09375,2601.36328125,1144,1.7764390707015991,0.032066769897937775,-1.8737040758132935,1990,-1891
41835.115,1.199981943500461e-05,-1.8207385437563062e-05,1.0,0.08618347346782684,-0.005138430744409561,1.0210800170898438,38357.91796875,1.866042137145996,-0.06836949288845062,0.0,0.5738067626953125,-0.5564978122711182,3.110034465789795,2393.342529296875,2597.08203125,2654.157958984375,2601.93701171875,-26760,1.7704076766967773,0.024380147457122803,-1.8598136901855469,3328,-347
41837.196,2.174238397856243e-05,-3.281208410044201e-05,1.0,0.08618347346782684,-0.005138430744409561,1.0210800170898438,38412.8046875,1.9019025564193726,-0.08198553323745728,0.0,0.7889692783355713,-0.6381940841674805,5.544571876525879,2920.4775390625,2597.555908203125,2287.04931640625,2601.995361328125,28792,1.7704076766967773,0.024380147457122803,-1.8598136901855469,2441,-8
41839.113,2.174238397856243e-05,-3.281208410044201e-05,1.0,0.08634138107299805,-0.005218355916440487,1.0211197137832642,38412.8046875,1.9019025564193726,-0.08198553323745728,0.0,0.7889692783355713,-0.6381940841674805,5.5482916831970215,2495.373291015625,2597.81396484375,2246.91943359375,2601.571044921875,1685,1.7704076766967773,0.024380147457122803,-1.8598136901855469,2513,-291
41841.049,2.174238397856243e-05,-3.281208410044201e-05,1.0,0.08634138107299805,-0.005218355916440487,1.0211197137832642,38412.8046875,1.9019025564193726,-0.08198553323745728,0.0,0.7889692783355713,-0.6381940841674805,5.552011489868164,2119.654541015625,2597.392333984375,2446.337890625,2601.01123046875,-26973,1.7704076766967773,0.024380147457122803,-1.8598136901855469,2661,-805
41843.025,2.174238397856243e-05,-3.281208410044201e-05,1.0,0.08634138107299805,-0.005218355916440487,1.0211197137832642,38412.8046875,1.9019025564193726,-0.08198553323745728,0.0,0.7889692783355713,-0.6381940841674805,5.555731296539307,2488.9951171875,2596.89697265625,2500.281494140625,2600.4111328125,-16574,1.7704076766967773,0.024380147457122803,-1.8598136901855469,1778,-746
41845.004,2.174238397856243e-05,-3.281208410044201e-05,1.0,0.08640509843826294,-0.005257331300526857,1.02103590965271,38412.8046875,1.9019025564193726,-0.08198553323745728,0.0,0.7889692783355713,-0.6381940841674805,5.559451103210449,3122.0224609375,2597.183837890625,2450.800048828125,2599.712646484375,-11918,1.7704076766967773,0.024380147457122803,-1.8598136901855469,2041,-879
41847.086,3.644469325081445e-05,-5.481035987031646e-05,1.0,0.08640509843826294,-0.005257331300526857,1.02103590965271,38380.1796875,1.9210731983184814,-0.0943942591547966,0.0,0.8150668144226074,-0.7023775577545166,3.668764591217041,3482.08642578125,2598.60107421875,2598.42138671875,2599.12939453125,-14853,1.7852287292480469,0.022668667137622833,-1.849347472190857,2451,-954
41848.964,3.644469325081445e-05,-5.481035987031646e-05,1.0,0.08664102852344513,-0.0052673472091555595,1.0208109617233276,38380.1796875,1.9210731983184814,-0.0943942591547966,0.0,0.8150668144226074,-0.7023775577545166,5.504051208496094,2920.111328125,2600.20849609375,3021.32861328125,2599.20654296875,-30716,1.7852287292480469,0.022668667137622833,-1.849347472190857,929,-1649
41850.941,3.644469325081445e-05,-5.481035987031646e-05,1.0,0.08664102852344513,-0.0052673472091555595,1.0208109617233276,38380.1796875,1.9210731983184814,-0.0943942591547966,0.0,0.8150668144226074,-0.7023775577545166,5.507750034332275,1744.796875,2600.407470703125,2463.780517578125,2599.090087890625,29262,1.7852287292480469,0.022668667137622833,-1.849347472190857,2145,-1490
41852.92,3.644469325081445e-05,-5.481035987031646e-05,1.0,0.08664102852344513,-0.0052673472091555595,1.0208109617233276,38380.1796875,1.9210731983184814,-0.0943942591547966,0.0,0.8150668144226074,-0.7023775577545166,5.511448860168457,1729.2744140625,2599.412841796875,1911.886474609375,2598.078369140625,-7645,1.7852287292480469,0.022668667137622833,-1.849347472190857,2745,-1089
41854.898,3.644469325081445e-05,-5.481035987031646e-05,1.0,0.08678402006626129,-0.005278449971228838,1.0207186937332153,38380.1796875,1.9210731983184814,-0.0943942591547966,0.0,0.8150668144226074,-0.7023775577545166,5.515147686004639,2175.369873046875,2598.0205078125,2043.560302734375,2596.497802734375,14242,1.7852287292480469,0.022668667137622833,-1.849347472190857,3106,-867
41856.985,5.75383601244539e-05,-8.632159006083384e-05,1.0,0.08678402006626129,-0.005278449971228838,1.0207186937332153,38351.453125,1.949677586555481,-0.10731347650289536,0.0,0.9391672611236572,-0.7773580551147461,3.356473922729492,2133.5029296875,2596.243408203125,2470.984130859375,2595.015380859375,22793,1.793149709701538,0.02224620245397091,-1.8374007940292358,1431,-966
41858.857,5.75383601244539e-05,-8.632159006083384e-05,1.0,0.08678402006626129,-0.005278449971228838,1.0207186937332153,38351.453125,1.949677586555481,-0.10731347650289536,0.0,0.9391672611236572,-0.7773580551147461,5.450817584991455,2502.6533203125,2594.639892578125,3088.134033203125,2594.438232421875,12340,1.793149709701538,0.02224620245397091,-1.8374007940292358,2091,703
41860.831,5.75383601244539e-05,-8.632159006083384e-05,1.0,0.0868743434548378,-0.005325639620423317,1.0208714008331299,38351.453125,1.949677586555481,-0.10731347650289536,0.0,0.9391672611236572,-0.7773580551147461,5.454492568969727,2050.605224609375,2592.580810546875,2633.8134765625,2594.010498046875,-7672,1.793149709701538,0.02224620245397091,-1.8374007940292358,1334,-1011
41862.811,5.75383601244539e-05,-8.632159006083384e-05,1.0,0.0868743434548378,-0.005325639620423317,1.0208714008331299,38351.453125,1.949677586555481,-0.10731347650289536,0.0,0.9391672611236572,-0.7773580551147461,5.458167552947998,1535.19921875,2589.459228515625,2414.23046875,2593.415283203125,-18006,1.793149709701538,0.02224620245397091,-1.8374007940292358,2079,-932
41864.79,5.75383601244539e-05,-8.632159006083384e-05,1.0,0.0868743434548378,-0.005325639620423317,1.0208714008331299,38351.453125,1.949677586555481,-0.10731347650289536,0.0,0.9391672611236572,-0.7773580551147461,5.4618425369262695,3007.949951171875,2587.41845703125,2960.82763671875,2593.4091796875,-11882,1.793149709701538,0.02224620245397091,-1.8374007940292358,2192,-431
41866.878,8.660079765832052e-05,-0.0001296053669648245,1.0,0.08701706677675247,-0.005399503745138645,1.020868182182312,38327.0625,2.030587673187256,-0.11154275387525558,0.0,1.4246277809143066,-0.8027337789535522,5.465517520904541,3804.654541015625,2587.341064453125,3358.096435546875,2594.422119140625,-19552,1.793149709701538,0.02224620245397091,-1.8374007940292358,1753,-1876
41868.759,8.660079765832052e-05,-0.0001296053669648245,1.0,0.08701706677675247,-0.005399503745138645,1.020868182182312,38327.0625,2.030587673187256,-0.11154275387525558,0.0,1.237870216369629,-0.7901660203933716,3.2887816429138184,2600.041259765625,2587.293701171875,3177.524169921875,2596.04150390625,6264,1.8242759704589844,0.02015157975256443,-1.8253544569015503,1911,-81
41870.73,8.660079765832052e-05,-0.0001296053669648245,1.0,0.08701706677675247,-0.005399503745138645,1.020868182182312,38327.0625,2.030587673187256,-0.11154275387525558,0.0,1.237870216369629,-0.7901660203933716,5.400540828704834,1699.99853515625,2586.07275390625,2220.92626953125,2596.8896484375,-5200,1.8242759704589844,0.02015157975256443,-1.8253544569015503,1676,-1157
41872.704,8.660079765832052e-05,-0.0001296053669648245,1.0,0.08706872165203094,-0.005434191785752773,1.0207680463790894,38327.0625,2.030587673187256,-0.11154275387525558,0.0,1.237870216369629,-0.7901660203933716,5.404191493988037,1597.927490234375,2583.74072265625,2059.52001953125,2596.880126953125,-4276,1.8242759704589844,0.02015157975256443,-1.8253544569015503,2699,13
41874.687,8.660079765832052e-05,-0.0001296053669648245,1.0,0.08706872165203094,-0.005434191785752773,1.0207680463790894,38327.0625,2.030587673187256,-0.11154275387525558,0.0,1.237870216369629,-0.7901660203933716,5.40784215927124,2240.46826171875,2581.343017578125,2814.6572265625,2597.162353515625,5780,1.8242759704589844,0.02015157975256443,-1.8253544569015503,3225,1185
41876.781,0.0001253757072845474,-0.00018730763986241072,1.0,0.08706872165203094,-0.005434191785752773,1.0207680463790894,38289.94140625,2.0765888690948486,-0.12339245527982712,0.0,1.5138773918151855,-0.8612642288208008,5.411492824554443,2862.0224609375,2579.72119140625,3425.005859375,2598.499267578125,28540,1.8242759704589844,0.02015157975256443,-1.8253544569015503,957,-431
41878.641,0.0001253757072845474,-0.00018730763986241072,1.0,0.08727917075157166,-0.005473197437822819,1.0208821296691895,38289.94140625,2.0765888690948486,-0.12339245527982712,0.0,1.3470268249511719,-0.7561672925949097,1.9784479141235352,3052.818359375,2579.00146484375,3629.860107421875,2600.9853515625,-23914,1.8520843982696533,0.002635426353663206,-1.8063673973083496,1548,-1879
41880.629,0.0001253757072845474,-0.00018730763986241072,1.0,0.08727917075157166,-0.005473197437822819,1.0208821296691895,38289.94140625,2.0765888690948486,-0.12339245527982712,0.0,1.3008384704589844,-0.7665687203407288,5.308161735534668,3397.237060546875,2579.4921875,2763.60791015625,2603.270751953125,-28570,1.8597824573516846,0.004368991125375032,-1.8063859939575195,1912,-955
41882.602,0.0001253757072845474,-0.00018730763986241072,1.0,0.08730008453130722,-0.0054588932543993,1.0208503007888794,38289.94140625,2.0765888690948486,-0.12339245527982712,0.0,1.3008384704589844,-0.7665687203407288,5.308520793914795,2504.280517578125,2579.800048828125,2227.851806640625,2604.6728515625,-20947,1.8597824573516846,0.004368991125375032,-1.8063859939575195,1863,283
41884.582,0.0001253757072845474,-0.00018730763986241072,1.0,0.08730008453130722,-0.0054588932543993,1.0208503007888794,38289.94140625,2.0765888690948486,-0.12339245527982712,0.0,1.2548589706420898,-0.7775947451591492,5.362947940826416,1227.6107177734375,2578.256103515625,2514.076416015625,2605.718994140625,17558,1.867445707321167,0.00620666891336441,-1.8066667318344116,1706,-112
41886.669,0.00017568247858434916,-0.0002621066814754158,1.0,0.08730008453130722,-0.0054588932543993,1.0208503007888794,38286.88671875,2.0991883277893066,-0.13172726333141327,0.0,1.390455722808838,-0.8276036381721497,5.317431926727295,811.5379638671875,2574.61865234375,3020.70751953125,2607.142333984375,-16918,1.867445707321167,0.00620666891336441,-1.8066667318344116,1687,-513
41888.54,0.00017568247858434916,-0.0002621066814754158,1.0,0.0873224139213562,-0.005488968454301357,1.0206634998321533,38286.88671875,2.0991883277893066,-0.13172726333141327,0.0,1.2688500881195068,-0.6746233105659485,2.954984664916992,2057.6435546875,2570.903076171875,3423.0322265625,2609.413330078125,4233,1.8877133131027222,-0.019290044903755188,-1.7935947179794312,2735,-400
41890.516,0.00017568247858434916,-0.0002621066814754158,1.0,0.0873224139213562,-0.005488968454301357,1.0206634998321533,38286.88671875,2.0991883277893066,-0.13172726333141327,0.0,1.2688500881195068,-0.6746233105659485,5.246174335479736,4503.294921875,2570.384033203125,3046.22021484375,2611.884765625,21000,1.8877133131027222,-0.019290044903755188,-1.7935947179794312,2864,-1737
41892.502,0.00017568247858434916,-0.0002621066814754158,1.0,0.0873224139213562,-0.005488968454301357,1.0206634998321533,38286.88671875,2.0991883277893066,-0.13172726333141327,0.0,1.2688500881195068,-0.6746233105659485,5.249761581420898,4326.7724609375,2572.290771484375,2513.8056640625,2613.81103515625,20587,1.8877133131027222,-0.019290044903755188,-1.7935947179794312,1530,444
41894.479,0.00017568247858434916,-0.0002621066814754158,1.0,0.08742312341928482,-0.0055305445566773415,1.0206421613693237,38286.88671875,2.0991883277893066,-0.13172726333141327,0.0,1.2688500881195068,-0.6746233105659485,5.2533488273620605,2441.268798828125,2573.703125,2516.152587890625,2615.283935546875,31698,1.8877133131027222,-0.019290044903755188,-1.7935947179794312,2786,880
41896.564,0.0002396537020104006,-0.000357009848812595,1.0,0.08742312341928482,-0.0055305445566773415,1.0206421613693237,38337.578125,2.1397547721862793,-0.1406068652868271,0.0,1.5122487545013428,-0.7279009222984314,5.256936073303223,1674.42236328125,2573.680908203125,2337.2109375,2616.1396484375,23484,1.8877133131027222,-0.019290044903755188,-1.7935947179794312,2547,-688
41898.441,0.0002396537020104006,-0.000357009848812595,1.0,0.08742312341928482,-0.0055305445566773415,1.0206421613693237,38337.578125,2.1397547721862793,-0.1406068652868271,0.0,1.3906159400939941,-0.5697713494300842,3.607069492340088,1626.681640625,2572.401611328125,2648.62353515625,2616.89501953125,-17526,1.9079854488372803,-0.04564497619867325,-1.7844597101211548,2762,278
41900.412,0.0002396537020104006,-0.000357009848812595,1.0,0.08748472481966019,-0.005483100190758705,1.020664930343628,38337.578125,2.1397547721862793,-0.1406068652868271,0.0,1.3906159400939941,-0.5697713494300842,5.209264755249023,3433.095947265625,2572.48291015625,3420.63232421875,2618.59375,12051,1.9079854488372803,-0.04564497619867325,-1.7844597101211548,1737,252
41902.392,0.0002396537020104006,-0.000357009848812595,1.0,0.08748472481966019,-0.005483100190758705,1.020664930343628,38337.578125,2.1397547721862793,-0.1406068652868271,0.0,1.3498613834381104,-0.5800259709358215,5.269537925720215,4493.24560546875,2575.108154296875,3380.98388671875,2621.022705078125,-19824,1.9147778749465942,-0.0439358726143837,-1.7847729921340942,2510,648
41904.376,0.0002396537020104006,-0.000357009848812595,1.0,0.08767759799957275,-0.005580221302807331,1.0207200050354004,38337.578125,2.1397547721862793,-0.1406068652868271,0.0,1.3498613834381104,-0.5800259709358215,5.218283653259277,2501.8935546875,2577.1953125,2520.3271484375,2622.909912109375,-8112,1.9147778749465942,-0.0439358726143837,-1.7847729921340942,1017,-188
41906.458,0.00031946462695486844,-0.0004751313535962254,1.0,0.08767759799957275,-0.005580221302807331,1.0207200050354004,38296.86328125,2.165801525115967,-0.14376702904701233,0.0,1.4654037952423096,-0.6091203689575195,5.21110725402832,1598.8790283203125,2577.6298828125,1984.4775390625,2623.630615234375,-9459,1.9215675592422485,-0.04224696755409241,-1.784713625907898,2018,-1452
41908.329,0.00031946462695486844,-0.0004751313535962254,1.0,0.08767759799957275,-0.005580221302807331,1.0207200050354004,38296.86328125,2.165801525115967,-0.14376702904701233,0.0,1.4243881702423096,-0.479414165019989,2.901167869567871,2436.298095703125,2577.80322265625,2150.14013671875,2623.599853515625,13243,1.9284034967422485,-0.06386467069387436,-1.7718745470046997,2934,-453
41910.307,0.00031946462695486844,-0.0004751313535962254,1.0,0.08750063925981522,-0.005477536469697952,1.0206305980682373,38296.86328125,2.165801525115967,-0.14376702904701233,0.0,1.4243881702423096,-0.479414165019989,5.15155029296875,3484.531005859375,2579.15478515625,3070.74658203125,2624.169677734375,-24524,1.9284034967422485,-0.06386467069387436,-1.7718745470046997,3503,-6
41912.287,0.00031946462695486844,-0.0004751313535962254,1.0,0.08750063925981522,-0.005477536469697952,1.0206305980682373,38296.86328125,2.165801525115967,-0.14376702904701233,0.0,1.4243881702423096,-0.479414165019989,5.155094146728516,4493.26171875,2582.828369140625,3450.19482421875,2625.74365234375,19566,1.9284034967422485,-0.06386467069387436,-1.7718745470046997,2687,1925
41914.262,0.00031946462695486844,-0.0004751313535962254,1.0,0.08750063925981522,-0.005477536469697952,1.0206305980682373,38296.86328125,2.165801525115967,-0.14376702904701233,0.0,1.4243881702423096,-0.479414165019989,5.158638000488281,3366.89306640625,2586.929443359375,2690.2412109375,2627.1396484375,5888,1.9284034967422485,-0.06386467069387436,-1.7718745470046997,2762,-1053
41916.348,0.00041732611134648323,-0.0006197761977091432,1.0,0.0876815989613533,-0.005571110639721155,1.0205979347229004,38256.3671875,2.115100860595703,-0.14018288254737854,0.0,1.1201841831207275,-0.4579092860221863,5.162181854248047,1401.3775634765625,2588.76416015625,1975.695556640625,2627.433837890625,7530,1.9284034967422485,-0.06386467069387436,-1.7718745470046997,2790,-953
41918.226,0.00041732611134648323,-0.0006197761977091432,1.0,0.0876815989613533,-0.005571110639721155,1.0205979347229004,38256.3671875,2.115100860595703,-0.14018288254737854,0.0,1.119255781173706,-0.3898826837539673,2.4073715209960938,2308.805908203125,2589.918212890625,2394.024169921875,2627.367919921875,-29629,1.9285582304000854,-0.07520243525505066,-1.7566351890563965,3804,-165
41920.206,0.00041732611134648323,-0.0006197761977091432,1.0,0.0876815989613533,-0.005571110639721155,1.0205979347229004,38256.3671875,2.115100860595703,-0.14018288254737854,0.0,1.119255781173706,-0.3898826837539673,5.07777214050293,3556.5302734375,2592.165771484375,3319.1259765625,2628.234130859375,1262,1.9285582304000854,-0.07520243525505066,-1.7566351890563965,2138,-645
41922.183,0.00041732611134648323,-0.0006197761977091432,1.0,0.08772991597652435,-0.0055685038678348064,1.0206153392791748,38256.3671875,2.115100860595703,-0.14018288254737854,0.0,1.119255781173706,-0.3898826837539673,5.08128547668457,3360.22314453125,2595.058837890625,3122.70166015625,2629.61328125,20264,1.9285582304000854,-0.07520243525505066,-1.7566351890563965,1961,828
41924.16,0.00041732611134648323,-0.0006197761977091432,1.0,0.08772991597652435,-0.0055685038678348064,1.0206153392791748,38256.3671875,2.115100860595703,-0.14018288254737854,0.0,1.0817577838897705,-0.3993297219276428,5.326354503631592,2684.913818359375,2597.58642578125,2362.484375,2630.40576171875,11113,1.9348078966140747,-0.07362792640924454,-1.7579697370529175,3026,956
41926.254,0.0005358086200430989,-0.0007946162950247526,1.0,0.08793787658214569,-0.00566908298060298,1.0207270383834839,38207.96484375,2.1338653564453125,-0.13844901323318481,0.0,1.1943447589874268,-0.38892650604248047,5.0963239669799805,2631.37841796875,2599.73486328125,2338.503173828125,2630.67626953125,2622,1.9348078966140747,-0.07362792640924454,-1.7579697370529175,1960,-2571
41928.116,0.0005358086200430989,-0.0007946162950247526,1.0,0.08793787658214569,-0.00566908298060298,1.0207270383834839,38207.96484375,2.1338653564453125,-0.13844901323318481,0.0,1.1943447589874268,-0.38892650604248047,5.099839687347412,3138.4228515625,2602.239990234375,2973.152099609375,2631.357421875,24550,1.9348078966140747,-0.07362792640924454,-1.7579697370529175,3238,-854
41930.098,0.0005358086200430989,-0.0007946162950247526,1.0,0.08793787658214569,-0.00566908298060298,1.0207270383834839,38207.96484375,2.1338653564453125,-0.13844901323318481,0.0,1.217491865158081,-0.32916784286499023,1.9862165451049805,3401.03515625,2605.388671875,3015.450439453125,2632.435791015625,-24159,1.9309500455856323,-0.08358770608901978,-1.7407481670379639,3610,1444
41932.077,0.0005358086200430989,-0.0007946162950247526,1.0,0.08807797729969025,-0.0056745633482933044,1.0205078125,38207.96484375,2.1338653564453125,-0.13844901323318481,0.0,1.217491865158081,-0.32916784286499023,5.003472805023193,3246.324951171875,2608.8623046875,2377.85205078125,2632.994140625,779,1.9309500455856323,-0.08358770608901978,-1.7407481670379639,2453,-2295
41934.05,0.0005358086200430989,-0.0007946162950247526,1.0,0.08807797729969025,-0.0056745633482933044,1.0205078125,38207.96484375,2.1338653564453125,-0.13844901323318481,0.0,1.217491865158081,-0.32916784286499023,5.006954193115234,2793.113525390625,2611.99853515625,1773.9202880859375,2632.31494140625,27580,1.9309500455856323,-0.08358770608901978,-1.7407481670379639,2550,-1623
41936.138,0.0006771730841137469,-0.0010029769036918879,1.0,0.08807797729969025,-0.0056745633482933044,1.0205078125,38165.26953125,2.164216995239258,-0.1355271190404892,0.0,1.399601697921753,-0.31163647770881653,5.010435581207275,3321.98828125,2615.55419921875,2326.874267578125,2631.343017578125,4259,1.9309500455856323,-0.08358770608901978,-1.7407481670379639,3154,-138
41938.013,0.0006771730841137469,-0.0010029769036918879,1.0,0.08808868378400803,-0.0057387566193938255,1.0205073356628418,38165.26953125,2.164216995239258,-0.1355271190404892,0.0,1.5031399726867676,-0.26784801483154297,1.691645622253418,3402.629150390625,2619.56103515625,2540.923095703125,2630.413818359375,-17673,1.9136936664581299,-0.09088578075170517,-1.722393274307251,2617,-1067
41939.997,0.0006771730841137469,-0.0010029769036918879,1.0,0.08808868378400803,-0.0057387566193938255,1.0205073356628418,38165.26953125,2.164216995239258,-0.1355271190404892,0.0,1.5031399726867676,-0.26784801483154297,4.907196521759033,2484.3486328125,2622.7158203125,2129.0107421875,2628.97265625,-23379,1.9136936664581299,-0.09088578075170517,-1.722393274307251,4276,-2074
41941.974,0.0006771730841137469,-0.0010029769036918879,1.0,0.08808868378400803,-0.0057387566193938255,1.0205073356628418,38165.26953125,2.164216995239258,-0.1355271190404892,0.0,1.5031399726867676,-0.26784801483154297,4.910641193389893,3107.581787109375,2625.98681640625,2374.7900390625,2627.43505859375,9666,1.9136936664581299,-0.09088578075170517,-1.722393274307251,3121,-1446
41943.951,0.0006771730841137469,-0.0010029769036918879,1.0,0.08824850618839264,-0.005798745434731245,1.020491600036621,38165.26953125,2.164216995239258,-0.1355271190404892,0.0,1.5031399726867676,-0.26784801483154297,4.914085865020752,3677.585205078125,2630.109375,2292.415771484375,2625.709228515625,-16269,1.9136936664581299,-0.09088578075170517,-1.722393274307251,3030,-1044
41946.036,0.0008444478735327721,-0.0012491121888160706,1.0,0.08824850618839264,-0.005798745434731245,1.020491600036621,38232.453125,2.194340705871582,-0.13094794750213623,0.0,1.645819902420044,-0.2514784336090088,5.150475978851318,2772.813232421875,2633.730224609375,2540.751953125,2624.159912109375,30254,1.9200373888015747,-0.08903487771749496,-1.7236802577972412,3097,-1243
41947.911,0.0008444478735327721,-0.0012491121888160706,1.0,0.08824850618839264,-0.005798745434731245,1.020491600036621,38232.453125,2.194340705871582,-0.13094794750213623,0.0,1.7752153873443604,-0.31295469403266907,2.0035347938537598,3020.968994140625,2637.25927734375,2689.973876953125,2622.9580078125,16212,1.898471474647522,-0.07878883183002472,-1.707519292831421,3124,18
41949.883,0.0008444478735327721,-0.0012491121888160706,1.0,0.08841338753700256,-0.0058273994363844395,1.0206104516983032,38232.453125,2.194340705871582,-0.13094794750213623,0.0,1.7752153873443604,-0.31295469403266907,4.835118770599365,3600.6845703125,2641.47900390625,2178.871337890625,2621.366455078125,25572,1.898471474647522,-0.07878883183002472,-1.707519292831421,2734,-1115
41951.863,0.0008444478735327721,-0.0012491121888160706,1.0,0.08841338753700256,-0.0058273994363844395,1.0206104516983032,38232.453125,2.194340705871582,-0.13094794750213623,0.0,1.7249443531036377,-0.3182413578033447,5.049559593200684,2608.554931640625,2644.947021484375,1795.532958984375,2618.9423828125,30848,1.906849980354309,-0.07790771871805191,-1.7086851596832275,2041,-2305
41953.843,0.0008444478735327721,-0.0012491121888160706,1.0,0.0885368287563324,-0.005808900110423565,1.020440697669983,38232.453125,2.194340705871582,-0.13094794750213623,0.0,1.7249443531036377,-0.3182413578033447,4.848949909210205,2420.619140625,2647.534423828125,1994.3802490234375,2616.093505859375,20498,1.906849980354309,-0.07790771871805191,-1.7086851596832275,2758,-1670
41955.937,0.0010401424951851368,-0.001536460709758103,1.0,0.0885368287563324,-0.005808900110423565,1.020440697669983,38268.03125,2.2193527221679688,-0.12285861372947693,0.0,1.875016450881958,-0.2697053551673889,4.852367401123047,2697.927978515625,2649.7548828125,2153.106689453125,2613.105712890625,-15028,1.906849980354309,-0.07790771871805191,-1.7086851596832275,3770,-3032
41957.803,0.0010401424951851368,-0.001536460709758103,1.0,0.0885368287563324,-0.005808900110423565,1.020440697669983,38268.03125,2.2193527221679688,-0.12285861372947693,0.0,1.9753267765045166,-0.3674744665622711,1.5752644538879395,2575.22900390625,2651.50341796875,2400.98388671875,2610.3369140625,-4787,1.8901315927505493,-0.061612870544195175,-1.6905609369277954,2718,-1199
41959.782,0.0010401424951851368,-0.001536460709758103,1.0,0.08862768113613129,-0.005837421864271164,1.0203901529312134,38268.03125,2.2193527221679688,-0.12285861372947693,0.0,1.9753267765045166,-0.3674744665622711,4.750384330749512,3381.072021484375,2653.929931640625,2777.928466796875,2608.255859375,-2728,1.8901315927505493,-0.061612870544195175,-1.6905609369277954,1258,-1622
41961.76,0.0010401424951851368,-0.001536460709758103,1.0,0.08862768113613129,-0.005837421864271164,1.0203901529312134,38268.03125,2.2193527221679688,-0.12285861372947693,0.0,1.9753267765045166,-0.3674744665622711,4.75376558303833,3110.006103515625,2656.556884765625,2208.138916015625,2605.9912109375,12157,1.8901315927505493,-0.061612870544195175,-1.6905609369277954,2112,-2197
41963.736,0.0010401424951851368,-0.001536460709758103,1.0,0.08862768113613129,-0.005837421864271164,1.0203901529312134,38268.03125,2.2193527221679688,-0.12285861372947693,0.0,1.9753267765045166,-0.3674744665622711,4.757146835327148,2379.79931640625,2658.37451171875,2041.7313232421875,2603.355224609375,-16475,1.8901315927505493,-0.061612870544195175,-1.6905609369277954,3103,-1688
41965.823,0.0012672914890572429,-0.0018696069018915296,1.0,0.08881722390651703,-0.00588185153901577,1.0204248428344727,38228.8359375,2.167304039001465,-0.109351247549057,0.0,1.6630346775054932,-0.2864302694797516,4.760528087615967,2197.83984375,2659.274169921875,2233.4375,2600.6689453125,-13522,1.8901315927505493,-0.061612870544195175,-1.6905609369277954,2913,-1101
41967.708,0.0012672914890572429,-0.0018696069018915296,1.0,0.08881722390651703,-0.00588185153901577,1.0204248428344727,38228.8359375,2.167304039001465,-0.109351247549057,0.0,1.6724145412445068,-0.41359037160873413,1.5391440391540527,2460.708251953125,2659.75830078125,2416.46875,2598.18798828125,-32468,1.8885682821273804,-0.04041952267289162,-1.6727447509765625,2226,-1748
41969.671,0.0012672914890572429,-0.0018696069018915296,1.0,0.08896209299564362,-0.005960960406810045,1.0204050540924072,38228.8359375,2.167304039001465,-0.109351247549057,0.0,1.6724145412445068,-0.41359037160873413,4.6603217124938965,2847.81787109375,2660.41162109375,2599.530517578125,2596.125244140625,-27281,1.8885682821273804,-0.04041952267289162,-1.6727447509765625,2145,-1716
41971.653,0.0012672914890572429,-0.0018696069018915296,1.0,0.08896209299564362,-0.005960960406810045,1.0204050540924072,38228.8359375,2.167304039001465,-0.109351247549057,0.0,1.6724145412445068,-0.41359037160873413,4.66366720199585,2697.4267578125,2661.004638671875,2384.62255859375,2594.126708984375,2867,1.8885682821273804,-0.04041952267289162,-1.6727447509765625,1534,-2250
41973.634,0.0012672914890572429,-0.0018696069018915296,1.0,0.08896209299564362,-0.005960960406810045,1.0204050540924072,38228.8359375,2.167304039001465,-0.109351247549057,0.0,1.6724145412445068,-0.41359037160873413,4.667012691497803,2792.325927734375,2661.6728515625,2588.52587890625,2592.4560546875,3770,1.8885682821273804,-0.04041952267289162,-1.6727447509765625,2224,-768
41975.737,0.0015292237512767315,-0.0022530844435095787,1.0,0.08909779787063599,-0.005953427869826555,1.0203394889831543,38164.48046875,2.2033920288085938,-0.09995396435260773,0.0,1.8889424800872803,-0.35720664262771606,4.670358180999756,2904.941650390625,2662.552978515625,2505.074462890625,2590.949462890625,-22198,1.8885682821273804,-0.04041952267289162,-1.6727447509765625,2146,-1517
41977.588,0.0015292237512767315,-0.0022530844435095787,1.0,0.08909779787063599,-0.005953427869826555,1.0203394889831543,38164.48046875,2.2033920288085938,-0.09995396435260773,0.0,1.8889424800872803,-0.35720664262771606,4.673703670501709,1401.0179443359375,2661.60595703125,2264.53955078125,2589.260986328125,2705,1.8885682821273804,-0.04041952267289162,-1.6727447509765625,2375,-1173
41979.571,0.0015292237512767315,-0.0022530844435095787,1.0,0.08909779787063599,-0.005953427869826555,1.0203394889831543,38164.48046875,2.2033920288085938,-0.09995396435260773,0.0,1.8279290199279785,-0.4569240212440491,0.7596368789672852,1624.425048828125,2659.4365234375,2123.0380859375,2587.23486328125,-21720,1.8987371921539307,-0.023799961432814598,-1.65110182762146,1719,-1595
41981.55,0.0015292237512767315,-0.0022530844435095787,1.0,0.08920827507972717,-0.005990801379084587,1.020336627960205,38164.48046875,2.2033920288085938,-0.09995396435260773,0.0,1.8279290199279785,-0.4569240212440491,4.550449848175049,2511.34326171875,2657.433837890625,2218.208251953125,2585.0576171875,17156,1.8987371921539307,-0.023799961432814598,-1.65110182762146,1462,-1111
41983.547,0.0015292237512767315,-0.0022530844435095787,1.0,0.08920827507972717,-0.005990801379084587,1.020336627960205,38164.48046875,2.2033920288085938,-0.09995396435260773,0.0,1.8279290199279785,-0.4569240212440491,4.5537519454956055,2587.845947265625,2655.674560546875,2441.76904296875,2583.054443359375,-25370,1.8987371921539307,-0.023799961432814598,-1.65110182762146,1970,-627
41985.609,0.0018270037835463881,-0.0026886723935604095,1.0,0.08920827507972717,-0.005990801379084587,1.020336627960205,38112.46875,2.247299909591675,-0.0909857302904129,0.0,2.091376304626465,-0.4031146168708801,4.557054042816162,3074.34814453125,2654.767822265625,2842.27197265625,2581.732666015625,3602,1.8987371921539307,-0.023799961432814598,-1.65110182762146,1376,-2004
41987.485,0.0018270037835463881,-0.0026886723935604095,1.0,0.08936180174350739,-0.006052506156265736,1.0203285217285156,38112.46875,2.247299909591675,-0.0909857302904129,0.0,1.901282787322998,-0.4873533248901367,1.7987451553344727,2259.98828125,2653.487548828125,2399.868896484375,2580.390625,-12311,1.9304194450378418,-0.009760179556906223,-1.6358444690704346,2287,-714
41989.461,0.0018270037835463881,-0.0026886723935604095,1.0,0.08936180174350739,-0.006052506156265736,1.0203285217285156,38112.46875,2.247299909591675,-0.0909857302904129,0.0,1.901282787322998,-0.4873533248901367,4.4720540046691895,2107.62841796875,2651.6953125,2507.492431640625,2579.1767578125,-15642,1.9304194450378418,-0.009760179556906223,-1.6358444690704346,1456,-2461
41991.447,0.0018270037835463881,-0.0026886723935604095,1.0,0.08936180174350739,-0.006052506156265736,1.0203285217285156,38112.46875,2.247299909591675,-0.0909857302904129,0.0,1.901282787322998,-0.4873533248901367,4.475325584411621,2857.5302734375,2650.4775390625,2875.60498046875,2578.56103515625,21697,1.9304194450378418,-0.009760179556906223,-1.6358444690704346,2673,56
41993.417,0.0018270037835463881,-0.0026886723935604095,1.0,0.08942985534667969,-0.006097945384681225,1.020607590675354,38112.46875,2.247299909591675,-0.0909857302904129,0.0,1.901282787322998,-0.4873533248901367,4.478597164154053,3019.48876953125,2649.955810546875,2823.4462890625,2578.374755859375,-10833,1.9304194450378418,-0.009760179556906223,-1.6358444690704346,3083,-1048
41995.524,0.0021671303547918797,-0.003184635192155838,1.0,0.08942985534667969,-0.006097945384681225,1.020607590675354,38093.4375,2.287538528442383,-0.07930286973714828,0.0,2.142714500427246,-0.4172561466693878,4.481868743896484,2306.2958984375,2649.063720703125,2870.302490234375,2578.6083984375,-29000,1.9304194450378418,-0.009760179556906223,-1.6358444690704346,2805,-1732
41997.385,0.0021671303547918797,-0.003184635192155838,1.0,0.08942985534667969,-0.006097945384681225,1.020607590675354,38093.4375,2.287538528442383,-0.07930286973714828,0.0,1.9588680267333984,-0.43741098046302795,1.965644359588623,1537.78564453125,2646.841796875,2426.677490234375,2578.6005859375,-22586,1.9610605239868164,-0.006401039659976959,-1.6219247579574585,982,-1611
41999.359,0.0021671303547918797,-0.003184635192155838,1.0,0.08949227631092072,-0.006146762520074844,1.0205525159835815,38093.4375,2.287538528442383,-0.07930286973714828,0.0,1.9588680267333984,-0.43741098046302795,4.404837608337402,1712.113525390625,2643.747802734375,2059.08740234375,2577.90234375,-20994,1.9610605239868164,-0.006401039659976959,-1.6219247579574585,2095,234
42001.337,0.0021671303547918797,-0.003184635192155838,1.0,0.08949227631092072,-0.006146762520074844,1.0205525159835815,38093.4375,2.287538528442383,-0.07930286973714828,0.0,2.0346829891204834,-0.4679983854293823,4.3675384521484375,2049.9345703125,2640.38232421875,2488.052734375,2577.20166015625,-13910,1.9484246969223022,-0.0013031383277848363,-1.6217007637023926,1423,-2200
42003.321,0.0021671303547918797,-0.003184635192155838,1.0,0.0896243304014206,-0.006107026245445013,1.020425796508789,38093.4375,2.287538528442383,-0.07930286973714828,0.0,2.0346829891204834,-0.4679983854293823,4.409980773925781,2499.19775390625,2637.3935546875,3024.789794921875,2577.214599609375,-29091,1.9484246969223022,-0.0013031383277848363,-1.6217007637023926,1616,-1498
42005.398,0.0025493521243333817,-0.0037407490890473127,1.0,0.0896243304014206,-0.006107026245445013,1.020425796508789,38121.41015625,2.3345494270324707,-0.06750978529453278,0.0,2.3167483806610107,-0.39723989367485046,4.413224220275879,2756.29931640625,2635.064453125,2715.88330078125,2577.40966796875,18450,1.9484246969223022,-0.0013031383277848363,-1.6217007637023926,1935,-622
42007.297,0.0025493521243333817,-0.0037407490890473127,1.0,0.0896243304014206,-0.006107026245445013,1.020425796508789,38121.41015625,2.3345494270324707,-0.06750978529453278,0.0,2.03865909576416,-0.3811589479446411,1.5089077949523926,2150.760009765625,2632.481201171875,2495.253173828125,2577.462890625,-28624,1.9947729110717773,-0.003983296919614077,-1.6056370735168457,1690,-1811
42009.258,0.0025493521243333817,-0.0037407490890473127,1.0,0.08977633714675903,-0.006159954238682985,1.0205134153366089,38121.41015625,2.3345494270324707,-0.06750978529453278,0.0,2.03865909576416,-0.3811589479446411,4.323265075683594,2693.105224609375,2630.412109375,2968.462158203125,2578.02783203125,-13880,1.9947729110717773,-0.003983296919614077,-1.6056370735168457,1040,-1562
42011.236,0.0025493521243333817,-0.0037407490890473127,1.0,0.08977633714675903,-0.006159954238682985,1.0205134153366089,38121.41015625,2.3345494270324707,-0.06750978529453278,0.0,2.03865909576416,-0.3811589479446411,4.326476573944092,2954.46484375,2629.121826171875,3281.72314453125,2579.434814453125,-20769,1.9947729110717773,-0.003983296919614077,-1.6056370735168457,1830,-459
42013.206,0.0025493521243333817,-0.0037407490890473127,1.0,0.08977633714675903,-0.006159954238682985,1.0205134153366089,38121.41015625,2.3345494270324707,-0.06750978529453278,0.0,2.03865909576416,-0.3811589479446411,4.32968807220459,2682.70068359375,2628.119140625,2976.95751953125,2581.13525390625,-30198,1.9947729110717773,-0.003983296919614077,-1.6056370735168457,1347,157
42015.299,0.0029794122092425823,-0.004365500062704086,1.0,0.09005122631788254,-0.006216228008270264,1.0204137563705444,38137.8984375,2.2827720642089844,-0.04472582787275314,0.0,1.7279949188232422,-0.24445518851280212,4.332899570465088,1970.82177734375,2626.409423828125,2477.304443359375,2582.412109375,20890,1.9947729110717773,-0.003983296919614077,-1.6056370735168457,1982,1114
42017.167,0.0029794122092425823,-0.004365500062704086,1.0,0.09005122631788254,-0.006216228008270264,1.0204137563705444,38137.8984375,2.2827720642089844,-0.04472582787275314,0.0,1.4974923133850098,-0.16609208285808563,1.5334162712097168,2541.0390625,2624.873046875,2624.882080078125,2583.53125,24693,2.0331900119781494,-0.017043814063072205,-1.5901527404785156,1014,-1363
42019.148,0.0029794122092425823,-0.004365500062704086,1.0,0.09005122631788254,-0.006216228008270264,1.0204137563705444,38137.8984375,2.2827720642089844,-0.04472582787275314,0.0,1.4974923133850098,-0.16609208285808563,4.246354579925537,3239.916259765625,2624.41357421875,2891.688232421875,2584.873046875,23973,2.0331900119781494,-0.017043814063072205,-1.5901527404785156,1041,-1198
42021.121,0.0029794122092425823,-0.004365500062704086,1.0,0.09007509052753448,-0.006228269077837467,1.0202370882034302,38137.8984375,2.2827720642089844,-0.04472582787275314,0.0,1.4974923133850098,-0.16609208285808563,4.249535083770752,2068.303466796875,2623.29052734375,3249.17431640625,2586.8740234375,-15626,2.0331900119781494,-0.017043814063072205,-1.5901527404785156,2346,-1576
42023.105,0.0029794122092425823,-0.004365500062704086,1.0,0.09007509052753448,-0.006228269077837467,1.0202370882034302,38137.8984375,2.2827720642089844,-0.04472582787275314,0.0,1.4974923133850098,-0.16609208285808563,4.252715587615967,1979.19140625,2621.498291015625,3300.668701171875,2589.489990234375,25864,2.0331900119781494,-0.017043814063072205,-1.5901527404785156,1982,258
42025.185,0.003459216095507145,-0.005061027593910694,1.0,0.09020760655403137,-0.0062467362731695175,1.0202699899673462,38090.52734375,2.2948546409606934,-0.021976720541715622,0.0,1.5699877738952637,-0.029597438871860504,4.255896091461182,2722.554931640625,2620.141357421875,2996.191650390625,2592.20849609375,-28783,2.0331900119781494,-0.017043814063072205,-1.5901527404785156,1725,-1394
42027.086,0.003459216095507145,-0.005061027593910694,1.0,0.09020760655403137,-0.0062467362731695175,1.0202699899673462,38090.52734375,2.2948546409606934,-0.021976720541715622,0.0,1.5699877738952637,-0.029597438871860504,4.2590765953063965,2959.4501953125,2619.463623046875,2664.81298828125,2594.567626953125,-7683,2.0331900119781494,-0.017043814063072205,-1.5901527404785156,1509,-204
42029.047,0.003459216095507145,-0.005061027593910694,1.0,0.09020760655403137,-0.0062467362731695175,1.0202699899673462,38090.52734375,2.2948546409606934,-0.021976720541715622,0.0,1.4026837348937988,0.09119633585214615,0.8040485382080078,2933.044921875,2619.3173828125,2619.52685546875,2596.56396484375,-31984,2.0610740184783936,-0.03717610985040665,-1.5710468292236328,2948,-265
42031.017,0.003459216095507145,-0.005061027593910694,1.0,0.09031815081834793,-0.006286087445914745,1.0202339887619019,38090.52734375,2.2948546409606934,-0.021976720541715622,0.0,1.4026837348937988,0.09119633585214615,4.1507248878479,2155.18310546875,2618.577392578125,2460.771240234375,2598.044921875,-23934,2.0610740184783936,-0.03717610985040665,-1.5710468292236328,2829,-399
42032.997,0.003459216095507145,-0.005061027593910694,1.0,0.09031815081834793,-0.006286087445914745,1.0202339887619019,38090.52734375,2.2948546409606934,-0.021976720541715622,0.0,1.4026837348937988,0.09119633585214615,4.153866767883301,2300.5224609375,2617.538330078125,2544.41357421875,2599.205810546875,-772,2.0610740184783936,-0.03717610985040665,-1.5710468292236328,2402,287
42035.087,0.003992829471826553,-0.005833753384649754,1.0,0.09031815081834793,-0.006286087445914745,1.0202339887619019,38039.94921875,2.3145294189453125,0.004796269349753857,0.0,1.5207324028015137,0.25183427333831787,4.157008647918701,3187.318603515625,2617.43212890625,2492.945556640625,2600.030517578125,-31069,2.0610740184783936,-0.03717610985040665,-1.5710468292236328,1404,-1458
42036.952,0.003992829471826553,-0.005833753384649754,1.0,0.09056944400072098,-0.006350706797093153,1.0203007459640503,38039.94921875,2.3145294189453125,0.004796269349753857,0.0,1.3889250755310059,0.36340853571891785,1.2708444595336914,2361.116943359375,2617.00244140625,2485.27490234375,2600.56396484375,31248,2.0830419063568115,-0.05577182024717331,-1.555083990097046,2437,438
42038.956,0.003992829471826553,-0.005833753384649754,1.0,0.09056944400072098,-0.006350706797093153,1.0203007459640503,38039.94921875,2.3145294189453125,0.004796269349753857,0.0,1.3889250755310059,0.36340853571891785,4.067451000213623,1763.552001953125,2615.508544921875,2368.677490234375,2600.69921875,3793,2.0830419063568115,-0.05577182024717331,-1.555083990097046,2517,-679
42040.918,0.003992829471826553,-0.005833753384649754,1.0,0.09056944400072098,-0.006350706797093153,1.0203007459640503,38039.94921875,2.3145294189453125,0.004796269349753857,0.0,1.3889250755310059,0.36340853571891785,4.070560932159424,2484.908447265625,2614.09130859375,2425.918701171875,2600.5791015625,12108,2.0830419063568115,-0.05577182024717331,-1.555083990097046,2831,-76
42042.888,0.003992829471826553,-0.005833753384649754,1.0,0.09049368649721146,-0.006291050463914871,1.020212173461914,38039.94921875,2.3145294189453125,0.004796269349753857,0.0,1.3889250755310059,0.36340853571891785,4.073670864105225,3218.8779296875,2613.71728515625,2685.150390625,2600.591552734375,24786,2.0830419063568115,-0.05577182024717331,-1.555083990097046,3529,18
42044.974,0.00458327354863286,-0.006686355918645859,1.0,0.09049368649721146,-0.006291050463914871,1.020212173461914,38062.984375,2.32358980178833,0.03798916935920715,0.0,1.4432873725891113,0.5625659227371216,4.076780796051025,3072.381103515625,2614.016845703125,2573.785888671875,2600.56640625,19244,2.0830419063568115,-0.05577182024717331,-1.555083990097046,2408,-555
42046.872,0.00458327354863286,-0.006686355918645859,1.0,0.09049368649721146,-0.006291050463914871,1.020212173461914,38062.984375,2.32358980178833,0.03798916935920715,0.0,1.3144683837890625,0.5574703216552734,1.7781739234924316,2561.60888671875,2614.196044921875,2698.053466796875,2600.675048828125,-31668,2.1045117378234863,-0.05492255091667175,-1.5423674583435059,2035,-1835
42048.833,0.00458327354863286,-0.006686355918645859,1.0,0.09073059260845184,-0.006395917851477861,1.020189881324768,38062.984375,2.32358980178833,0.03798916935920715,0.0,1.3144683837890625,0.5574703216552734,4.006651401519775,2872.820068359375,2614.689697265625,2652.668701171875,2600.8349609375,-10005,2.1045117378234863,-0.05492255091667175,-1.5423674583435059,1776,-1518
42050.806,0.00458327354863286,-0.006686355918645859,1.0,0.09073059260845184,-0.006395917851477861,1.020189881324768,38062.984375,2.32358980178833,0.03798916935920715,0.0,1.3144683837890625,0.5574703216552734,4.009736061096191,2318.667724609375,2614.706298828125,2343.56494140625,2600.625244140625,30,2.1045117378234863,-0.05492255091667175,-1.5423674583435059,2743,-1452
42052.79,0.00458327354863286,-0.006686355918645859,1.0,0.09080075472593307,-0.006380386650562286,1.0201834440231323,38062.984375,2.32358980178833,0.03798916935920715,0.0,1.3144683837890625,0.5574703216552734,4.012820720672607,2115.944091796875,2614.05615234375,2505.62060546875,2600.324462890625,2407,2.1045117378234863,-0.05492255091667175,-1.5423674583435059,2552,-1292
42054.868,0.005234518554061651,-0.007623851299285889,1.0,0.09080075472593307,-0.006380386650562286,1.0201834440231323,38133.984375,2.3263649940490723,0.07597871124744415,0.0,1.3311195373535156,0.785407543182373,4.015905380249023,2798.598388671875,2613.7607421875,2741.193359375,2600.261474609375,23776,2.1045117378234863,-0.05492255091667175,-1.5423674583435059,2764,-1256
42056.74,0.005234518554061651,-0.007623851299285889,1.0,0.09080075472593307,-0.006380386650562286,1.0201834440231323,38133.984375,2.3263649940490723,0.07597871124744415,0.0,1.2532639503479004,0.7513598799705505,1.1159400939941406,2552.5185546875,2613.433349609375,2727.5810546875,2600.378662109375,27369,2.117487668991089,-0.04924793168902397,-1.526328682899475,2014,-1581
42058.724,0.005234518554061651,-0.007623851299285889,1.0,0.09104885905981064,-0.006351041607558727,1.0202569961547852,38133.984375,2.3263649940490723,0.07597871124744415,0.0,1.2532639503479004,0.7513598799705505,3.925778388977051,3003.9169921875,2613.680908203125,2707.21484375,2600.61865234375,27592,2.117487668991089,-0.04924793168902397,-1.526328682899475,2021,-1850
42060.702,0.005234518554061651,-0.007623851299285889,1.0,0.09104885905981064,-0.006351041607558727,1.0202569961547852,38133.984375,2.3263649940490723,0.07597871124744415,0.0,1.1897964477539062,0.7506252527236938,4.101555824279785,3069.68994140625,2614.494140625,2635.307861328125,2600.864501953125,26792,2.128065586090088,-0.04912549629807472,-1.527282953262329,2760,-461
42062.677,0.005234518554061651,-0.007623851299285889,1.0,0.09104885905981064,-0.006351041607558727,1.0202569961547852,38133.984375,2.3263649940490723,0.07597871124744415,0.0,1.1897964477539062,0.7506252527236938,3.9376134872436523,2387.639404296875,2614.86865234375,2595.810302734375,2601.062255859375,16976,2.128065586090088,-0.04912549629807472,-1.527282953262329,1796,-1344
42064.761,0.005949630867689848,-0.008651665411889553,1.0,0.09109947830438614,-0.0064217462204396725,1.0200190544128418,38182.68359375,2.2356960773468018,0.12643010914325714,0.0,0.6457829475402832,1.0533336400985718,3.9406681060791016,2098.140869140625,2614.492431640625,3106.6640625,2601.900146484375,-13012,2.128065586090088,-0.04912549629807472,-1.527282953262329,2496,-24
42066.639,0.005949630867689848,-0.008651665411889553,1.0,0.09109947830438614,-0.0064217462204396725,1.0200190544128418,38182.68359375,2.2356960773468018,0.12643010914325714,0.0,0.5402612686157227,1.0111299753189087,0.7829117774963379,2251.45263671875,2613.69580078125,2686.122314453125,2602.70947265625,-12378,2.1456525325775146,-0.042091552168130875,-1.5098201036453247,2208,-1242
42068.612,0.005949630867689848,-0.008651665411889553,1.0,0.09109947830438614,-0.0064217462204396725,1.0200190544128418,38182.68359375,2.2356960773468018,0.12643010914325714,0.0,0.5402612686157227,1.0111299753189087,3.841930389404297,2114.024169921875,2612.36767578125,2527.353759765625,2603.282958984375,-15074,2.1456525325775146,-0.042091552168130875,-1.5098201036453247,2428,-1417
42070.591,0.005949630867689848,-0.008651665411889553,1.0,0.09109947830438614,-0.0064217462204396725,1.0200190544128418,38182.68359375,2.2356960773468018,0.12643010914325714,0.0,0.5402612686157227,1.0111299753189087,3.8449501991271973,2922.919189453125,2611.67578125,2859.10595703125,2604.1005859375,2797,2.1456525325775146,-0.042091552168130875,-1.5098201036453247,1796,-824
42072.575,0.005949630867689848,-0.008651665411889553,1.0,0.09140915423631668,-0.006472146138548851,1.0202504396438599,38182.68359375,2.2356960773468018,0.12643010914325714,0.0,0.5402612686157227,1.0111299753189087,3.8479700088500977,2922.143798828125,2611.513427734375,2597.328125,2604.772216796875,-10728,2.1456525325775146,-0.042091552168130875,-1.5098201036453247,1314,-1182
42074.663,0.006731715984642506,-0.009774076752364635,1.0,0.09140915423631668,-0.006472146138548851,1.0202504396438599,38191.140625,2.2027463912963867,0.17658153176307678,0.0,0.3425631523132324,1.3120384216308594,3.850989818572998,2407.855712890625,2611.107177734375,2546.159423828125,2605.253173828125,-5213,2.1456525325775146,-0.042091552168130875,-1.5098201036453247,2156,-545
42076.528,0.006731715984642506,-0.009774076752364635,1.0,0.09151102602481842,-0.0064946734346449375,1.0199652910232544,38191.140625,2.2027463912963867,0.17658153176307678,0.0,0.3425631523132324,1.3120384216308594,3.8540096282958984,3178.007080078125,2611.52392578125,2485.654296875,2605.494140625,15962,2.1456525325775146,-0.042091552168130875,-1.5098201036453247,3082,-578
42078.508,0.006731715984642506,-0.009774076752364635,1.0,0.09151102602481842,-0.0064946734346449375,1.0199652910232544,38191.140625,2.2027463912963867,0.17658153176307678,0.0,0.2297658920288086,1.2853872776031494,1.262683391571045,2600.505859375,2611.85595703125,2471.29541015625,2605.515625,-20493,2.164452075958252,-0.03764968737959862,-1.495486855506897,1739,-1829
42080.492,0.006731715984642506,-0.009774076752364635,1.0,0.09165645390748978,-0.006488352548331022,1.020071029663086,38191.140625,2.2027463912963867,0.17658153176307678,0.0,0.2297658920288086,1.2853872776031494,3.7739925384521484,2094.83935546875,2611.444091796875,2461.847900390625,2605.342529296875,-8245,2.164452075958252,-0.03764968737959862,-1.495486855506897,2497,-1209
42082.474,0.006731715984642506,-0.009774076752364635,1.0,0.09165645390748978,-0.006488352548331022,1.020071029663086,38191.140625,2.2027463912963867,0.17658153176307678,0.0,0.15377283096313477,1.28631591796875,4.024343490600586,2708.402099609375,2611.230224609375,2587.237548828125,2605.17431640625,-26352,2.1771175861358643,-0.03780445083975792,-1.4968534708023071,2277,-1947
42084.562,0.0075857751071453094,-0.010995276272296906,1.0,0.09165645390748978,-0.006488352548331022,1.020071029663086,38148.36328125,2.1750032901763916,0.23456989228725433,0.0,-0.012685775756835938,1.6342459917068481,3.788179397583008,2361.808349609375,2610.72021484375,2782.894287109375,2605.270751953125,15776,2.1771175861358643,-0.03780445083975792,-1.4968534708023071,3805,1037
42086.422,0.0075857751071453094,-0.010995276272296906,1.0,0.09180282801389694,-0.006506531964987516,1.020059585571289,38148.36328125,2.1750032901763916,0.23456989228725433,0.0,-0.012685775756835938,1.6342459917068481,3.791172981262207,2435.8291015625,2610.062744140625,2495.50244140625,2605.205078125,-18788,2.1771175861358643,-0.03780445083975792,-1.4968534708023071,1584,-1390
