timestamp,posCtl.targetX,posCtl.targetY,posCtl.targetZ,locSrv.x,locSrv.y,locSrv.z,controller.actuatorThrust,controller.pitch,controller.roll,controller.yaw,pid_attitude.pitch_output,pid_attitude.roll_output,pid_attitude.yaw_output,pid_rate.pitch_output,pid_rate.pitch_outI,pid_rate.roll_output,pid_rate.roll_outI,pid_rate.yaw_output,stateEstimate.pitch,stateEstimate.roll,stateEstimate.yaw,snn_control.torque_pitch,snn_control.torque_roll
104561.217,-3.2200668442783353e-07,1.0318415633037148e-07,1.0,0.07649412006139755,0.06092497333884239,1.0152921676635742,37605.4921875,3.1301705837249756,3.811332941055298,0.0,1.9657888412475586,21.251174926757812,-4.770326614379883,21923.0078125,16487.861328125,23691.158203125,16650.0,20579,2.802539110183716,0.2694704234600067,0.9848527312278748,6793,4460
104563.133,-3.2200668442783353e-07,1.0318415633037148e-07,1.0,0.07649412006139755,0.06092497333884239,1.0152921676635742,37605.4921875,3.1301705837249756,3.811332941055298,0.0,1.9657888412475586,21.251174926757812,-6.76934814453125,20332.642578125,16516.359375,24140.833984375,16650.0,20475,2.802539110183716,0.2694704234600067,0.9848527312278748,5414,7387
104565.108,-3.2200668442783353e-07,1.0318415633037148e-07,1.0,0.07642047107219696,0.06089285761117935,1.015201210975647,37605.4921875,3.1301705837249756,3.811332941055298,0.0,1.9657888412475586,21.251174926757812,-6.771317958831787,19525.443359375,16544.08203125,23507.978515625,16650.0,21918,2.802539110183716,0.2694704234600067,0.9848527312278748,6014,4556
104567.13,-3.2200668442783353e-07,1.0318415633037148e-07,1.0,0.07642047107219696,0.06089285761117935,1.015201210975647,37605.4921875,3.1301705837249756,3.811332941055298,0.0,2.009589672088623,21.222414016723633,-6.93630313873291,19589.513671875,16571.208984375,23564.78515625,16650.0,9425,2.795238971710205,0.27426376938819885,0.9857533574104309,7220,6010
104569.077,-3.2200668442783353e-07,1.0318415633037148e-07,1.0,0.07641683518886566,0.06087220087647438,1.0152451992034912,37605.4921875,3.1301705837249756,3.811332941055298,0.0,3.532167434692383,22.52598762512207,-5.657014846801758,20896.23828125,16599.54296875,25336.255859375,16650.0,-11137,2.541476011276245,0.057001661509275436,0.9795454144477844,7232,6323
104571.138,-2.3612172128650855e-07,-4.21611332512839e-08,1.0,0.07641683518886566,0.06087220087647438,1.0152451992034912,37672.625,3.0249528884887695,3.785628318786621,0.0,2.9008612632751465,22.371761322021484,-6.745364189147949,18888.220703125,16626.171875,24493.25390625,16650.0,2553,2.541476011276245,0.057001661509275436,0.9795454144477844,5665,5216
104573.023,-2.3612172128650855e-07,-4.21611332512839e-08,1.0,0.07641683518886566,0.06087220087647438,1.0152451992034912,37672.625,3.0249528884887695,3.785628318786621,0.0,2.9634246826171875,22.338457107543945,-6.950525760650635,19048.064453125,16650.0,24703.81640625,16650.0,-18059,2.5310487747192383,0.06255219131708145,0.9806680679321289,7155,7145
104575.003,-2.3612172128650855e-07,-4.21611332512839e-08,1.0,0.07635180652141571,0.060785215348005295,1.0151498317718506,37672.625,3.0249528884887695,3.785628318786621,0.0,2.9634246826171875,22.338457107543945,-6.7560224533081055,19356.55859375,16650.0,24792.515625,16650.0,30628,2.5310487747192383,0.06255219131708145,0.9806680679321289,6350,6964
104577.026,-2.3612172128650855e-07,-4.21611332512839e-08,1.0,0.07635180652141571,0.060785215348005295,1.0151498317718506,37672.625,3.0249528884887695,3.785628318786621,0.0,3.02964448928833,22.308103561401367,-6.9885029792785645,19851.884765625,16650.0,24751.451171875,16650.0,14617,2.520012140274048,0.06761088222265244,0.9819416403770447,6253,7265
104578.98,-2.3612172128650855e-07,-4.21611332512839e-08,1.0,0.07635180652141571,0.060785215348005295,1.0151498317718506,37672.625,3.0249528884887695,3.785628318786621,0.0,4.4144110679626465,24.230297088623047,-6.128326416015625,20541.80078125,16650.0,25717.826171875,16650.0,-12647,2.289217710494995,-0.25275474786758423,0.9784098267555237,6139,7663
104581.004,1.7725552936553868e-07,-7.400220738418284e-07,1.0,0.07649854570627213,0.06085396185517311,1.015277624130249,37717.94921875,2.97184681892395,3.7473363876342773,0.0,4.0957746505737305,24.000545501708984,-6.748350620269775,17772.28515625,16650.0,23528.533203125,16650.0,5416,2.289217710494995,-0.25275474786758423,0.9784098267555237,4938,8489
104582.919,1.7725552936553868e-07,-7.400220738418284e-07,1.0,0.07649854570627213,0.06085396185517311,1.015277624130249,37717.94921875,2.97184681892395,3.7473363876342773,0.0,4.146639347076416,23.972896575927734,-7.050466537475586,18049.08203125,16650.0,24391.58984375,16650.0,1825,2.280740261077881,-0.2481462061405182,0.9800681471824646,6343,8517
104584.896,1.7725552936553868e-07,-7.400220738418284e-07,1.0,0.07649854570627213,0.06085396185517311,1.015277624130249,37717.94921875,2.97184681892395,3.7473363876342773,0.0,4.146639347076416,23.972896575927734,-6.762220859527588,19122.982421875,16650.0,25286.57421875,16650.0,13358,2.280740261077881,-0.2481462061405182,0.9800681471824646,5524,9156
104586.927,1.7725552936553868e-07,-7.400220738418284e-07,1.0,0.07628361135721207,0.06083672493696213,1.0150327682495117,37717.94921875,2.97184681892395,3.7473363876342773,0.0,4.146639347076416,23.972896575927734,-6.764181137084961,18468.142578125,16650.0,24056.650390625,16650.0,19020,2.280740261077881,-0.2481462061405182,0.9800681471824646,5350,8978
104588.856,1.7725552936553868e-07,-7.400220738418284e-07,1.0,0.07628361135721207,0.06083672493696213,1.0150327682495117,37717.94921875,2.97184681892395,3.7473363876342773,0.0,5.321499824523926,26.1346378326416,-6.661060810089111,17630.123046875,16650.0,23939.87109375,16650.0,-27228,2.084930181503296,-0.6084367632865906,0.9794875979423523,5385,7206
104590.903,1.3472990758600645e-06,-2.711075467232149e-06,1.0,0.07621008902788162,0.06077432632446289,1.0151656866073608,37710.3359375,2.9255316257476807,3.726489543914795,0.0,5.043608665466309,26.00955581665039,-6.764615535736084,16209.595703125,16650.0,22244.271484375,16650.0,5624,2.084930181503296,-0.6084367632865906,0.9794875979423523,5337,8873
104592.814,1.3472990758600645e-06,-2.711075467232149e-06,1.0,0.07621008902788162,0.06077432632446289,1.0151656866073608,37710.3359375,2.9255316257476807,3.726489543914795,0.0,5.125751495361328,25.977134704589844,-6.959496021270752,16445.892578125,16650.0,22702.125,16650.0,-17704,2.071239709854126,-0.6030331254005432,0.9805534482002258,2356,7095
104594.791,1.3472990758600645e-06,-2.711075467232149e-06,1.0,0.07621008902788162,0.06077432632446289,1.0151656866073608,37710.3359375,2.9255316257476807,3.726489543914795,0.0,5.125751495361328,25.977134704589844,-6.774932861328125,16207.6162109375,16650.0,22522.908203125,16650.0,16163,2.071239709854126,-0.6030331254005432,0.9805534482002258,3536,7264
104596.82,1.3472990758600645e-06,-2.711075467232149e-06,1.0,0.07617483288049698,0.060763757675886154,1.015276312828064,37710.3359375,2.9255316257476807,3.726489543914795,0.0,5.125751495361328,25.977134704589844,-6.7768940925598145,16750.27734375,16650.0,22385.857421875,16650.0,15416,2.071239709854126,-0.6030331254005432,0.9805534482002258,3940,7576
104598.756,1.3472990758600645e-06,-2.711075467232149e-06,1.0,0.07617483288049698,0.060763757675886154,1.015276312828064,37710.3359375,2.9255316257476807,3.726489543914795,0.0,5.634649276733398,27.826114654541016,-9.108709335327148,16970.595703125,16650.0,23486.79296875,16650.0,8953,1.986423373222351,-0.9111960530281067,0.9934254288673401,3110,8088
104600.79,3.87059253625921e-06,-6.956075139896711e-06,1.0,0.07617483288049698,0.060763757675886154,1.015276312828064,37700.26171875,2.8871757984161377,3.7216949462890625,0.0,5.404514312744141,27.797348022460938,-6.858099937438965,15514.79296875,16650.0,21755.947265625,16650.0,-21349,1.986423373222351,-0.9111960530281067,0.9934254288673401,2911,6235
104602.71,3.87059253625921e-06,-6.956075139896711e-06,1.0,0.07578948885202408,0.06073296442627907,1.0151429176330566,37700.26171875,2.8871757984161377,3.7216949462890625,0.0,5.404514312744141,27.797348022460938,-6.860086441040039,14757.8388671875,16650.0,21024.740234375,16650.0,20404,1.986423373222351,-0.9111960530281067,0.9934254288673401,2451,6616
104604.687,3.87059253625921e-06,-6.956075139896711e-06,1.0,0.07578948885202408,0.06073296442627907,1.0151429176330566,37700.26171875,2.8871757984161377,3.7216949462890625,0.0,5.462491035461426,27.768814086914062,-6.988741397857666,15385.7783203125,16649.130859375,20253.947265625,16650.0,-29673,1.9767606258392334,-0.9064406752586365,0.994125247001648,1791,5660
104606.714,3.87059253625921e-06,-6.956075139896711e-06,1.0,0.07578948885202408,0.06073296442627907,1.0151429176330566,37700.26171875,2.8871757984161377,3.7216949462890625,0.0,5.462491035461426,27.768814086914062,-6.868261814117432,15698.865234375,16647.14453125,19627.79296875,16650.0,7462,1.9767606258392334,-0.9064406752586365,0.994125247001648,1815,5308
104608.647,3.87059253625921e-06,-6.956075139896711e-06,1.0,0.07574153691530228,0.06062070280313492,1.0153965950012207,37700.26171875,2.8871757984161377,3.7216949462890625,0.0,5.462491035461426,27.768814086914062,-6.8702497482299805,14798.25390625,16643.02734375,20005.8046875,16650.0,-20795,1.9767606258392334,-0.9064406752586365,0.994125247001648,-271,4299
104610.695,8.526888450433034e-06,-1.4781280697206967e-05,1.0,0.07574153691530228,0.06062070280313492,1.0153965950012207,37673.703125,2.840568780899048,3.7316513061523438,0.0,4.997490406036377,29.097856521606445,-10.523453712463379,15362.736328125,16637.8984375,21545.8984375,16650.0,23064,2.0076537132263184,-1.117991328239441,1.0142974853515625,674,4022
104612.61,8.526888450433034e-06,-1.4781280697206967e-05,1.0,0.07574153691530228,0.06062070280313492,1.0153965950012207,37673.703125,2.840568780899048,3.7316513061523438,0.0,4.997490406036377,29.097856521606445,-6.995340824127197,15531.3017578125,16632.154296875,19122.798828125,16650.0,7382,2.0076537132263184,-1.117991328239441,1.0142974853515625,-250,3058
104614.582,8.526888450433034e-06,-1.4781280697206967e-05,1.0,0.0755966305732727,0.0606238916516304,1.0151338577270508,37673.703125,2.840568780899048,3.7316513061523438,0.0,4.997490406036377,29.097856521606445,-6.997369289398193,13834.01953125,16623.650390625,17528.8125,16650.0,17178,2.0076537132263184,-1.117991328239441,1.0142974853515625,1767,4193
104616.611,8.526888450433034e-06,-1.4781280697206967e-05,1.0,0.0755966305732727,0.0606238916516304,1.0151338577270508,37673.703125,2.840568780899048,3.7316513061523438,0.0,4.997490406036377,29.097856521606445,-6.9993977546691895,14013.970703125,16613.095703125,17525.84375,16650.0,-26569,2.0076537132263184,-1.117991328239441,1.0142974853515625,103,3294
104618.54,8.526888450433034e-06,-1.4781280697206967e-05,1.0,0.07545262575149536,0.06054748222231865,1.0151082277297974,37673.703125,2.840568780899048,3.7316513061523438,0.0,4.997490406036377,29.097856521606445,-7.001426696777344,14920.080078125,16602.05859375,17779.875,16650.0,-13368,2.0076537132263184,-1.117991328239441,1.0142974853515625,-1797,2970
104620.59,1.6239016986219212e-05,-2.7726151529350318e-05,1.0,0.07545262575149536,0.06054748222231865,1.0151082277297974,37668.22265625,2.7681941986083984,3.756070613861084,0.0,3.875269889831543,29.64251708984375,-10.827934265136719,13800.6748046875,16589.14453125,17746.552734375,16650.0,-28947,2.1223158836364746,-1.1843491792678833,1.0354269742965698,-1980,2066
104622.503,1.6239016986219212e-05,-2.7726151529350318e-05,1.0,0.07545262575149536,0.06054748222231865,1.0151082277297974,37668.22265625,2.7681941986083984,3.756070613861084,0.0,3.875269889831543,29.64251708984375,-7.132344722747803,14341.37890625,16575.400390625,16984.611328125,16650.0,8786,2.1223158836364746,-1.1843491792678833,1.0354269742965698,-778,2508
104624.477,1.6239016986219212e-05,-2.7726151529350318e-05,1.0,0.07502421736717224,0.06043288856744766,1.0154730081558228,37668.22265625,2.7681941986083984,3.756070613861084,0.0,3.875269889831543,29.64251708984375,-7.134415626525879,14845.009765625,16561.66015625,16805.078125,16650.0,25201,2.1223158836364746,-1.1843491792678833,1.0354269742965698,-1563,301
104626.501,1.6239016986219212e-05,-2.7726151529350318e-05,1.0,0.07502421736717224,0.06043288856744766,1.0154730081558228,37668.22265625,2.7681941986083984,3.756070613861084,0.0,3.875269889831543,29.64251708984375,-7.136486530303955,14671.45703125,16547.708984375,16608.974609375,16650.0,12144,2.1223158836364746,-1.1843491792678833,1.0354269742965698,-236,2819
104628.436,1.6239016986219212e-05,-2.7726151529350318e-05,1.0,0.07502421736717224,0.06043288856744766,1.0154730081558228,37668.22265625,2.7681941986083984,3.756070613861084,0.0,2.852867603302002,29.029766082763672,-9.919568061828613,13367.4423828125,16531.861328125,15450.30859375,16650.0,32152,2.2927162647247314,-1.0822240114212036,1.0507915019989014,-2423,599
104630.479,2.8136044420534745e-05,-4.765932681038976e-05,1.0,0.07482884079217911,0.060444243252277374,1.0153985023498535,37662.63671875,2.668543815612793,3.797753095626831,0.0,2.254965305328369,29.279863357543945,-7.232877254486084,13740.349609375,16514.95703125,15033.341796875,16650.0,-23856,2.2927162647247314,-1.0822240114212036,1.0507915019989014,-2298,-1649
104632.392,2.8136044420534745e-05,-4.765932681038976e-05,1.0,0.07482884079217911,0.060444243252277374,1.0153985023498535,37662.63671875,2.668543815612793,3.797753095626831,0.0,2.254965305328369,29.279863357543945,-7.234978675842285,14417.982421875,16498.095703125,14420.63671875,16650.0,-5082,2.2927162647247314,-1.0822240114212036,1.0507915019989014,-1194,-3993
104634.373,2.8136044420534745e-05,-4.765932681038976e-05,1.0,0.07462549209594727,0.06040147691965103,1.0153939723968506,37662.63671875,2.668543815612793,3.797753095626831,0.0,2.254965305328369,29.279863357543945,-7.2370805740356445,14885.8466796875,16481.91796875,15011.130859375,16649.14453125,27866,2.2927162647247314,-1.0822240114212036,1.0507915019989014,-908,-2544
104636.401,2.8136044420534745e-05,-4.765932681038976e-05,1.0,0.07462549209594727,0.06040147691965103,1.0153939723968506,37662.63671875,2.668543815612793,3.797753095626831,0.0,2.254965305328369,29.279863357543945,-7.239181995391846,15757.287109375,16467.48828125,15351.8916015625,16646.70703125,-25850,2.2927162647247314,-1.0822240114212036,1.0507915019989014,-2246,-3776
104638.335,2.8136044420534745e-05,-4.765932681038976e-05,1.0,0.07462549209594727,0.06040147691965103,1.0153939723968506,37662.63671875,2.668543815612793,3.797753095626831,0.0,1.145280361175537,27.72758674621582,-8.263952255249023,14574.6806640625,16452.9609375,13661.646484375,16640.703125,11938,2.47766375541687,-0.8235112428665161,1.0564415454864502,-1296,-2497
104640.372,4.544976036413573e-05,-7.659303082618862e-05,1.0,0.07431668043136597,0.06037774309515953,1.015160083770752,37653.27734375,2.587315082550049,3.8201522827148438,0.0,0.6579079627990723,27.861980438232422,-7.277307987213135,14989.693359375,16438.921875,14389.1376953125,16632.708984375,18952,2.47766375541687,-0.8235112428665161,1.0564415454864502,-1720,-5172
104642.297,4.544976036413573e-05,-7.659303082618862e-05,1.0,0.07431668043136597,0.06037774309515953,1.015160083770752,37653.27734375,2.587315082550049,3.8201522827148438,0.0,0.6579079627990723,27.861980438232422,-7.279420852661133,15286.013671875,16425.701171875,13830.388671875,16622.32421875,-8795,2.47766375541687,-0.8235112428665161,1.0564415454864502,-1041,-2567
104644.268,4.544976036413573e-05,-7.659303082618862e-05,1.0,0.07431668043136597,0.06037774309515953,1.015160083770752,37653.27734375,2.587315082550049,3.8201522827148438,0.0,0.6579079627990723,27.861980438232422,-7.281533718109131,14960.3974609375,16412.748046875,14546.056640625,16610.916015625,-9328,2.47766375541687,-0.8235112428665161,1.0564415454864502,-1547,-2392
104646.291,4.544976036413573e-05,-7.659303082618862e-05,1.0,0.07402294129133224,0.060436174273490906,1.0152207612991333,37653.27734375,2.587315082550049,3.8201522827148438,0.0,0.6579079627990723,27.861980438232422,-7.283646583557129,15929.646484375,16401.326171875,15447.9052734375,16599.875,-16288,2.47766375541687,-0.8235112428665161,1.0564415454864502,-609,-3143
104648.225,4.544976036413573e-05,-7.659303082618862e-05,1.0,0.07402294129133224,0.060436174273490906,1.0152207612991333,37653.27734375,2.587315082550049,3.8201522827148438,0.0,0.6579079627990723,27.861980438232422,-7.285759449005127,16525.634765625,16391.984375,15450.9189453125,16589.154296875,-10708,2.47766375541687,-0.8235112428665161,1.0564415454864502,-1725,-3079
104650.266,6.965034117456526e-05,-0.00011689358507283032,1.0,0.07402294129133224,0.060436174273490906,1.0152207612991333,37642.2578125,2.4657907485961914,3.840341806411743,0.0,-0.9909768104553223,25.537094116210938,-6.033205986022949,14761.5380859375,16382.0400390625,12666.0712890625,16575.009765625,-21146,2.630953550338745,-0.4158404767513275,1.0495097637176514,277,-3356
104652.188,6.965034117456526e-05,-0.00011689358507283032,1.0,0.07380361109972,0.0604020431637764,1.0152522325515747,37642.2578125,2.4657907485961914,3.840341806411743,0.0,-0.9909768104553223,25.537094116210938,-7.248366832733154,16204.486328125,16373.52734375,14414.1123046875,16560.361328125,21836,2.630953550338745,-0.4158404767513275,1.0495097637176514,890,-2013
104654.163,6.965034117456526e-05,-0.00011689358507283032,1.0,0.07380361109972,0.0604020431637764,1.0152522325515747,37642.2578125,2.4657907485961914,3.840341806411743,0.0,-0.9909768104553223,25.537094116210938,-7.2504658699035645,17239.021484375,16367.595703125,15613.9267578125,16546.912109375,32655,2.630953550338745,-0.4158404767513275,1.0495097637176514,-57,-4107
104656.187,6.965034117456526e-05,-0.00011689358507283032,1.0,0.07380361109972,0.0604020431637764,1.0152522325515747,37642.2578125,2.4657907485961914,3.840341806411743,0.0,-0.9909768104553223,25.537094116210938,-7.252564907073975,17992.78515625,16364.822265625,16108.8974609375,16535.1328125,32216,2.630953550338745,-0.4158404767513275,1.0495097637176514,727,-3868
104658.13,6.965034117456526e-05,-0.00011689358507283032,1.0,0.0737297534942627,0.060259945690631866,1.015401840209961,37642.2578125,2.4657907485961914,3.840341806411743,0.0,-0.9909768104553223,25.537094116210938,-7.254663944244385,17709.951171875,16364.3056640625,15872.6826171875,16524.451171875,-377,2.630953550338745,-0.4158404767513275,1.0495097637176514,-514,-2761
104660.16,0.00010227310849586502,-0.00017110865155700594,1.0,0.0737297534942627,0.060259945690631866,1.015401840209961,37595.97265625,2.3325071334838867,3.8420257568359375,0.0,-2.1549482345581055,22.998348236083984,-6.998269081115723,16494.96484375,16364.0498046875,14397.611328125,16512.728515625,-14841,2.6916651725769043,0.008967608213424683,1.048081636428833,1713,-3320
104662.082,0.00010227310849586502,-0.00017110865155700594,1.0,0.07345545291900635,0.06019401177763939,1.0153518915176392,37595.97265625,2.3325071334838867,3.8420257568359375,0.0,-2.1549482345581055,22.998348236083984,-7.2502875328063965,17587.099609375,16365.46484375,16542.62109375,16503.01171875,9604,2.6916651725769043,0.008967608213424683,1.048081636428833,1887,-2699
104664.065,0.00010227310849586502,-0.00017110865155700594,1.0,0.07345545291900635,0.06019401177763939,1.0153518915176392,37595.97265625,2.3325071334838867,3.8420257568359375,0.0,-2.1549482345581055,22.998348236083984,-7.252383708953857,17992.544921875,16368.810546875,16724.154296875,16495.220703125,-28347,2.6916651725769043,0.008967608213424683,1.048081636428833,2116,-2660
104666.16,0.00010227310849586502,-0.00017110865155700594,1.0,0.07345545291900635,0.06019401177763939,1.0153518915176392,37595.97265625,2.3325071334838867,3.8420257568359375,0.0,-2.1549482345581055,22.998348236083984,-7.254479885101318,18640.53515625,16374.6181640625,16999.736328125,16489.40625,27300,2.6916651725769043,0.008967608213424683,1.048081636428833,1705,-3352
104668.025,0.00010227310849586502,-0.00017110865155700594,1.0,0.07345545291900635,0.06019401177763939,1.0153518915176392,37595.97265625,2.3325071334838867,3.8420257568359375,0.0,-2.1549482345581055,22.998348236083984,-7.256576061248779,19015.53125,16382.96875,17489.91015625,16485.900390625,-7608,2.6916651725769043,0.008967608213424683,1.048081636428833,2249,-2845
104670.059,0.0001450343697797507,-0.00024201044288929552,1.0,0.07309010624885559,0.06011195853352547,1.0151516199111938,37583.44921875,2.346827983856201,3.831839084625244,0.0,-2.0690231323242188,22.93722915649414,-7.25867223739624,18721.259765625,16393.03125,18217.13671875,16485.2890625,6591,2.6916651725769043,0.008967608213424683,1.048081636428833,3045,-4317
104671.98,0.0001450343697797507,-0.00024201044288929552,1.0,0.07309010624885559,0.06011195853352547,1.0151516199111938,37583.44921875,2.346827983856201,3.831839084625244,0.0,-1.8115582466125488,21.055442810058594,-8.438641548156738,19391.638671875,16405.3984375,17573.32421875,16486.228515625,12860,2.648754358291626,0.3225983679294586,1.0545891523361206,4038,-1842
104673.956,0.0001450343697797507,-0.00024201044288929552,1.0,0.07296670228242874,0.06009262055158615,1.0152727365493774,37583.44921875,2.346827983856201,3.831839084625244,0.0,-1.8115582466125488,21.055442810058594,-7.301935195922852,19705.40625,16420.0859375,18669.623046875,16489.91796875,-11015,2.648754358291626,0.3225983679294586,1.0545891523361206,4623,289
104675.978,0.0001450343697797507,-0.00024201044288929552,1.0,0.07296670228242874,0.06009262055158615,1.0152727365493774,37583.44921875,2.346827983856201,3.831839084625244,0.0,-1.8981499671936035,21.045549392700195,-7.288228511810303,19663.08203125,16436.626953125,18742.142578125,16495.986328125,-21112,2.6631863117218018,0.3242475688457489,1.0545017719268799,5516,-266
104677.911,0.0001450343697797507,-0.00024201044288929552,1.0,0.07296670228242874,0.06009262055158615,1.0152727365493774,37583.44921875,2.346827983856201,3.831839084625244,0.0,-1.8981499671936035,21.045549392700195,-7.305629253387451,19847.748046875,16454.935546875,19897.4609375,16505.568359375,25546,2.6631863117218018,0.3242475688457489,1.0545017719268799,5277,83
104679.95,0.0001997532817767933,-0.0003326027363073081,1.0,0.07269745320081711,0.060093555599451065,1.0152380466461182,37551.4296875,2.206873655319214,3.8143789768218994,0.0,-2.7378759384155273,20.94078826904297,-7.307738304138184,18943.111328125,16473.484375,20113.583984375,16518.345703125,23938,2.6631863117218018,0.3242475688457489,1.0545017719268799,5376,-90
104681.87,0.0001997532817767933,-0.0003326027363073081,1.0,0.07269745320081711,0.060093555599451065,1.0152380466461182,37551.4296875,2.206873655319214,3.8143789768218994,0.0,-1.8613572120666504,19.8353271484375,-7.967172622680664,20239.962890625,16493.9375,19456.06640625,16532.890625,-29831,2.5170998573303223,0.5084913969039917,1.0581333637237549,6135,965
104683.849,0.0001997532817767933,-0.0003326027363073081,1.0,0.07241598516702652,0.060081303119659424,1.0149942636489868,37551.4296875,2.206873655319214,3.8143789768218994,0.0,-1.8613572120666504,19.8353271484375,-7.3337602615356445,20629.880859375,16516.46484375,21175.19921875,16551.17578125,-17744,2.5170998573303223,0.5084913969039917,1.0581333637237549,4840,-238
104685.918,0.0001997532817767933,-0.0003326027363073081,1.0,0.07241598516702652,0.060081303119659424,1.0149942636489868,37551.4296875,2.206873655319214,3.8143789768218994,0.0,-1.8986849784851074,19.821292877197266,-7.324613571166992,20712.966796875,16540.80078125,21549.11328125,16573.048828125,6997,2.5233211517333984,0.5108301639556885,1.0580711364746094,5981,765
104687.808,0.0001997532817767933,-0.0003326027363073081,1.0,0.07241598516702652,0.060081303119659424,1.0149942636489868,37551.4296875,2.206873655319214,3.8143789768218994,0.0,-1.8986849784851074,19.821292877197266,-7.337619304656982,19784.9765625,16565.373046875,21538.5390625,16597.86328125,-5552,2.5233211517333984,0.5108301639556885,1.0580711364746094,5718,2479
104689.854,0.0002684200298972428,-0.0004460653872229159,1.0,0.07241598516702652,0.060081303119659424,1.0149942636489868,37637.58203125,1.915986180305481,3.765462636947632,0.0,-2.0699737071990967,19.37034797668457,-8.075492858886719,18982.509765625,16589.041015625,21437.16015625,16624.958984375,-17387,2.260981798171997,0.5370712876319885,1.0621360540390015,7148,2527
104691.767,0.0002684200298972428,-0.0004460653872229159,1.0,0.07231424748897552,0.06015004217624664,1.0150340795516968,37637.58203125,1.915986180305481,3.765462636947632,0.0,-2.0699737071990967,19.37034797668457,-7.366257190704346,19216.275390625,16612.236328125,22327.0078125,16650.0,-9598,2.260981798171997,0.5370712876319885,1.0621360540390015,6319,3777
104693.743,0.0002684200298972428,-0.0004460653872229159,1.0,0.07231424748897552,0.06015004217624664,1.0150340795516968,37637.58203125,1.915986180305481,3.765462636947632,0.0,-2.0699737071990967,19.37034797668457,-7.368381500244141,19755.7265625,16635.7265625,23256.41015625,16650.0,-182,2.260981798171997,0.5370712876319885,1.0621360540390015,6083,2965
104695.769,0.0002684200298972428,-0.0004460653872229159,1.0,0.07219284772872925,0.060067299753427505,1.0147414207458496,37637.58203125,1.915986180305481,3.765462636947632,0.0,-2.0699737071990967,19.37034797668457,-7.3705058097839355,19462.6796875,16650.0,23714.611328125,16650.0,13456,2.260981798171997,0.5370712876319885,1.0621360540390015,6668,4555
104697.778,0.0002684200298972428,-0.0004460653872229159,1.0,0.07219284772872925,0.060067299753427505,1.0147414207458496,37637.58203125,1.915986180305481,3.765462636947632,0.0,-2.0699737071990967,19.37034797668457,-7.3726301193237305,19153.751953125,16650.0,23599.767578125,16650.0,8361,2.260981798171997,0.5370712876319885,1.0621360540390015,5080,5016
104699.74,0.0003532241680659354,-0.0005857222713530064,1.0,0.07219284772872925,0.060067299753427505,1.0147414207458496,37623.390625,1.9615569114685059,3.7455453872680664,0.0,-1.7965493202209473,19.250844955444336,-7.374753952026367,19561.65625,16650.0,23375.5390625,16650.0,-21220,2.260981798171997,0.5370712876319885,1.0621360540390015,6745,5462
104701.659,0.0003532241680659354,-0.0005857222713530064,1.0,0.07169368863105774,0.06013723835349083,1.0147590637207031,37623.390625,1.9615569114685059,3.7455453872680664,0.0,-0.2741532325744629,20.12324333190918,-8.173419952392578,20224.9453125,16650.0,24363.087890625,16650.0,11126,2.007249116897583,0.39167138934135437,1.066536784172058,5982,5554
104703.642,0.0003532241680659354,-0.0005857222713530064,1.0,0.07169368863105774,0.06013723835349083,1.0147590637207031,37623.390625,1.9615569114685059,3.7455453872680664,0.0,-0.2741532325744629,20.12324333190918,-7.405425071716309,19192.025390625,16650.0,24240.21484375,16650.0,3234,2.007249116897583,0.39167138934135437,1.066536784172058,3584,6909
104705.691,0.0003532241680659354,-0.0005857222713530064,1.0,0.07107989490032196,0.06029222905635834,1.0148826837539673,37623.390625,1.9615569114685059,3.7455453872680664,0.0,-0.2741532325744629,20.12324333190918,-7.407557964324951,19543.66015625,16650.0,24800.43359375,16650.0,-27050,2.007249116897583,0.39167138934135437,1.066536784172058,5893,7046
104707.611,0.0003532241680659354,-0.0005857222713530064,1.0,0.07107989490032196,0.06029222905635834,1.0148826837539673,37623.390625,1.9615569114685059,3.7455453872680664,0.0,-0.2741532325744629,20.12324333190918,-7.409690856933594,19048.240234375,16650.0,24701.578125,16650.0,-31724,2.007249116897583,0.39167138934135437,1.066536784172058,3264,6487
104709.646,0.00045624232734553516,-0.0007552140159532428,1.0,0.07107989490032196,0.06029222905635834,1.0148826837539673,37674.22265625,1.7362473011016846,3.6963610649108887,0.0,-0.20233726501464844,21.537126541137695,-8.23654556274414,18396.998046875,16650.0,25388.15234375,16650.0,-22674,1.769970178604126,0.10683996975421906,1.071093201637268,7051,6541
104711.555,0.00045624232734553516,-0.0007552140159532428,1.0,0.07112360000610352,0.06012072041630745,1.0147274732589722,37674.22265625,1.7362473011016846,3.6963610649108887,0.0,-0.20233726501464844,21.537126541137695,-7.441314697265625,18477.5234375,16650.0,24636.083984375,16650.0,-18925,1.769970178604126,0.10683996975421906,1.071093201637268,5157,7380
104713.532,0.00045624232734553516,-0.0007552140159532428,1.0,0.07112360000610352,0.06012072041630745,1.0147274732589722,37674.22265625,1.7362473011016846,3.6963610649108887,0.0,-0.20233726501464844,21.537126541137695,-7.443456649780273,17970.71484375,16650.0,24097.783203125,16650.0,32115,1.769970178604126,0.10683996975421906,1.071093201637268,4147,7695
104715.556,0.00045624232734553516,-0.0007552140159532428,1.0,0.07112360000610352,0.06012072041630745,1.0147274732589722,37674.22265625,1.7362473011016846,3.6963610649108887,0.0,-0.20233726501464844,21.537126541137695,-7.445598602294922,17003.4375,16650.0,24272.94921875,16650.0,25445,1.769970178604126,0.10683996975421906,1.071093201637268,4349,8767
104717.547,0.00045624232734553516,-0.0007552140159532428,1.0,0.07097919285297394,0.05987309291958809,1.0148178339004517,37674.22265625,1.7362473011016846,3.6963610649108887,0.0,-0.20233726501464844,21.537126541137695,-7.4477410316467285,17299.7265625,16650.0,24246.68359375,16650.0,935,1.769970178604126,0.10683996975421906,1.071093201637268,5487,8089
104719.536,0.0005800352664664388,-0.0009581223130226135,1.0,0.07097919285297394,0.05987309291958809,1.0148178339004517,37661.203125,1.7683753967285156,3.683864116668701,0.0,-0.00956869125366211,21.46214485168457,-7.449883460998535,17924.7734375,16650.0,24408.04296875,16650.0,-27714,1.769970178604126,0.10683996975421906,1.071093201637268,4230,6734
104721.451,0.0005800352664664388,-0.0009581223130226135,1.0,0.07097919285297394,0.05987309291958809,1.0148178339004517,37661.203125,1.7683753967285156,3.683864116668701,0.0,1.0767695903778076,23.630273818969727,-7.967955589294434,18875.0546875,16650.0,26330.375,16650.0,11409,1.5889137983322144,-0.2545149624347687,1.0739436149597168,3917,9394
104723.427,0.0005800352664664388,-0.0009581223130226135,1.0,0.07071590423583984,0.05980898067355156,1.014983057975769,37661.203125,1.7683753967285156,3.683864116668701,0.0,1.0767695903778076,23.630273818969727,-7.471281051635742,17978.37890625,16650.0,24538.796875,16650.0,-17794,1.5889137983322144,-0.2545149624347687,1.0739436149597168,2933,7132
104725.453,0.0005800352664664388,-0.0009581223130226135,1.0,0.07071590423583984,0.05980898067355156,1.014983057975769,37661.203125,1.7683753967285156,3.683864116668701,0.0,1.1148147583007812,23.607053756713867,-7.385848045349121,16895.884765625,16650.0,23688.953125,16650.0,24558,1.5825729370117188,-0.2506449222564697,1.0734597444534302,4179,6576
104727.395,0.0005800352664664388,-0.0009581223130226135,1.0,0.07071590423583984,0.05980898067355156,1.014983057975769,37661.203125,1.7683753967285156,3.683864116668701,0.0,1.1148147583007812,23.607053756713867,-7.472672462463379,16805.57421875,16650.0,23136.2109375,16650.0,16698,1.5825729370117188,-0.2506449222564697,1.0734597444534302,3936,8167
104729.468,0.000727543723769486,-0.0011993920197710395,1.0,0.07045964151620865,0.0598197802901268,1.0150247812271118,37697.5078125,1.674997091293335,3.6792263984680176,0.0,0.5545449256896973,23.579227447509766,-7.474819183349609,15766.947265625,16650.0,22627.34765625,16650.0,29315,1.5825729370117188,-0.2506449222564697,1.0734597444534302,3123,8318
104731.343,0.000727543723769486,-0.0011993920197710395,1.0,0.07045964151620865,0.0598197802901268,1.0150247812271118,37697.5078125,1.674997091293335,3.6792263984680176,0.0,1.304110050201416,26.071815490722656,-8.312885284423828,15473.0595703125,16650.0,23551.0078125,16650.0,-30040,1.4576454162597656,-0.6660760641098022,1.078078031539917,3158,6419
104733.325,0.000727543723769486,-0.0011993920197710395,1.0,0.07045964151620865,0.0598197802901268,1.0150247812271118,37697.5078125,1.674997091293335,3.6792263984680176,0.0,1.304110050201416,26.071815490722656,-7.506840705871582,15364.0947265625,16650.0,21674.15625,16650.0,15074,1.4576454162597656,-0.6660760641098022,1.078078031539917,3577,7284
104735.348,0.000727543723769486,-0.0011993920197710395,1.0,0.0699467882514,0.05977945029735565,1.0149281024932861,37697.5078125,1.674997091293335,3.6792263984680176,0.0,1.304110050201416,26.071815490722656,-7.508996963500977,15999.57421875,16650.0,22003.52734375,16650.0,-12684,1.4576454162597656,-0.6660760641098022,1.078078031539917,2646,5027
104737.319,0.000727543723769486,-0.0011993920197710395,1.0,0.0699467882514,0.05977945029735565,1.0149281024932861,37697.5078125,1.674997091293335,3.6792263984680176,0.0,1.304110050201416,26.071815490722656,-7.511153221130371,16016.9287109375,16649.748046875,21783.8203125,16650.0,-32437,1.4576454162597656,-0.6660760641098022,1.078078031539917,-532,6039
104739.328,0.0008993213414214551,-0.001479791826568544,1.0,0.0699467882514,0.05977945029735565,1.0149281024932861,37707.98828125,1.593418836593628,3.6820459365844727,0.0,0.8146405220031738,26.088733673095703,-7.513309478759766,15518.1826171875,16648.03125,21791.435546875,16650.0,-11175,1.4576454162597656,-0.6660760641098022,1.078078031539917,1408,5489
104741.238,0.0008993213414214551,-0.001479791826568544,1.0,0.06958276778459549,0.0597311407327652,1.0147686004638672,37707.98828125,1.593418836593628,3.6820459365844727,0.0,0.8146405220031738,26.088733673095703,-7.51546573638916,15794.638671875,16645.466796875,21156.296875,16650.0,-12264,1.4576454162597656,-0.6660760641098022,1.078078031539917,1189,4732
104743.218,0.0008993213414214551,-0.001479791826568544,1.0,0.06958276778459549,0.0597311407327652,1.0147686004638672,37707.98828125,1.593418836593628,3.6820459365844727,0.0,0.8626513481140137,27.768024444580078,-9.702219009399414,15597.1357421875,16641.935546875,21099.33203125,16650.0,9893,1.449643611907959,-0.9459578990936279,1.0901474952697754,717,4564
104745.244,0.0008993213414214551,-0.001479791826568544,1.0,0.06950643658638,0.05967804789543152,1.0147563219070435,37707.98828125,1.593418836593628,3.6820459365844727,0.0,0.8626513481140137,27.768024444580078,-7.592243194580078,15851.216796875,16637.943359375,19982.40625,16650.0,14114,1.449643611907959,-0.9459578990936279,1.0901474952697754,570,5373
104747.176,0.0008993213414214551,-0.001479791826568544,1.0,0.06950643658638,0.05967804789543152,1.0147563219070435,37707.98828125,1.593418836593628,3.6820459365844727,0.0,0.8626513481140137,27.768024444580078,-7.594423294067383,15911.5537109375,16633.654296875,20577.638671875,16650.0,-5314,1.449643611907959,-0.9459578990936279,1.0901474952697754,1259,4080
104749.231,0.0011004396947100759,-0.0018078219145536423,1.0,0.06950643658638,0.05967804789543152,1.0147563219070435,37673.6953125,1.5274189710617065,3.702241897583008,0.0,0.46665215492248535,27.88920021057129,-7.5966033935546875,14534.52734375,16627.2890625,19818.22265625,16650.0,29980,1.449643611907959,-0.9459578990936279,1.0901474952697754,462,3183
104751.137,0.0011004396947100759,-0.0018078219145536423,1.0,0.06950643658638,0.05967804789543152,1.0147563219070435,37673.6953125,1.5274189710617065,3.702241897583008,0.0,0.2021634578704834,28.866214752197266,-12.138458251953125,13940.3017578125,16618.4140625,19447.8125,16650.0,-13027,1.493725061416626,-1.1087937355041504,1.115228295326233,958,3545
104753.113,0.0011004396947100759,-0.0018078219145536423,1.0,0.06906989216804504,0.059586301445961,1.0145841836929321,37673.6953125,1.5274189710617065,3.702241897583008,0.0,0.2021634578704834,28.866214752197266,-7.75154972076416,14134.662109375,16607.720703125,18040.154296875,16650.0,1908,1.493725061416626,-1.1087937355041504,1.115228295326233,666,3076
104755.145,0.0011004396947100759,-0.0018078219145536423,1.0,0.06906989216804504,0.059586301445961,1.0145841836929321,37673.6953125,1.5274189710617065,3.702241897583008,0.0,0.2021634578704834,28.866214752197266,-7.753779888153076,14511.1171875,16596.03125,18044.861328125,16650.0,26618,1.493725061416626,-1.1087937355041504,1.115228295326233,-966,3217
104757.072,0.0011004396947100759,-0.0018078219145536423,1.0,0.0687488466501236,0.05949670448899269,1.014449119567871,37673.6953125,1.5274189710617065,3.702241897583008,0.0,0.2021634578704834,28.866214752197266,-7.756010055541992,15922.2158203125,16585.40625,18878.10546875,16650.0,12180,1.493725061416626,-1.1087937355041504,1.115228295326233,-821,2399
104759.118,0.0013310560025274754,-0.0021843004506081343,1.0,0.0687488466501236,0.05949670448899269,1.014449119567871,37618.0625,1.4554569721221924,3.737744092941284,0.0,-0.22960853576660156,29.079225540161133,-7.758240699768066,16212.8193359375,16576.064453125,18754.921875,16650.0,26893,1.493725061416626,-1.1087937355041504,1.115228295326233,-260,2040
104761.043,0.0013310560025274754,-0.0021843004506081343,1.0,0.06847918778657913,0.05948033183813095,1.014495849609375,37618.0625,1.4554569721221924,3.737744092941284,0.0,-0.8307151794433594,29.215511322021484,-11.310036659240723,14420.3203125,16565.421875,17097.7265625,16650.0,20182,1.593909502029419,-1.1315075159072876,1.1348389387130737,-389,1784
104763.008,0.0013310560025274754,-0.0021843004506081343,1.0,0.06847918778657913,0.05948033183813095,1.014495849609375,37618.0625,1.4554569721221924,3.737744092941284,0.0,-0.8307151794433594,29.215511322021484,-7.880443572998047,13872.5498046875,16552.978515625,16276.869140625,16650.0,13806,1.593909502029419,-1.1315075159072876,1.1348389387130737,-592,1566
104765.038,0.0013310560025274754,-0.0021843004506081343,1.0,0.06847918778657913,0.05948033183813095,1.014495849609375,37618.0625,1.4554569721221924,3.737744092941284,0.0,-0.8307151794433594,29.215511322021484,-7.8827128410339355,14562.310546875,16539.97265625,16928.755859375,16650.0,-28517,1.593909502029419,-1.1315075159072876,1.1348389387130737,507,-348
104766.97,0.0013310560025274754,-0.0021843004506081343,1.0,0.06792845577001572,0.059424664825201035,1.0147409439086914,37618.0625,1.4554569721221924,3.737744092941284,0.0,-0.8307151794433594,29.215511322021484,-7.884982585906982,15684.203125,16528.009765625,16792.740234375,16650.0,9062,1.593909502029419,-1.1315075159072876,1.1348389387130737,-222,-677
104769.004,0.0015960362507030368,-0.0026156839448958635,1.0,0.06792845577001572,0.059424664825201035,1.0147409439086914,37580.27734375,1.3576722145080566,3.797057628631592,0.0,-1.4174237251281738,29.57139015197754,-7.887252330780029,16129.1171875,16517.5234375,16965.447265625,16650.0,32482,1.593909502029419,-1.1315075159072876,1.1348389387130737,-544,-4005
104770.923,0.0015960362507030368,-0.0026156839448958635,1.0,0.06792845577001572,0.059424664825201035,1.0147409439086914,37580.27734375,1.3576722145080566,3.797057628631592,0.0,-2.054039239883423,28.817928314208984,-9.872610092163086,16158.939453125,16508.318359375,15955.3515625,16650.0,28882,1.7000120878219604,-1.0059305429458618,1.1457951068878174,-1739,-1155
104772.903,0.0015960362507030368,-0.0026156839448958635,1.0,0.0676639974117279,0.0593436174094677,1.015109896659851,37580.27734375,1.3576722145080566,3.797057628631592,0.0,-2.054039239883423,28.817928314208984,-7.9575724601745605,16167.9599609375,16500.203125,15722.0,16650.0,2214,1.7000120878219604,-1.0059305429458618,1.1457951068878174,-326,-2241
104774.931,0.0015960362507030368,-0.0026156839448958635,1.0,0.0676639974117279,0.0593436174094677,1.015109896659851,37580.27734375,1.3576722145080566,3.797057628631592,0.0,-2.054039239883423,28.817928314208984,-7.959864139556885,15716.3125,16492.40625,15708.4482421875,16650.0,-25730,1.7000120878219604,-1.0059305429458618,1.1457951068878174,398,-922
104776.87,0.0015960362507030368,-0.0026156839448958635,1.0,0.0676639974117279,0.0593436174094677,1.015109896659851,37580.27734375,1.3576722145080566,3.797057628631592,0.0,-2.054039239883423,28.817928314208984,-7.962155818939209,16499.318359375,16485.927734375,15862.720703125,16650.0,23050,1.7000120878219604,-1.0059305429458618,1.1457951068878174,554,-2056
104778.908,0.001898295246064663,-0.0031058366876095533,1.0,0.06728774309158325,0.0593445748090744,1.0151746273040771,37537.46484375,1.274558663368225,3.846910238265991,0.0,-2.552720546722412,29.117046356201172,-7.964447021484375,16365.861328125,16480.375,15976.318359375,16650.0,-10974,1.7000120878219604,-1.0059305429458618,1.1457951068878174,1077,-3310
104780.819,0.001898295246064663,-0.0031058366876095533,1.0,0.06728774309158325,0.0593445748090744,1.0151746273040771,37537.46484375,1.274558663368225,3.846910238265991,0.0,-2.8859918117523193,27.64151382446289,-9.14260482788086,16087.748046875,16475.23046875,14879.970703125,16648.0625,25882,1.7555572986602783,-0.7600085139274597,1.1522915363311768,-250,-2620
104782.807,0.001898295246064663,-0.0031058366876095533,1.0,0.06728774309158325,0.0593445748090744,1.0151746273040771,37537.46484375,1.274558663368225,3.846910238265991,0.0,-2.8859918117523193,27.64151382446289,-8.008034706115723,16561.76171875,16471.06640625,16300.1484375,16645.984375,17306,1.7555572986602783,-0.7600085139274597,1.1522915363311768,1995,-1905
104784.824,0.001898295246064663,-0.0031058366876095533,1.0,0.06688069552183151,0.05925820767879486,1.015160322189331,37537.46484375,1.274558663368225,3.846910238265991,0.0,-2.8859918117523193,27.64151382446289,-8.010339736938477,17389.251953125,16468.822265625,16551.921875,16644.130859375,29643,1.7555572986602783,-0.7600085139274597,1.1522915363311768,1816,-2050
104786.76,0.001898295246064663,-0.0031058366876095533,1.0,0.06688069552183151,0.05925820767879486,1.015160322189331,37537.46484375,1.274558663368225,3.846910238265991,0.0,-2.8859918117523193,27.64151382446289,-8.012643814086914,17794.494140625,16468.71875,16193.3359375,16641.98828125,110,1.7555572986602783,-0.7600085139274597,1.1522915363311768,638,-1975
104788.804,0.002240288769826293,-0.003658553119748831,1.0,0.06646260619163513,0.05919026955962181,1.0150301456451416,37555.44140625,1.1861231327056885,3.8953371047973633,0.0,-3.416604995727539,27.932071685791016,-8.014948844909668,17109.611328125,16469.48828125,16087.6708984375,16639.466796875,3084,1.7555572986602783,-0.7600085139274597,1.1522915363311768,1393,-2748
104790.712,0.002240288769826293,-0.003658553119748831,1.0,0.06646260619163513,0.05919026955962181,1.0150301456451416,37555.44140625,1.1861231327056885,3.8953371047973633,0.0,-3.4139621257781982,26.15427017211914,-8.569023132324219,17101.36328125,16470.96875,14837.9716796875,16634.96875,13753,1.7551168203353882,-0.46370771527290344,1.1553399562835693,1428,-1657
104792.692,0.002240288769826293,-0.003658553119748831,1.0,0.06646260619163513,0.05919026955962181,1.0150301456451416,37555.44140625,1.1861231327056885,3.8953371047973633,0.0,-3.4139621257781982,26.15427017211914,-8.037860870361328,17415.146484375,16473.45703125,16922.86328125,16631.611328125,14503,1.7551168203353882,-0.46370771527290344,1.1553399562835693,2521,-1828
104794.721,0.002240288769826293,-0.003658553119748831,1.0,0.06611654907464981,0.059129372239112854,1.0150518417358398,37555.44140625,1.1861231327056885,3.8953371047973633,0.0,-3.4139621257781982,26.15427017211914,-8.040170669555664,18010.87890625,16477.578125,17425.951171875,16629.873046875,-3593,1.7551168203353882,-0.46370771527290344,1.1553399562835693,3878,-2849
104796.655,0.002240288769826293,-0.003658553119748831,1.0,0.06611654907464981,0.059129372239112854,1.0150518417358398,37555.44140625,1.1861231327056885,3.8953371047973633,0.0,-3.4139621257781982,26.15427017211914,-8.042481422424316,18232.2578125,16483.341796875,17125.177734375,16629.087890625,-13577,1.7551168203353882,-0.46370771527290344,1.1553399562835693,1786,-2125
104798.693,0.002625019522383809,-0.004278221167623997,1.0,0.06611654907464981,0.059129372239112854,1.0150518417358398,37558.98046875,1.083434820175171,3.9381015300750732,0.0,-4.030092239379883,26.41085433959961,-8.044792175292969,18620.3125,16490.984375,17904.79296875,16630.130859375,-20211,1.7551168203353882,-0.46370771527290344,1.1553399562835693,2310,-1527
104800.617,0.002625019522383809,-0.004278221167623997,1.0,0.06557481735944748,0.05913887917995453,1.0150535106658936,37558.98046875,1.083434820175171,3.9381015300750732,0.0,-3.6284852027893066,24.678997039794922,-8.333949089050293,19002.591796875,16500.689453125,16355.2138671875,16630.634765625,-13174,1.6881823539733887,-0.17506498098373413,1.1569247245788574,4014,-3670
104802.591,0.002625019522383809,-0.004278221167623997,1.0,0.06557481735944748,0.05913887917995453,1.0150535106658936,37558.98046875,1.083434820175171,3.9381015300750732,0.0,-3.6838624477386475,24.666446685791016,-8.037221908569336,17822.271484375,16510.525390625,17152.732421875,16631.748046875,-12206,1.6974118947982788,-0.17297297716140747,1.1568048000335693,3379,-3233
104804.618,0.002625019522383809,-0.004278221167623997,1.0,0.06557481735944748,0.05913887917995453,1.0150535106658936,37558.98046875,1.083434820175171,3.9381015300750732,0.0,-3.6838624477386475,24.666446685791016,-8.060522079467773,18150.794921875,16520.89453125,17788.330078125,16634.21484375,-24816,1.6974118947982788,-0.17297297716140747,1.1568048000335693,4653,-2707
104806.557,0.002625019522383809,-0.004278221167623997,1.0,0.06498192250728607,0.0590408518910408,1.0150692462921143,37558.98046875,1.083434820175171,3.9381015300750732,0.0,-3.6838624477386475,24.666446685791016,-8.062835693359375,19225.287109375,16533.126953125,18903.8359375,16639.2890625,-7413,1.6974118947982788,-0.17297297716140747,1.1568048000335693,4371,-1835
104808.593,0.0030566684436053038,-0.004970894195139408,1.0,0.06498192250728607,0.0590408518910408,1.0150692462921143,37535.828125,0.9606285095214844,3.9738807678222656,0.0,-4.483869552612305,24.86745834350586,-7.7062578201293945,18924.7578125,16546.4921875,19594.849609375,16647.44921875,24822,1.7079401016235352,-0.17069584131240845,1.1548219919204712,2931,-1181
104810.507,0.0030566684436053038,-0.004970894195139408,1.0,0.06434642523527145,0.059106774628162384,1.015350580215454,37535.828125,0.9606285095214844,3.9738807678222656,0.0,-3.6424577236175537,23.514354705810547,-8.027616500854492,19225.255859375,16561.1796875,18329.021484375,16650.0,-1221,1.5677047967910767,0.05482180044054985,1.154667615890503,4184,-378
104812.483,0.0030566684436053038,-0.004970894195139408,1.0,0.06434642523527145,0.059106774628162384,1.015350580215454,37535.828125,0.9606285095214844,3.9738807678222656,0.0,-3.6424577236175537,23.514354705810547,-8.056941032409668,17528.048828125,16574.69140625,18621.396484375,16650.0,-20574,1.5677047967910767,0.05482180044054985,1.154667615890503,3180,-2088
104814.51,0.0030566684436053038,-0.004970894195139408,1.0,0.06434642523527145,0.059106774628162384,1.015350580215454,37535.828125,0.9606285095214844,3.9738807678222656,0.0,-3.6424577236175537,23.514354705810547,-8.059250831604004,18223.59375,16588.1328125,19640.46875,16650.0,-24321,1.5677047967910767,0.05482180044054985,1.154667615890503,4455,-786
104816.445,0.0030566684436053038,-0.004970894195139408,1.0,0.06419771164655685,0.058985404670238495,1.0151766538619995,37535.828125,0.9606285095214844,3.9738807678222656,0.0,-3.6424577236175537,23.514354705810547,-8.061559677124023,19374.04296875,16603.02734375,21176.015625,16650.0,8858,1.5677047967910767,0.05482180044054985,1.154667615890503,4946,1354
104818.49,0.0035372113343328238,-0.005739860702306032,1.0,0.06419771164655685,0.058985404670238495,1.0151766538619995,37514.13671875,0.8518983125686646,3.998798131942749,0.0,-4.294838905334473,23.66385841369629,-8.06386947631836,18769.12890625,16618.306640625,21463.03515625,16650.0,-18654,1.5677047967910767,0.05482180044054985,1.154667615890503,4244,814
104820.402,0.0035372113343328238,-0.005739860702306032,1.0,0.06419771164655685,0.058985404670238495,1.0151766538619995,37514.13671875,0.8518983125686646,3.998798131942749,0.0,-3.2218000888824463,22.94985008239746,-7.582354545593262,20125.47265625,16635.6953125,21035.40625,16650.0,-26169,1.3888649940490723,0.17382320761680603,1.1519945859909058,4059,1523
104822.381,0.0035372113343328238,-0.005739860702306032,1.0,0.06364811211824417,0.059040386229753494,1.0149011611938477,37514.13671875,0.8518983125686646,3.998798131942749,0.0,-3.2218000888824463,22.94985008239746,-8.052438735961914,19738.296875,16650.0,21962.328125,16650.0,-9873,1.3888649940490723,0.17382320761680603,1.1519945859909058,5538,2750
104824.404,0.0035372113343328238,-0.005739860702306032,1.0,0.06364811211824417,0.059040386229753494,1.0149011611938477,37514.13671875,0.8518983125686646,3.998798131942749,0.0,-3.2218000888824463,22.94985008239746,-8.054742813110352,18855.2265625,16650.0,22062.8828125,16650.0,-28522,1.3888649940490723,0.17382320761680603,1.1519945859909058,4467,2804
104826.348,0.0035372113343328238,-0.005739860702306032,1.0,0.06364811211824417,0.059040386229753494,1.0149011611938477,37514.13671875,0.8518983125686646,3.998798131942749,0.0,-3.2760658264160156,22.93382453918457,-7.675024032592773,18698.416015625,16650.0,22168.365234375,16650.0,19937,1.3979092836380005,0.17649421095848083,1.1498839855194092,4031,2214
104828.381,0.004070749040693045,-0.006589943543076515,1.0,0.063446544110775,0.058910269290208817,1.0151556730270386,37514.87890625,0.718724250793457,4.032077789306641,0.0,-4.07511043548584,23.133502960205078,-8.04667854309082,18520.71484375,16650.0,22706.103515625,16650.0,12705,1.3979092836380005,0.17649421095848083,1.1498839855194092,4307,559
104830.296,0.004070749040693045,-0.006589943543076515,1.0,0.063446544110775,0.058910269290208817,1.0151556730270386,37514.87890625,0.718724250793457,4.032077789306641,0.0,-2.8045871257781982,23.37952995300293,-7.494964599609375,19342.693359375,16650.0,22942.275390625,16650.0,32253,1.1861554384231567,0.13548946380615234,1.1468231678009033,4363,3343
104832.275,0.004070749040693045,-0.006589943543076515,1.0,0.06315577030181885,0.058920517563819885,1.0148218870162964,37514.87890625,0.718724250793457,4.032077789306641,0.0,-2.8045871257781982,23.37952995300293,-8.032901763916016,18518.009765625,16650.0,23638.921875,16650.0,7488,1.1861554384231567,0.13548946380615234,1.1468231678009033,6117,4456
104834.299,0.004070749040693045,-0.006589943543076515,1.0,0.06315577030181885,0.058920517563819885,1.0148218870162964,37514.87890625,0.718724250793457,4.032077789306641,0.0,-2.8045871257781982,23.37952995300293,-8.035195350646973,19102.26953125,16650.0,24119.009765625,16650.0,15421,1.1861554384231567,0.13548946380615234,1.1468231678009033,5540,3618
104836.233,0.004070749040693045,-0.006589943543076515,1.0,0.06315577030181885,0.058920517563819885,1.0148218870162964,37514.87890625,0.718724250793457,4.032077789306641,0.0,-2.8045871257781982,23.37952995300293,-8.03748893737793,18826.919921875,16650.0,23779.09375,16650.0,-30401,1.1861554384231567,0.13548946380615234,1.1468231678009033,3333,4790
104838.285,0.004660419188439846,-0.007526946719735861,1.0,0.06260212510824203,0.05886519327759743,1.014819860458374,37513.0625,0.6195138692855835,4.051173210144043,0.0,-3.3998494148254395,23.494102478027344,-8.039782524108887,17793.931640625,16650.0,23786.689453125,16650.0,8842,1.1861554384231567,0.13548946380615234,1.1468231678009033,3708,5471
104840.198,0.004660419188439846,-0.007526946719735861,1.0,0.06260212510824203,0.05886519327759743,1.014819860458374,37513.0625,0.6195138692855835,4.051173210144043,0.0,-2.152859687805176,24.577165603637695,-7.701459884643555,18461.57421875,16650.0,24466.2421875,16650.0,-27234,0.9783238172531128,-0.04502091184258461,1.1449413299560547,4466,6185
104842.17,0.004660419188439846,-0.007526946719735861,1.0,0.06260212510824203,0.05886519327759743,1.014819860458374,37513.0625,0.6195138692855835,4.051173210144043,0.0,-2.152859687805176,24.577165603637695,-8.033071517944336,17825.4375,16650.0,23868.669921875,16650.0,-5349,0.9783238172531128,-0.04502091184258461,1.1449413299560547,5632,7424
104844.195,0.004660419188439846,-0.007526946719735861,1.0,0.06216565519571304,0.058773867785930634,1.0147650241851807,37513.0625,0.6195138692855835,4.051173210144043,0.0,-2.152859687805176,24.577165603637695,-8.035361289978027,18458.861328125,16650.0,24396.34765625,16650.0,18750,0.9783238172531128,-0.04502091184258461,1.1449413299560547,3950,6605
104846.134,0.004660419188439846,-0.007526946719735861,1.0,0.06216565519571304,0.058773867785930634,1.0147650241851807,37513.0625,0.6195138692855835,4.051173210144043,0.0,-2.152859687805176,24.577165603637695,-8.037651062011719,18770.396484375,16650.0,24864.90234375,16650.0,-9922,0.9783238172531128,-0.04502091184258461,1.1449413299560547,3104,6451
104848.166,0.0053075808100402355,-0.008552435785531998,1.0,0.06216565519571304,0.058773867785930634,1.0147650241851807,37493.48828125,0.5347627997398376,4.074714660644531,0.0,-2.6613659858703613,24.718414306640625,-8.03994083404541,18278.630859375,16650.0,24954.00390625,16650.0,18234,0.9783238172531128,-0.04502091184258461,1.1449413299560547,3910,6304
104850.087,0.0053075808100402355,-0.008552435785531998,1.0,0.06177613511681557,0.058688513934612274,1.01469087600708,37493.48828125,0.5347627997398376,4.074714660644531,0.0,-1.5916872024536133,26.368629455566406,-7.960474967956543,18223.06640625,16650.0,25574.30078125,16650.0,23004,0.8000440001487732,-0.3200570046901703,1.1444896459579468,3677,6201
104852.063,0.0053075808100402355,-0.008552435785531998,1.0,0.06177613511681557,0.058688513934612274,1.01469087600708,37493.48828125,0.5347627997398376,4.074714660644531,0.0,-1.5916872024536133,26.368629455566406,-8.041808128356934,16992.892578125,16650.0,24218.4921875,16650.0,-24811,0.8000440001487732,-0.3200570046901703,1.1444896459579468,3728,7053
104854.121,0.0053075808100402355,-0.008552435785531998,1.0,0.06123115122318268,0.058693837374448776,1.0145165920257568,37493.48828125,0.5347627997398376,4.074714660644531,0.0,-1.5916872024536133,26.368629455566406,-8.044097900390625,17641.541015625,16650.0,24327.640625,16650.0,-23755,0.8000440001487732,-0.3200570046901703,1.1444896459579468,2849,6697
104856.037,0.0053075808100402355,-0.008552435785531998,1.0,0.06123115122318268,0.058693837374448776,1.0145165920257568,37493.48828125,0.5347627997398376,4.074714660644531,0.0,-1.5916872024536133,26.368629455566406,-8.04638671875,17205.912109375,16650.0,23819.90625,16650.0,8360,0.8000440001487732,-0.3200570046901703,1.1444896459579468,4095,7349
104858.063,0.006017893087118864,-0.009674973785877228,1.0,0.06123115122318268,0.058693837374448776,1.0145165920257568,37492.0859375,0.4569419026374817,4.109859943389893,0.0,-2.058612585067749,26.57950210571289,-8.048675537109375,16252.7216796875,16650.0,23429.716796875,16650.0,25874,0.8000440001487732,-0.3200570046901703,1.1444896459579468,2583,8285
104859.991,0.006017893087118864,-0.009674973785877228,1.0,0.06084336340427399,0.058575812727212906,1.01471745967865,37492.0859375,0.4569419026374817,4.109859943389893,0.0,-1.1998804807662964,28.56529998779297,-8.60292911529541,17881.080078125,16650.0,25049.73828125,16650.0,24684,0.6569219827651978,-0.6510233283042908,1.1475391387939453,2954,6498
104861.989,0.006017893087118864,-0.009674973785877228,1.0,0.06084336340427399,0.058575812727212906,1.01471745967865,37492.0859375,0.4569419026374817,4.109859943389893,0.0,-1.1998804807662964,28.56529998779297,-8.071562767028809,18520.306640625,16650.0,23953.4609375,16650.0,30930,0.6569219827651978,-0.6510233283042908,1.1475391387939453,2774,7001
104863.987,0.006017893087118864,-0.009674973785877228,1.0,0.06084336340427399,0.058575812727212906,1.01471745967865,37492.0859375,0.4569419026374817,4.109859943389893,0.0,-1.1998804807662964,28.56529998779297,-8.073858261108398,18339.724609375,16650.0,23417.357421875,16650.0,28099,0.6569219827651978,-0.6510233283042908,1.1475391387939453,3191,6730
104865.916,0.006017893087118864,-0.009674973785877228,1.0,0.06050698459148407,0.05845187231898308,1.0146257877349854,37492.0859375,0.4569419026374817,4.109859943389893,0.0,-1.1998804807662964,28.56529998779297,-8.076152801513672,17493.578125,16650.0,22896.71875,16650.0,14905,0.6569219827651978,-0.6510233283042908,1.1475391387939453,1794,6801
104867.958,0.006793273147195578,-0.010897966101765633,1.0,0.06050698459148407,0.05845187231898308,1.0146257877349854,37501.91015625,0.3717924654483795,4.162741184234619,0.0,-1.7107770442962646,28.882587432861328,-8.078448295593262,16860.51953125,16650.0,22953.126953125,16650.0,-20347,0.6569219827651978,-0.6510233283042908,1.1475391387939453,1961,6754
104869.88,0.006793273147195578,-0.010897966101765633,1.0,0.06050698459148407,0.05845187231898308,1.0146257877349854,37501.91015625,0.3717924654483795,4.162741184234619,0.0,-1.0738904476165771,30.715152740478516,-8.2750883102417,17278.37890625,16650.0,23907.0546875,16650.0,-10122,0.5507742166519165,-0.9564509987831116,1.1486128568649292,3101,8162
104871.857,0.006793273147195578,-0.010897966101765633,1.0,0.06006111204624176,0.05846738815307617,1.0142890214920044,37501.91015625,0.3717924654483795,4.162741184234619,0.0,-1.0738904476165771,30.715152740478516,-8.089485168457031,16261.3046875,16650.0,21939.37109375,16650.0,15474,0.5507742166519165,-0.9564509987831116,1.1486128568649292,2264,5371
104873.903,0.006793273147195578,-0.010897966101765633,1.0,0.06006111204624176,0.05846738815307617,1.0142890214920044,37501.91015625,0.3717924654483795,4.162741184234619,0.0,-1.0738904476165771,30.715152740478516,-8.091781616210938,16592.41796875,16650.0,21161.515625,16650.0,-7764,0.5507742166519165,-0.9564509987831116,1.1486128568649292,4299,6477
104875.816,0.006793273147195578,-0.010897966101765633,1.0,0.06006111204624176,0.05846738815307617,1.0142890214920044,37501.91015625,0.3717924654483795,4.162741184234619,0.0,-1.0738904476165771,30.715152740478516,-8.09407901763916,16845.984375,16650.0,20586.01171875,16650.0,-30044,0.5507742166519165,-0.9564509987831116,1.1486128568649292,2263,6912
104877.852,0.007638011127710342,-0.012225416488945484,1.0,0.059648871421813965,0.05834735929965973,1.0150156021118164,37501.578125,0.2745271325111389,4.245672702789307,0.0,-1.6574825048446655,31.21274185180664,-8.096376419067383,16055.14453125,16650.0,21172.8125,16650.0,5781,0.5507742166519165,-0.9564509987831116,1.1486128568649292,2668,4600
104879.777,0.007638011127710342,-0.012225416488945484,1.0,0.059648871421813965,0.05834735929965973,1.0150156021118164,37501.578125,0.2745271325111389,4.245672702789307,0.0,-1.3069067001342773,32.49858474731445,-8.975266456604004,16997.970703125,16650.0,21952.19921875,16650.0,5756,0.4923449158668518,-1.1707582473754883,1.1534558534622192,666,3024
104881.751,0.007638011127710342,-0.012225416488945484,1.0,0.059648871421813965,0.05834735929965973,1.0150156021118164,37501.578125,0.2745271325111389,4.245672702789307,0.0,-1.3069067001342773,32.49858474731445,-8.130048751831055,17318.541015625,16650.0,20716.388671875,16650.0,-22993,0.4923449158668518,-1.1707582473754883,1.1534558534622192,1546,3817
104883.772,0.007638011127710342,-0.012225416488945484,1.0,0.05903005227446556,0.058216873556375504,1.015167236328125,37501.578125,0.2745271325111389,4.245672702789307,0.0,-1.3069067001342773,32.49858474731445,-8.132355690002441,16749.5078125,16650.0,19761.6875,16650.0,14121,0.4923449158668518,-1.1707582473754883,1.1534558534622192,1866,4570
104885.732,0.007638011127710342,-0.012225416488945484,1.0,0.05903005227446556,0.058216873556375504,1.015167236328125,37501.578125,0.2745271325111389,4.245672702789307,0.0,-1.3827924728393555,32.49303436279297,-7.970504283905029,17213.49609375,16650.0,19131.279296875,16650.0,-11049,0.5049925446510315,-1.1698330640792847,1.152548909187317,69,2953
104887.751,0.008555185049772263,-0.0136636383831501,1.0,0.05865481123328209,0.05809716507792473,1.0152342319488525,37456.36328125,0.16842234134674072,4.341307640075684,0.0,-2.019421100616455,33.06684494018555,-8.131525039672852,17005.41015625,16650.0,19705.4453125,16650.0,8054,0.5049925446510315,-1.1698330640792847,1.152548909187317,1268,1943
104889.669,0.008555185049772263,-0.0136636383831501,1.0,0.05865481123328209,0.05809716507792473,1.0152342319488525,37456.36328125,0.16842234134674072,4.341307640075684,0.0,-1.8191490173339844,33.55693817138672,-8.557064056396484,16943.455078125,16650.0,19376.98828125,16650.0,13512,0.4716138541698456,-1.25151526927948,1.1548871994018555,725,2748
