timestamp,posCtl.targetX,posCtl.targetY,posCtl.targetZ,locSrv.x,locSrv.y,locSrv.z,controller.actuatorThrust,controller.pitch,controller.roll,controller.yaw,pid_attitude.pitch_output,pid_attitude.roll_output,pid_attitude.yaw_output,pid_rate.pitch_output,pid_rate.pitch_outI,pid_rate.roll_output,pid_rate.roll_outI,pid_rate.yaw_output,stateEstimate.pitch,stateEstimate.roll,stateEstimate.yaw,snn_control.torque_pitch,snn_control.torque_roll
34462.197,-4.426847777239118e-09,6.556361427101365e-07,1.0,0.06444542109966278,0.014287244528532028,1.0199472904205322,37853.4921875,2.8658711910247803,1.442643404006958,0.0,23.049592971801758,19.845617294311523,4.991959571838379,14637.93359375,16650.0,16444.451171875,16650.0,-17474,-0.9757274985313416,-1.8649593591690063,-0.383634090423584,2670,-248
34464.127,-4.426847777239118e-09,6.556361427101365e-07,1.0,0.06435335427522659,0.014214140363037586,1.0198848247528076,37853.4921875,2.8658711910247803,1.442643404006958,0.0,23.049592971801758,19.845617294311523,5.427175521850586,14728.33203125,16650.0,17251.859375,16650.0,17848,-0.9757274985313416,-1.8649593591690063,-0.383634090423584,877,182
34466.162,-4.38999636642734e-09,6.556364269272308e-07,1.0,0.06435335427522659,0.014214140363037586,1.0198848247528076,37840.73046875,2.8968451023101807,1.4945248365402222,0.0,23.235435485839844,20.156906127929688,5.427942276000977,15847.3056640625,16650.0,17853.115234375,16650.0,24354,-0.9757274985313416,-1.8649593591690063,-0.383634090423584,-1248,171
34468.083,-4.38999636642734e-09,6.556364269272308e-07,1.0,0.06435335427522659,0.014214140363037586,1.0198848247528076,37840.73046875,2.8968451023101807,1.4945248365402222,0.0,23.235435485839844,20.156906127929688,5.428709983825684,15616.6640625,16648.966796875,16605.1328125,16650.0,28584,-0.9757274985313416,-1.8649593591690063,-0.383634090423584,-619,1310
34470.061,-4.38999636642734e-09,6.556364269272308e-07,1.0,0.06433803588151932,0.014154692180454731,1.0197631120681763,37840.73046875,2.8968451023101807,1.4945248365402222,0.0,23.235435485839844,20.156906127929688,5.429476737976074,13996.7666015625,16644.572265625,15648.169921875,16650.0,12997,-0.9757274985313416,-1.8649593591690063,-0.383634090423584,-1090,403
34472.085,-4.38999636642734e-09,6.556364269272308e-07,1.0,0.06433803588151932,0.014154692180454731,1.0197631120681763,37840.73046875,2.8968451023101807,1.4945248365402222,0.0,21.90212059020996,19.312007904052734,5.1429123878479,12291.20703125,16635.12109375,15293.7783203125,16650.0,-11260,-0.7535082101821899,-1.7241430282592773,-0.382046639919281,-986,-1819
34474.019,-4.38999636642734e-09,6.556364269272308e-07,1.0,0.06418868154287338,0.014126408845186234,1.0195807218551636,37840.73046875,2.8968451023101807,1.4945248365402222,0.0,21.90212059020996,19.312007904052734,5.421480178833008,13568.76953125,16623.169921875,16136.251953125,16650.0,-758,-0.7535082101821899,-1.7241430282592773,-0.382046639919281,-1726,-480
34476.055,-4.371830897298423e-09,6.556365406140685e-07,1.0,0.06418868154287338,0.014126408845186234,1.0195807218551636,37882.359375,2.9206912517547607,1.5625066757202148,0.0,22.045196533203125,19.719898223876953,5.422244548797607,14348.341796875,16610.197265625,17108.6875,16650.0,14429,-0.7535082101821899,-1.7241430282592773,-0.382046639919281,-2673,-1001
34477.976,-4.371830897298423e-09,6.556365406140685e-07,1.0,0.06418868154287338,0.014126408845186234,1.0195807218551636,37882.359375,2.9206912517547607,1.5625066757202148,0.0,22.005474090576172,19.691822052001953,5.274460792541504,14952.1953125,16597.193359375,17555.87109375,16650.0,1890,-0.7468876242637634,-1.719463586807251,-0.38122594356536865,-1765,-1372
34479.957,-4.371830897298423e-09,6.556365406140685e-07,1.0,0.06418123096227646,0.014067119918763638,1.0192750692367554,37882.359375,2.9206912517547607,1.5625066757202148,0.0,22.005474090576172,19.691822052001953,5.418845176696777,14170.3837890625,16583.138671875,16868.166015625,16650.0,17927,-0.7468876242637634,-1.719463586807251,-0.38122594356536865,-3590,-2811
34481.981,-4.371830897298423e-09,6.556365406140685e-07,1.0,0.06418123096227646,0.014067119918763638,1.0192750692367554,37882.359375,2.9206912517547607,1.5625066757202148,0.0,19.9238224029541,18.565370559692383,5.227258682250977,11340.908203125,16564.462890625,15665.08203125,16650.0,-5672,-0.3999456465244293,-1.531721830368042,-0.3801632523536682,-2545,-1989
34483.913,-4.371830897298423e-09,6.556365406140685e-07,1.0,0.06418123096227646,0.014067119918763638,1.0192750692367554,37882.359375,2.9206912517547607,1.5625066757202148,0.0,19.9238224029541,18.565370559692383,5.413990020751953,12981.0947265625,16544.1484375,16775.970703125,16650.0,2010,-0.3999456465244293,-1.531721830368042,-0.3801632523536682,-3295,-1850
34485.954,-4.35027835976598e-09,6.556366543009062e-07,1.0,0.06410403549671173,0.013974176719784737,1.0192551612854004,37940.27734375,2.9370713233947754,1.6058149337768555,0.0,20.02210235595703,18.825220108032227,5.414750099182129,14489.505859375,16524.505859375,17641.447265625,16650.0,6372,-0.3999456465244293,-1.531721830368042,-0.3801632523536682,-3388,-1937
34487.871,-4.35027835976598e-09,6.556366543009062e-07,1.0,0.06410403549671173,0.013974176719784737,1.0192551612854004,37940.27734375,2.9370713233947754,1.6058149337768555,0.0,20.02210235595703,18.825220108032227,5.415510654449463,15084.1796875,16506.240234375,17969.931640625,16650.0,-24010,-0.3999456465244293,-1.531721830368042,-0.3801632523536682,-3312,-2162
34489.856,-4.35027835976598e-09,6.556366543009062e-07,1.0,0.06410403549671173,0.013974176719784737,1.0192551612854004,37940.27734375,2.9370713233947754,1.6058149337768555,0.0,20.02210235595703,18.825220108032227,5.416271209716797,14677.505859375,16488.60546875,17671.5390625,16650.0,-1621,-0.3999456465244293,-1.531721830368042,-0.3801632523536682,-3781,-2828
34491.877,-4.35027835976598e-09,6.556366543009062e-07,1.0,0.06397176533937454,0.013961843214929104,1.0190012454986572,37940.27734375,2.9370713233947754,1.6058149337768555,0.0,17.683605194091797,17.78900909423828,4.901440620422363,12743.8505859375,16468.943359375,17067.365234375,16650.0,-1203,-0.010196293704211712,-1.3590199947357178,-0.3773147165775299,-2731,-768
34493.809,-4.35027835976598e-09,6.556366543009062e-07,1.0,0.06397176533937454,0.013961843214929104,1.0190012454986572,37940.27734375,2.9370713233947754,1.6058149337768555,0.0,17.610265731811523,17.768756866455078,5.260712623596191,15193.265625,16450.880859375,18223.193359375,16650.0,-32220,0.002027083421126008,-1.3556448221206665,-0.3765413761138916,-3579,-25
34495.853,-4.308833734256723e-09,6.556369385180005e-07,1.0,0.06397176533937454,0.013961843214929104,1.0190012454986572,37963.90234375,2.9389808177948,1.6418607234954834,0.0,17.621723175048828,17.985034942626953,5.396800518035889,15796.85546875,16434.9765625,18721.763671875,16650.0,-10906,0.002027083421126008,-1.3556448221206665,-0.3765413761138916,-3036,-1999
34497.768,-4.308833734256723e-09,6.556369385180005e-07,1.0,0.0639229565858841,0.01393069140613079,1.0188572406768799,37963.90234375,2.9389808177948,1.6418607234954834,0.0,17.621723175048828,17.985034942626953,5.397553443908691,16006.3359375,16421.171875,18739.869140625,16650.0,20884,0.002027083421126008,-1.3556448221206665,-0.3765413761138916,-1968,-15
34499.745,-4.308833734256723e-09,6.556369385180005e-07,1.0,0.0639229565858841,0.01393069140613079,1.0188572406768799,37963.90234375,2.9389808177948,1.6418607234954834,0.0,17.554738998413086,17.961803436279297,5.234066963195801,15827.525390625,16408.892578125,18830.01953125,16650.0,26300,0.01319094281643629,-1.3517730236053467,-0.37563398480415344,-2224,-1146
34501.773,-4.308833734256723e-09,6.556369385180005e-07,1.0,0.06390572339296341,0.013931496068835258,1.0188034772872925,37963.90234375,2.9389808177948,1.6418607234954834,0.0,15.470413208007812,17.24737548828125,4.1612725257873535,14254.671875,16395.802734375,18703.66015625,16650.0,23087,0.3605784773826599,-1.2327018976211548,-0.3688255548477173,-3430,-1503
34503.703,-4.308833734256723e-09,6.556369385180005e-07,1.0,0.06390572339296341,0.013931496068835258,1.0188034772872925,37963.90234375,2.9389808177948,1.6418607234954834,0.0,15.405380249023438,17.226730346679688,5.242859840393066,16373.1796875,16384.8828125,19817.6953125,16650.0,29832,0.37141743302345276,-1.2292612791061401,-0.36821436882019043,-2065,-498
34505.74,-4.213547732945244e-09,6.55637563795608e-07,1.0,0.06390572339296341,0.013931496068835258,1.0188034772872925,38007.62890625,2.9197213649749756,1.6719856262207031,0.0,15.289823532104492,17.407482147216797,5.350553512573242,17300.76171875,16377.0126953125,20377.72265625,16650.0,-2970,0.37141743302345276,-1.2292612791061401,-0.36821436882019043,-222,1373
34507.661,-4.213547732945244e-09,6.55637563795608e-07,1.0,0.06387051939964294,0.01387922652065754,1.0187338590621948,38007.62890625,2.9197213649749756,1.6719856262207031,0.0,15.289823532104492,17.407482147216797,5.351289749145508,17877.59375,16372.4609375,20136.849609375,16650.0,-5426,0.37141743302345276,-1.2292612791061401,-0.36821436882019043,-1739,2358
34509.64,-4.213547732945244e-09,6.55637563795608e-07,1.0,0.06387051939964294,0.01387922652065754,1.0187338590621948,38007.62890625,2.9197213649749756,1.6719856262207031,0.0,15.231339454650879,17.38554573059082,5.241880416870117,18027.650390625,16370.8779296875,20489.60546875,16650.0,25166,0.3811647891998291,-1.2256052494049072,-0.3676058351993561,-1186,-923
34511.677,-4.213547732945244e-09,6.55637563795608e-07,1.0,0.06387051939964294,0.01387922652065754,1.0187338590621948,38007.62890625,2.9197213649749756,1.6719856262207031,0.0,13.737035751342773,17.20603370666504,4.1875104904174805,17006.3359375,16370.4052734375,20551.224609375,16650.0,-31292,0.6302153468132019,-1.1956865787506104,-0.36118823289871216,-2027,1136
34513.598,-4.213547732945244e-09,6.55637563795608e-07,1.0,0.06376529484987259,0.013849780894815922,1.0185821056365967,38007.62890625,2.9197213649749756,1.6719856262207031,0.0,13.737035751342773,17.20603370666504,5.311313629150391,19128.65625,16373.685546875,21231.5,16650.0,-18430,0.6302153468132019,-1.1956865787506104,-0.36118823289871216,1549,519
34515.643,-4.124508734548726e-09,6.556381322297966e-07,1.0,0.06376529484987259,0.013849780894815922,1.0185821056365967,38018.03515625,2.892322063446045,1.698065996170044,0.0,13.533872604370117,17.34069061279297,5.175393104553223,20005.7265625,16381.251953125,21794.291015625,16650.0,11566,0.636676549911499,-1.1920491456985474,-0.36043331027030945,-1222,1933
34517.559,-4.124508734548726e-09,6.556381322297966e-07,1.0,0.06376529484987259,0.013849780894815922,1.0185821056365967,38018.03515625,2.892322063446045,1.698065996170044,0.0,13.533872604370117,17.34069061279297,5.308225631713867,20567.7734375,16393.123046875,21702.7578125,16650.0,3424,0.636676549911499,-1.1920491456985474,-0.36043331027030945,18,2919
34519.535,-4.124508734548726e-09,6.556381322297966e-07,1.0,0.06372997909784317,0.013886865228414536,1.0186576843261719,38018.03515625,2.892322063446045,1.698065996170044,0.0,13.533872604370117,17.34069061279297,5.30894660949707,21105.8515625,16409.279296875,21865.55078125,16650.0,31081,0.636676549911499,-1.1920491456985474,-0.36043331027030945,1072,1760
34521.559,-4.124508734548726e-09,6.556381322297966e-07,1.0,0.06372997909784317,0.013886865228414536,1.0186576843261719,38018.03515625,2.892322063446045,1.698065996170044,0.0,12.944442749023438,17.89328956604004,6.305538177490234,20605.84765625,16428.310546875,22712.703125,16650.0,4680,0.7349149584770203,-1.284148931503296,-0.3659352958202362,1953,1909
34523.498,-4.124508734548726e-09,6.556381322297966e-07,1.0,0.06372997909784317,0.013886865228414536,1.0186576843261719,38018.03515625,2.892322063446045,1.698065996170044,0.0,12.944442749023438,17.89328956604004,5.3434224128723145,20796.201171875,16449.966796875,22502.2109375,16650.0,-18683,0.7349149584770203,-1.284148931503296,-0.3659352958202362,3193,3634
34525.535,-4.1874681500075894e-09,6.556377343258646e-07,1.0,0.06368398666381836,0.013899283483624458,1.0187616348266602,38001.3515625,2.842235803604126,1.751394510269165,0.0,12.643924713134766,18.213260650634766,5.344154357910156,21319.3046875,16474.47265625,22611.6328125,16650.0,17842,0.7349149584770203,-1.284148931503296,-0.3659352958202362,1296,4381
34527.45,-4.1874681500075894e-09,6.556377343258646e-07,1.0,0.06368398666381836,0.013899283483624458,1.0187616348266602,38001.3515625,2.842235803604126,1.751394510269165,0.0,12.643924713134766,18.213260650634766,5.344886302947998,21988.0625,16502.208984375,22787.10546875,16650.0,-8850,0.7349149584770203,-1.284148931503296,-0.3659352958202362,4864,4108
34529.428,-4.1874681500075894e-09,6.556377343258646e-07,1.0,0.06360998749732971,0.013885574415326118,1.0186779499053955,38001.3515625,2.842235803604126,1.751394510269165,0.0,12.643924713134766,18.213260650634766,5.34561824798584,22293.765625,16533.001953125,23145.033203125,16650.0,11138,0.7349149584770203,-1.284148931503296,-0.3659352958202362,3546,7975
34531.454,-4.1874681500075894e-09,6.556377343258646e-07,1.0,0.06360998749732971,0.013885574415326118,1.0186779499053955,38001.3515625,2.842235803604126,1.751394510269165,0.0,13.362181663513184,19.422595977783203,8.398730278015137,23854.02734375,16568.37890625,24389.3046875,16650.0,-1170,0.6152054071426392,-1.4857046604156494,-0.38279908895492554,3259,4731
34533.389,-4.1874681500075894e-09,6.556377343258646e-07,1.0,0.06360998749732971,0.013885574415326118,1.0186779499053955,38001.3515625,2.842235803604126,1.751394510269165,0.0,13.362181663513184,19.422595977783203,5.448331832885742,23891.517578125,16607.5703125,23194.599609375,16650.0,27424,0.6152054071426392,-1.4857046604156494,-0.38279908895492554,4684,6357
34535.426,-4.380440898898996e-09,6.556364837706496e-07,1.0,0.06335831433534622,0.013901133090257645,1.0185459852218628,37990.26171875,2.807666301727295,1.7838807106018066,0.0,13.154766082763672,19.617511749267578,5.449097633361816,23629.21875,16649.53515625,22854.39453125,16650.0,-12629,0.6152054071426392,-1.4857046604156494,-0.38279908895492554,7045,4685
34537.344,-4.380440898898996e-09,6.556364837706496e-07,1.0,0.06335831433534622,0.013901133090257645,1.0185459852218628,37990.26171875,2.807666301727295,1.7838807106018066,0.0,13.085017204284668,19.601985931396484,5.2446489334106445,23548.44921875,16650.0,22997.306640625,16650.0,-6610,0.626829981803894,-1.4831171035766602,-0.38166531920433044,6596,5915
34539.324,-4.380440898898996e-09,6.556364837706496e-07,1.0,0.06311175227165222,0.014034837484359741,1.0185571908950806,37990.26171875,2.807666301727295,1.7838807106018066,0.0,13.085017204284668,19.601985931396484,5.443821907043457,23446.728515625,16650.0,23346.43359375,16650.0,15861,0.626829981803894,-1.4831171035766602,-0.38166531920433044,6118,5901
34541.354,-4.380440898898996e-09,6.556364837706496e-07,1.0,0.06311175227165222,0.014034837484359741,1.0185571908950806,37990.26171875,2.807666301727295,1.7838807106018066,0.0,12.997964859008789,19.59504508972168,5.191269874572754,23922.8984375,16650.0,23628.3984375,16650.0,-6815,0.6413388252258301,-1.4819600582122803,-0.3802658021450043,6873,6747
34543.29,-4.380440898898996e-09,6.556364837706496e-07,1.0,0.06311175227165222,0.014034837484359741,1.0185571908950806,37990.26171875,2.807666301727295,1.7838807106018066,0.0,14.894519805908203,21.42641258239746,8.838179588317871,25968.03515625,16650.0,25245.51171875,16650.0,4682,0.32524630427360535,-1.7871880531311035,-0.39905694127082825,8275,5992
34545.329,-4.566479638867804e-09,6.556351763720158e-07,1.0,0.06314966082572937,0.013917110860347748,1.0187690258026123,38021.22265625,2.7499194145202637,1.8364663124084473,0.0,14.548038482666016,21.741926193237305,5.550528526306152,24345.509765625,16650.0,23734.19921875,16650.0,-7799,0.32524630427360535,-1.7871880531311035,-0.39905694127082825,7627,6476
34547.239,-4.566479638867804e-09,6.556351763720158e-07,1.0,0.06314966082572937,0.013917110860347748,1.0187690258026123,38021.22265625,2.7499194145202637,1.8364663124084473,0.0,14.508951187133789,21.72423553466797,5.289698600769043,24533.51953125,16650.0,22664.90625,16650.0,16570,0.3317609131336212,-1.784239649772644,-0.39761149883270264,7687,7281
34549.22,-4.566479638867804e-09,6.556351763720158e-07,1.0,0.06314966082572937,0.013917110860347748,1.0187690258026123,38021.22265625,2.7499194145202637,1.8364663124084473,0.0,14.508951187133789,21.72423553466797,5.5434465408325195,24569.609375,16650.0,22651.4296875,16650.0,-14242,0.3317609131336212,-1.784239649772644,-0.39761149883270264,7496,7184
34551.247,-4.566479638867804e-09,6.556351763720158e-07,1.0,0.06314966082572937,0.013917110860347748,1.0187690258026123,38021.22265625,2.7499194145202637,1.8364663124084473,0.0,14.508951187133789,21.72423553466797,5.544241428375244,24706.25390625,16650.0,22573.21875,16650.0,11666,0.3317609131336212,-1.784239649772644,-0.39761149883270264,8846,6088
34553.174,-4.566479638867804e-09,6.556351763720158e-07,1.0,0.06279051303863525,0.013981234282255173,1.0186223983764648,38021.22265625,2.7499194145202637,1.8364663124084473,0.0,14.508951187133789,21.72423553466797,5.545036315917969,25153.44140625,16650.0,22534.8828125,16650.0,22388,0.3317609131336212,-1.784239649772644,-0.39761149883270264,8110,5452
34555.219,-4.740790870982892e-09,6.556339258168009e-07,1.0,0.06279051303863525,0.013981234282255173,1.0186223983764648,38039.5859375,2.7263612747192383,1.8877520561218262,0.0,16.68882179260254,23.862260818481445,8.564659118652344,26235.810546875,16650.0,23864.318359375,16650.0,18982,-0.05510891228914261,-2.0892913341522217,-0.4142899215221405,10101,7977
34557.136,-4.740790870982892e-09,6.556339258168009e-07,1.0,0.06271166354417801,0.013849863782525063,1.0185381174087524,38039.5859375,2.7263612747192383,1.8877520561218262,0.0,16.68882179260254,23.862260818481445,5.646763801574707,23370.970703125,16650.0,21632.4765625,16650.0,10494,-0.05510891228914261,-2.0892913341522217,-0.4142899215221405,8183,5351
34559.112,-4.740790870982892e-09,6.556339258168009e-07,1.0,0.06271166354417801,0.013849863782525063,1.0185381174087524,38039.5859375,2.7263612747192383,1.8877520561218262,0.0,16.64537811279297,23.837356567382812,5.478762626647949,22473.029296875,16650.0,21270.740234375,16650.0,-27936,-0.04786834865808487,-2.0851407051086426,-0.4133571684360504,9745,8397
34561.137,-4.740790870982892e-09,6.556339258168009e-07,1.0,0.06271166354417801,0.013849863782525063,1.0185381174087524,38039.5859375,2.7263612747192383,1.8877520561218262,0.0,16.64537811279297,23.837356567382812,5.642820835113525,22810.109375,16650.0,21263.72265625,16650.0,9696,-0.04786834865808487,-2.0851407051086426,-0.4133571684360504,10645,7989
34563.071,-4.740790870982892e-09,6.556339258168009e-07,1.0,0.06257899105548859,0.01385799702256918,1.0184862613677979,38039.5859375,2.7263612747192383,1.8877520561218262,0.0,19.28816032409668,25.443265914916992,7.866819381713867,25688.724609375,16650.0,22673.267578125,16650.0,1891,-0.48833203315734863,-2.352792501449585,-0.4256397485733032,8879,5781
34565.117,-4.85710760500524e-09,6.556331300089369e-07,1.0,0.06257899105548859,0.01385799702256918,1.0184862613677979,38002.02734375,2.714822292327881,1.9526299238204956,0.0,19.165096282958984,25.805105209350586,5.503753185272217,24096.29296875,16650.0,21686.5234375,16650.0,-6898,-0.4793606400489807,-2.3482210636138916,-0.42445486783981323,9234,6452
34567.029,-4.85710760500524e-09,6.556331300089369e-07,1.0,0.06239493936300278,0.013977954164147377,1.0185437202453613,38002.02734375,2.714822292327881,1.9526299238204956,0.0,19.165096282958984,25.805105209350586,5.711956024169922,23221.505859375,16650.0,20722.947265625,16650.0,-14279,-0.4793606400489807,-2.3482210636138916,-0.42445486783981323,8058,4848
34569.026,-4.85710760500524e-09,6.556331300089369e-07,1.0,0.06239493936300278,0.013977954164147377,1.0185437202453613,38002.02734375,2.714822292327881,1.9526299238204956,0.0,19.108840942382812,25.7852725982666,5.466475486755371,21953.9140625,16650.0,19652.322265625,16650.0,-5329,-0.46998459100723267,-2.3449153900146484,-0.4230939447879791,8752,4306
34571.037,-4.85710760500524e-09,6.556331300089369e-07,1.0,0.06239493936300278,0.013977954164147377,1.0185437202453613,38002.02734375,2.714822292327881,1.9526299238204956,0.0,19.108840942382812,25.7852725982666,5.705483436584473,21613.33984375,16650.0,19286.66796875,16650.0,-27089,-0.46998459100723267,-2.3449153900146484,-0.4230939447879791,9035,6965
34572.977,-4.85710760500524e-09,6.556331300089369e-07,1.0,0.06233606114983559,0.014085228554904461,1.0187965631484985,38002.02734375,2.714822292327881,1.9526299238204956,0.0,21.457149505615234,26.87757110595703,7.138543128967285,22784.14453125,16650.0,19515.88671875,16650.0,4475,-0.8613691329956055,-2.526965379714966,-0.43100664019584656,8980,4724
34575.002,-4.903788042298629e-09,6.556327889484237e-07,1.0,0.06233606114983559,0.014085228554904461,1.0187965631484985,37932.53515625,2.7150216102600098,2.035829782485962,0.0,21.383544921875,27.359058380126953,5.307185173034668,20408.81640625,16650.0,19251.77734375,16650.0,-10380,-0.848902702331543,-2.5240135192871094,-0.42853429913520813,7985,4254
34576.924,-4.903788042298629e-09,6.556327889484237e-07,1.0,0.06233606114983559,0.014085228554904461,1.0187965631484985,37932.53515625,2.7150216102600098,2.035829782485962,0.0,21.383544921875,27.359058380126953,5.740701675415039,20665.42578125,16650.0,19762.845703125,16650.0,1978,-0.848902702331543,-2.5240135192871094,-0.42853429913520813,8124,4106
34578.902,-4.903788042298629e-09,6.556327889484237e-07,1.0,0.062168143689632416,0.014082188718020916,1.0185847282409668,37932.53515625,2.7150216102600098,2.035829782485962,0.0,21.383544921875,27.359058380126953,5.741559028625488,20575.958984375,16650.0,19408.412109375,16650.0,-13708,-0.848902702331543,-2.5240135192871094,-0.42853429913520813,6797,3161
34580.926,-4.903788042298629e-09,6.556327889484237e-07,1.0,0.062168143689632416,0.014082188718020916,1.0185847282409668,37932.53515625,2.7150216102600098,2.035829782485962,0.0,21.326602935791016,27.335718154907227,5.4979143142700195,19079.998046875,16650.0,18188.73046875,16650.0,-15274,-0.8394122123718262,-2.5201234817504883,-0.42718347907066345,7193,2246
34582.859,-4.903788042298629e-09,6.556327889484237e-07,1.0,0.062168143689632416,0.014082188718020916,1.0185847282409668,37932.53515625,2.7150216102600098,2.035829782485962,0.0,22.951236724853516,27.650876998901367,4.718022346496582,19498.94140625,16650.0,17814.0625,16650.0,14661,-1.1101847887039185,-2.5726494789123535,-0.421563982963562,7328,2013
34584.896,-4.824026955674299e-09,6.556333573826123e-07,1.0,0.062089383602142334,0.01405364740639925,1.0184824466705322,37902.8984375,2.735213041305542,2.14467453956604,0.0,23.0723876953125,28.303945541381836,5.702277183532715,18472.201171875,16650.0,17902.1953125,16650.0,13173,-1.1101847887039185,-2.5726494789123535,-0.421563982963562,5499,61
34586.821,-4.824026955674299e-09,6.556333573826123e-07,1.0,0.062089383602142334,0.01405364740639925,1.0184824466705322,37902.8984375,2.735213041305542,2.14467453956604,0.0,23.015687942504883,28.278562545776367,5.434852123260498,18803.3359375,16650.0,18008.19140625,16650.0,-31541,-1.1007349491119385,-2.5684192180633545,-0.42008185386657715,6395,927
34588.803,-4.824026955674299e-09,6.556333573826123e-07,1.0,0.062089383602142334,0.01405364740639925,1.0184824466705322,37902.8984375,2.735213041305542,2.14467453956604,0.0,23.015687942504883,28.278562545776367,5.695064544677734,17763.08203125,16650.0,17759.494140625,16650.0,-13179,-1.1007349491119385,-2.5684192180633545,-0.42008185386657715,4871,1205
34590.827,-4.824026955674299e-09,6.556333573826123e-07,1.0,0.062065593898296356,0.01415962353348732,1.0185599327087402,37902.8984375,2.735213041305542,2.14467453956604,0.0,23.015687942504883,28.278562545776367,5.695904731750488,16504.453125,16650.0,16450.697265625,16650.0,20556,-1.1007349491119385,-2.5684192180633545,-0.42008185386657715,3817,197
34592.755,-4.824026955674299e-09,6.556333573826123e-07,1.0,0.062065593898296356,0.01415962353348732,1.0185599327087402,37902.8984375,2.735213041305542,2.14467453956604,0.0,23.518348693847656,27.770496368408203,3.5000810623168945,16098.9111328125,16650.0,14844.4873046875,16650.0,-4834,-1.184511661529541,-2.483741521835327,-0.4079457223415375,3790,1995
34594.805,-4.6681938314918625e-09,6.556344942509895e-07,1.0,0.0619698129594326,0.014248881489038467,1.018454670906067,37854.99609375,2.767448902130127,2.249725103378296,0.0,23.711763381958008,28.400798797607422,5.624719619750977,15649.525390625,16650.0,16091.767578125,16650.0,7568,-1.184511661529541,-2.483741521835327,-0.4079457223415375,2314,1360
34596.713,-4.6681938314918625e-09,6.556344942509895e-07,1.0,0.0619698129594326,0.014248881489038467,1.018454670906067,37854.99609375,2.767448902130127,2.249725103378296,0.0,23.711763381958008,28.400798797607422,5.62553596496582,15598.1328125,16650.0,17051.32421875,16650.0,19202,-1.184511661529541,-2.483741521835327,-0.4079457223415375,1810,-425
34598.692,-4.6681938314918625e-09,6.556344942509895e-07,1.0,0.0619698129594326,0.014248881489038467,1.018454670906067,37854.99609375,2.767448902130127,2.249725103378296,0.0,23.643226623535156,28.374555587768555,5.355936527252197,15241.44921875,16650.0,17202.5859375,16650.0,-4460,-1.1730890274047852,-2.479367733001709,-0.4064517319202423,1626,-1074
34600.732,-4.6681938314918625e-09,6.556344942509895e-07,1.0,0.06192890927195549,0.01433981116861105,1.0184565782546997,37854.99609375,2.767448902130127,2.249725103378296,0.0,23.643226623535156,28.374555587768555,5.618197917938232,14373.0283203125,16650.0,16423.849609375,16650.0,11198,-1.1730890274047852,-2.479367733001709,-0.4064517319202423,930,-905
34602.656,-4.6681938314918625e-09,6.556344942509895e-07,1.0,0.06192890927195549,0.01433981116861105,1.0184565782546997,37854.99609375,2.767448902130127,2.249725103378296,0.0,23.643226623535156,28.374555587768555,5.619010925292969,13528.3427734375,16647.673828125,15712.1923828125,16650.0,27644,-1.1730890274047852,-2.479367733001709,-0.4064517319202423,-716,-2497
34604.686,-4.497072492171128e-09,6.556356311193667e-07,1.0,0.06192890927195549,0.01433981116861105,1.0184565782546997,37807.12109375,2.806483268737793,2.351384401321411,0.0,22.913516998291016,27.56450843811035,3.1834867000579834,12768.0029296875,16640.57421875,14551.7373046875,16649.6171875,-29218,-1.0124362707138062,-2.2427003383636475,-0.39299145340919495,-42,-1522
34606.606,-4.497072492171128e-09,6.556356311193667e-07,1.0,0.061876676976680756,0.014407469891011715,1.0183660984039307,37807.12109375,2.806483268737793,2.351384401321411,0.0,22.913516998291016,27.56450843811035,5.539821624755859,13330.0966796875,16630.25390625,15127.099609375,16647.26953125,-3440,-1.0124362707138062,-2.2427003383636475,-0.39299145340919495,-260,-151
34608.585,-4.497072492171128e-09,6.556356311193667e-07,1.0,0.061876676976680756,0.014407469891011715,1.0183660984039307,37807.12109375,2.806483268737793,2.351384401321411,0.0,22.852298736572266,27.535383224487305,5.331918716430664,14388.6162109375,16618.68359375,16550.751953125,16645.189453125,-9280,-1.0022331476211548,-2.2378463745117188,-0.3918384909629822,-2895,-2082
34610.619,-4.497072492171128e-09,6.556356311193667e-07,1.0,0.061876676976680756,0.014407469891011715,1.0183660984039307,37807.12109375,2.806483268737793,2.351384401321411,0.0,22.852298736572266,27.535383224487305,5.534470558166504,14322.9248046875,16605.99609375,16656.693359375,16643.47265625,25496,-1.0022331476211548,-2.2378463745117188,-0.3918384909629822,-2436,-1010
34612.543,-4.497072492171128e-09,6.556356311193667e-07,1.0,0.06195596233010292,0.014460583217442036,1.0183017253875732,37807.12109375,2.806483268737793,2.351384401321411,0.0,22.852298736572266,27.535383224487305,5.53525447845459,12186.4140625,16589.552734375,15891.0380859375,16641.04296875,-18229,-1.0022331476211548,-2.2378463745117188,-0.3918384909629822,-1869,-2173
34614.583,-4.295213074101412e-09,6.556369953614194e-07,1.0,0.06195596233010292,0.014460583217442036,1.0183017253875732,37747.2578125,2.8398067951202393,2.4427947998046875,0.0,20.796886444091797,26.157508850097656,2.551788091659546,10441.4912109375,16567.6796875,15039.5048828125,16636.888671875,21886,-0.6263410449028015,-1.9167900085449219,-0.37535110116004944,-2504,-2400
34616.509,-4.295213074101412e-09,6.556369953614194e-07,1.0,0.06195596233010292,0.014460583217442036,1.0183017253875732,37747.2578125,2.8398067951202393,2.4427947998046875,0.0,20.796886444091797,26.157508850097656,5.437831878662109,12995.861328125,16544.720703125,16229.3310546875,16632.88671875,31290,-0.6263410449028015,-1.9167900085449219,-0.37535110116004944,-3035,-2135
34618.48,-4.295213074101412e-09,6.556369953614194e-07,1.0,0.0619099996984005,0.014591403305530548,1.0182653665542603,37747.2578125,2.8398067951202393,2.4427947998046875,0.0,20.796886444091797,26.157508850097656,5.438582420349121,13345.716796875,16521.357421875,16403.521484375,16629.251953125,6042,-0.6263410449028015,-1.9167900085449219,-0.37535110116004944,-3473,-1509
34620.506,-4.295213074101412e-09,6.556369953614194e-07,1.0,0.0619099996984005,0.014591403305530548,1.0182653665542603,37747.2578125,2.8398067951202393,2.4427947998046875,0.0,20.741065979003906,26.128643035888672,5.3240251541137695,13538.0478515625,16497.9375,17087.38671875,16626.8359375,9352,-0.6170375943183899,-1.9119791984558105,-0.37471404671669006,-3089,-2822
34622.441,-4.295213074101412e-09,6.556369953614194e-07,1.0,0.061791449785232544,0.014783009886741638,1.0183396339416504,37747.2578125,2.8398067951202393,2.4427947998046875,0.0,20.741065979003906,26.128643035888672,5.4362592697143555,13401.9951171875,16474.326171875,16983.33203125,16625.30078125,25680,-0.6170375943183899,-1.9119791984558105,-0.37471404671669006,-3788,-2340
34624.481,-4.2832741797838025e-09,6.556371090482571e-07,1.0,0.061791449785232544,0.014783009886741638,1.0183396339416504,37714.0234375,2.8489327430725098,2.402003049850464,0.0,20.755523681640625,25.85173988342285,5.363468170166016,12578.5927734375,16449.490234375,16707.642578125,16624.134765625,28678,-0.610321044921875,-1.9066201448440552,-0.3743077516555786,-3445,-2471
34626.398,-4.2832741797838025e-09,6.556371090482571e-07,1.0,0.061791449785232544,0.014783009886741638,1.0183396339416504,37714.0234375,2.8489327430725098,2.402003049850464,0.0,17.872196197509766,23.92128562927246,1.3798773288726807,10909.73828125,16421.44140625,16015.68359375,16622.353515625,9816,-0.12976644933223724,-1.5848779678344727,-0.3519022464752197,-2515,-2350
34628.38,-4.2832741797838025e-09,6.556371090482571e-07,1.0,0.06190471351146698,0.014867071993649006,1.0182325839996338,37714.0234375,2.8489327430725098,2.402003049850464,0.0,17.872196197509766,23.92128562927246,5.301544189453125,13639.615234375,16394.396484375,17349.888671875,16621.837890625,32278,-0.12976644933223724,-1.5848779678344727,-0.3519022464752197,-3247,-964
34630.399,-4.2832741797838025e-09,6.556371090482571e-07,1.0,0.06190471351146698,0.014867071993649006,1.0182325839996338,37714.0234375,2.8489327430725098,2.402003049850464,0.0,17.872196197509766,23.92128562927246,5.302248001098633,13842.626953125,16368.490234375,17356.83203125,16622.388671875,15524,-0.12976644933223724,-1.5848779678344727,-0.3519022464752197,-3351,-2453
34632.358,-4.2832741797838025e-09,6.556371090482571e-07,1.0,0.06190471351146698,0.014867071993649006,1.0182325839996338,37714.0234375,2.8489327430725098,2.402003049850464,0.0,17.872196197509766,23.92128562927246,5.302951812744141,14271.7041015625,16344.138671875,18053.349609375,16624.751953125,-3871,-0.12976644933223724,-1.5848779678344727,-0.3519022464752197,-3429,-1558
34634.377,-4.026887712171856e-09,6.556387575074041e-07,1.0,0.061923351138830185,0.014936532825231552,1.018104076385498,37710.91796875,2.8759026527404785,2.495389938354492,0.0,18.034015655517578,24.48160743713379,5.303655624389648,14744.94140625,16321.7451171875,19272.51171875,16630.24609375,-4185,-0.12976644933223724,-1.5848779678344727,-0.3519022464752197,-3214,-1865
34636.294,-4.026887712171856e-09,6.556387575074041e-07,1.0,0.061923351138830185,0.014936532825231552,1.018104076385498,37710.91796875,2.8759026527404785,2.495389938354492,0.0,15.109344482421875,22.92932891845703,2.703076124191284,12788.6884765625,16298.40234375,18141.71484375,16636.830078125,11448,0.3576785922050476,-1.326164960861206,-0.3375306725502014,-3739,-1386
34638.274,-4.026887712171856e-09,6.556387575074041e-07,1.0,0.061923351138830185,0.014936532825231552,1.018104076385498,37710.91796875,2.8759026527404785,2.495389938354492,0.0,15.109344482421875,22.92932891845703,5.218776702880859,15103.736328125,16277.3857421875,19470.5703125,16646.08203125,-4057,0.3576785922050476,-1.326164960861206,-0.3375306725502014,-2565,-1350
34640.295,-4.026887712171856e-09,6.556387575074041e-07,1.0,0.06200109422206879,0.015022932551801205,1.0179905891418457,37710.91796875,2.8759026527404785,2.495389938354492,0.0,15.109344482421875,22.92932891845703,5.219451427459717,15665.005859375,16259.0791015625,19744.62109375,16650.0,-9982,0.3576785922050476,-1.326164960861206,-0.3375306725502014,-3375,-846
34642.227,-4.026887712171856e-09,6.556387575074041e-07,1.0,0.06200109422206879,0.015022932551801205,1.0179905891418457,37710.91796875,2.8759026527404785,2.495389938354492,0.0,15.109344482421875,22.92932891845703,5.220126152038574,15789.0712890625,16243.2197265625,19658.02734375,16650.0,-28282,0.3576785922050476,-1.326164960861206,-0.3375306725502014,-2997,847
34644.27,-3.862432595980181e-09,6.556397238455247e-07,1.0,0.06208911910653114,0.01516532339155674,1.0181618928909302,37714.28515625,2.8859100341796875,2.5545637607574463,0.0,15.169387817382812,23.284372329711914,5.22080135345459,15877.44921875,16229.5322265625,19900.484375,16650.0,-11682,0.3576785922050476,-1.326164960861206,-0.3375306725502014,-2952,281
34646.19,-3.862432595980181e-09,6.556397238455247e-07,1.0,0.06208911910653114,0.01516532339155674,1.0181618928909302,37714.28515625,2.8859100341796875,2.5545637607574463,0.0,15.169387817382812,23.284372329711914,5.2214765548706055,16414.748046875,16218.3896484375,19623.892578125,16650.0,30258,0.3576785922050476,-1.326164960861206,-0.3375306725502014,-3490,530
34648.167,-3.862432595980181e-09,6.556397238455247e-07,1.0,0.06208911910653114,0.01516532339155674,1.0181618928909302,37714.28515625,2.8859100341796875,2.5545637607574463,0.0,12.99258804321289,22.55942153930664,5.831818103790283,15462.548828125,16208.109375,19342.2265625,16650.0,-25006,0.7204787731170654,-1.2053399085998535,-0.34089896082878113,-3064,-618
34650.189,-3.862432595980181e-09,6.556397238455247e-07,1.0,0.06205733120441437,0.015336999669671059,1.0181094408035278,37714.28515625,2.8859100341796875,2.5545637607574463,0.0,12.99258804321289,22.55942153930664,5.243049621582031,17350.27734375,16201.07421875,20949.8203125,16650.0,24966,0.7204787731170654,-1.2053399085998535,-0.34089896082878113,-2334,603
34652.147,-3.862432595980181e-09,6.556397238455247e-07,1.0,0.06205733120441437,0.015336999669671059,1.0181094408035278,37714.28515625,2.8859100341796875,2.5545637607574463,0.0,13.000001907348633,22.524608612060547,5.267444610595703,17471.83203125,16196.9130859375,21868.455078125,16650.0,-18908,0.7192431688308716,-1.1995376348495483,-0.34102997183799744,-2892,0
34654.16,-3.902475231853941e-09,6.556394964718493e-07,1.0,0.06205733120441437,0.015336999669671059,1.0181094408035278,37692.484375,2.8900251388549805,2.602092981338501,0.0,13.02469253540039,22.809783935546875,5.245200157165527,17949.208984375,16195.78125,22259.435546875,16650.0,17443,0.7192431688308716,-1.1995376348495483,-0.34102997183799744,39,2131
34656.085,-3.902475231853941e-09,6.556394964718493e-07,1.0,0.06201893463730812,0.015506193973124027,1.0181344747543335,37692.484375,2.8900251388549805,2.602092981338501,0.0,13.02469253540039,22.809783935546875,5.245882034301758,19309.271484375,16198.986328125,21923.36328125,16650.0,25954,0.7192431688308716,-1.1995376348495483,-0.34102997183799744,719,511
34658.058,-3.902475231853941e-09,6.556394964718493e-07,1.0,0.06201893463730812,0.015506193973124027,1.0181344747543335,37692.484375,2.8900251388549805,2.602092981338501,0.0,13.02469253540039,22.809783935546875,5.246563911437988,20497.5234375,16207.376953125,22038.951171875,16650.0,24430,0.7192431688308716,-1.1995376348495483,-0.34102997183799744,-144,2598
34660.089,-3.902475231853941e-09,6.556394964718493e-07,1.0,0.061970971524715424,0.01564585603773594,1.0181454420089722,37692.484375,2.8900251388549805,2.602092981338501,0.0,11.869362831115723,22.738529205322266,7.4171223640441895,20249.056640625,16219.7421875,21857.515625,16650.0,8261,0.9117980599403381,-1.18766188621521,-0.3530181050300598,-576,3731
34662.018,-3.902475231853941e-09,6.556394964718493e-07,1.0,0.061970971524715424,0.01564585603773594,1.0181454420089722,37692.484375,2.8900251388549805,2.602092981338501,0.0,11.869362831115723,22.738529205322266,5.3199052810668945,21513.474609375,16237.0810546875,22368.9453125,16650.0,-9063,0.9117980599403381,-1.18766188621521,-0.3530181050300598,389,4278
34664.061,-4.039655721044255e-09,6.556386438205664e-07,1.0,0.061970971524715424,0.01564585603773594,1.0181454420089722,37633.734375,2.882676124572754,2.634296417236328,0.0,11.825268745422363,22.93174934387207,5.320611000061035,21663.435546875,16258.7373046875,23350.52734375,16650.0,11882,0.9117980599403381,-1.18766188621521,-0.3530181050300598,889,3313
34665.975,-4.039655721044255e-09,6.556386438205664e-07,1.0,0.06193147599697113,0.01575782708823681,1.018096685409546,37633.734375,2.882676124572754,2.634296417236328,0.0,11.825268745422363,22.93174934387207,5.321316719055176,22125.02734375,16284.5703125,23484.89453125,16650.0,21232,0.9117980599403381,-1.18766188621521,-0.3530181050300598,2619,4151
34667.953,-4.039655721044255e-09,6.556386438205664e-07,1.0,0.06193147599697113,0.01575782708823681,1.018096685409546,37633.734375,2.882676124572754,2.634296417236328,0.0,11.910775184631348,23.643482208251953,8.695794105529785,22993.294921875,16315.001953125,23735.66796875,16650.0,-31653,0.8975468873977661,-1.3062838315963745,-0.37165752053260803,2706,5651
34669.977,-4.039655721044255e-09,6.556386438205664e-07,1.0,0.06193147599697113,0.01575782708823681,1.018096685409546,37633.734375,2.882676124572754,2.634296417236328,0.0,11.910775184631348,23.643482208251953,5.434639930725098,22911.423828125,16349.111328125,23326.16015625,16650.0,-6246,0.8975468873977661,-1.3062838315963745,-0.37165752053260803,4348,4654
34671.912,-4.039655721044255e-09,6.556386438205664e-07,1.0,0.06187069043517113,0.01594425179064274,1.0182040929794312,37633.734375,2.882676124572754,2.634296417236328,0.0,11.910775184631348,23.643482208251953,5.4353837966918945,22624.3125,16385.85546875,23504.685546875,16650.0,6777,0.8975468873977661,-1.3062838315963745,-0.37165752053260803,4198,5815
34673.953,-4.252947771732352e-09,6.556372795785137e-07,1.0,0.06187069043517113,0.01594425179064274,1.0182040929794312,37635.87109375,2.863119602203369,2.6669492721557617,0.0,11.793436050415039,23.839399337768555,5.436126708984375,23783.39453125,16426.283203125,24017.10546875,16650.0,-30278,0.8975468873977661,-1.3062838315963745,-0.37165752053260803,4772,5898
34675.873,-4.252947771732352e-09,6.556372795785137e-07,1.0,0.06187069043517113,0.01594425179064274,1.0182040929794312,37635.87109375,2.863119602203369,2.6669492721557617,0.0,11.793436050415039,23.839399337768555,5.436870574951172,24529.90625,16470.71875,23631.36328125,16650.0,-3770,0.8975468873977661,-1.3062838315963745,-0.37165752053260803,6838,5725
34677.911,-4.252947771732352e-09,6.556372795785137e-07,1.0,0.06176828593015671,0.016034146770834923,1.0181818008422852,37635.87109375,2.863119602203369,2.6669492721557617,0.0,13.14593505859375,25.174880981445312,9.050098419189453,25514.76953125,16519.740234375,24255.70703125,16650.0,-13678,0.672130286693573,-1.5288645029067993,-0.39161577820777893,6888,6619
34679.878,-4.252947771732352e-09,6.556372795785137e-07,1.0,0.06176828593015671,0.016034146770834923,1.0181818008422852,37635.87109375,2.863119602203369,2.6669492721557617,0.0,13.14593505859375,25.174880981445312,5.5581865310668945,25574.0,16572.595703125,24073.802734375,16650.0,-11788,0.672130286693573,-1.5288645029067993,-0.39161577820777893,6589,4678
34681.811,-4.252947771732352e-09,6.556372795785137e-07,1.0,0.06176828593015671,0.016034146770834923,1.0181818008422852,37635.87109375,2.863119602203369,2.6669492721557617,0.0,13.14593505859375,25.174880981445312,5.558969497680664,26201.8984375,16629.404296875,24247.66015625,16650.0,76,0.672130286693573,-1.5288645029067993,-0.39161577820777893,6790,5427
34683.846,-4.481330861949573e-09,6.556357448062045e-07,1.0,0.061541732400655746,0.016215668991208076,1.0181996822357178,37667.80078125,2.8402602672576904,2.7058041095733643,0.0,13.008779525756836,25.40801239013672,5.559752464294434,25608.150390625,16650.0,23568.0859375,16650.0,16080,0.672130286693573,-1.5288645029067993,-0.39161577820777893,8156,5604
34685.821,-4.481330861949573e-09,6.556357448062045e-07,1.0,0.061541732400655746,0.016215668991208076,1.0181996822357178,37667.80078125,2.8402602672576904,2.7058041095733643,0.0,13.008779525756836,25.40801239013672,5.560535907745361,25482.353515625,16650.0,23203.88671875,16650.0,-9465,0.672130286693573,-1.5288645029067993,-0.39161577820777893,8083,4875
34687.748,-4.481330861949573e-09,6.556357448062045e-07,1.0,0.061541732400655746,0.016215668991208076,1.0181996822357178,37667.80078125,2.8402602672576904,2.7058041095733643,0.0,15.43295669555664,27.091510772705078,8.263729095458984,27508.3671875,16650.0,24554.88671875,16650.0,-32288,0.2681007981300354,-1.8094476461410522,-0.40654605627059937,9127,5290
34689.781,-4.481330861949573e-09,6.556357448062045e-07,1.0,0.06139674037694931,0.016390562057495117,1.0183688402175903,37667.80078125,2.8402602672576904,2.7058041095733643,0.0,15.43295669555664,27.091510772705078,5.651743412017822,25980.54296875,16650.0,22996.01953125,16650.0,-20693,0.2681007981300354,-1.8094476461410522,-0.40654605627059937,10177,5144
34691.702,-4.481330861949573e-09,6.556357448062045e-07,1.0,0.06139674037694931,0.016390562057495117,1.0183688402175903,37667.80078125,2.8402602672576904,2.7058041095733643,0.0,15.43295669555664,27.091510772705078,5.652556419372559,26003.1171875,16650.0,23181.4453125,16650.0,-32511,0.2681007981300354,-1.8094476461410522,-0.40654605627059937,8767,6032
34693.745,-4.65217731004941e-09,6.556346079378272e-07,1.0,0.06141563877463341,0.016456030309200287,1.0183637142181396,37641.7421875,2.807746648788452,2.778592109680176,0.0,15.237874984741211,27.528240203857422,5.653369426727295,26012.6328125,16650.0,23581.19921875,16650.0,11099,0.2681007981300354,-1.8094476461410522,-0.40654605627059937,10564,6693
34695.684,-4.65217731004941e-09,6.556346079378272e-07,1.0,0.06141563877463341,0.016456030309200287,1.0183637142181396,37641.7421875,2.807746648788452,2.778592109680176,0.0,18.339397430419922,29.197917938232422,7.8107075691223145,27924.943359375,16650.0,23791.48828125,16650.0,9821,-0.2488194853067398,-2.0877275466918945,-0.4184604287147522,10917,7471
34697.67,-4.65217731004941e-09,6.556346079378272e-07,1.0,0.06141563877463341,0.016456030309200287,1.0183637142181396,37641.7421875,2.807746648788452,2.778592109680176,0.0,18.339397430419922,29.197917938232422,5.726529598236084,25134.986328125,16650.0,22657.525390625,16650.0,-9668,-0.2488194853067398,-2.0877275466918945,-0.4184604287147522,11157,7754
34699.67,-4.65217731004941e-09,6.556346079378272e-07,1.0,0.06134408712387085,0.01681915856897831,1.0185067653656006,37641.7421875,2.807746648788452,2.778592109680176,0.0,18.339397430419922,29.197917938232422,5.7273664474487305,25053.42578125,16650.0,23090.90234375,16650.0,17066,-0.2488194853067398,-2.0877275466918945,-0.4184604287147522,10925,4405
34701.6,-4.65217731004941e-09,6.556346079378272e-07,1.0,0.06134408712387085,0.01681915856897831,1.0185067653656006,37641.7421875,2.807746648788452,2.778592109680176,0.0,18.295398712158203,29.182342529296875,5.366888999938965,25320.8359375,16650.0,22644.29296875,16650.0,-1539,-0.24148644506931305,-2.085131883621216,-0.416464239358902,12152,8448
34703.638,-4.765670968964741e-09,6.556337552865443e-07,1.0,0.06134408712387085,0.01681915856897831,1.0185067653656006,37547.765625,2.7978296279907227,2.8490097522735596,0.0,18.235897064208984,29.60485076904297,5.717055320739746,25928.56640625,16650.0,22768.92578125,16650.0,-4472,-0.24148644506931305,-2.085131883621216,-0.416464239358902,10531,6235
34705.551,-4.765670968964741e-09,6.556337552865443e-07,1.0,0.06120208278298378,0.016974464058876038,1.018471360206604,37547.765625,2.7978296279907227,2.8490097522735596,0.0,18.235897064208984,29.60485076904297,5.717888355255127,25204.095703125,16650.0,22473.89453125,16650.0,8018,-0.24148644506931305,-2.085131883621216,-0.416464239358902,11616,4399
34707.53,-4.765670968964741e-09,6.556337552865443e-07,1.0,0.06120208278298378,0.016974464058876038,1.018471360206604,37547.765625,2.7978296279907227,2.8490097522735596,0.0,18.235897064208984,29.60485076904297,5.718721389770508,23733.1328125,16650.0,22313.4296875,16650.0,-759,-0.24148644506931305,-2.085131883621216,-0.416464239358902,10116,6194
34709.573,-4.765670968964741e-09,6.556337552865443e-07,1.0,0.06120208278298378,0.016974464058876038,1.018471360206604,37547.765625,2.7978296279907227,2.8490097522735596,0.0,21.398639678955078,31.008939743041992,7.457801342010498,24790.890625,16650.0,22598.04296875,16650.0,-26747,-0.7686102390289307,-2.3191471099853516,-0.4260677099227905,12015,6313
34711.492,-4.765670968964741e-09,6.556337552865443e-07,1.0,0.06113050878047943,0.01725511997938156,1.018762230873108,37547.765625,2.7978296279907227,2.8490097522735596,0.0,21.355484008789062,30.989490509033203,5.5394086837768555,21727.5390625,16650.0,20417.787109375,16650.0,-2829,-0.7614176869392395,-2.3159053325653076,-0.4247492849826813,12337,7547
34713.543,-4.860476909840372e-09,6.55633073165518e-07,1.0,0.06113050878047943,0.01725511997938156,1.018762230873108,37484.21875,2.808610200881958,2.926622152328491,0.0,21.420166015625,31.45516586303711,5.77098274230957,21668.83203125,16650.0,20190.8359375,16650.0,-2995,-0.7614176869392395,-2.3159053325653076,-0.4247492849826813,11759,6209
34715.451,-4.860476909840372e-09,6.55633073165518e-07,1.0,0.06113050878047943,0.01725511997938156,1.018762230873108,37484.21875,2.808610200881958,2.926622152328491,0.0,21.420166015625,31.45516586303711,5.771832466125488,22154.580078125,16650.0,20251.296875,16650.0,-5699,-0.7614176869392395,-2.3159053325653076,-0.4247492849826813,11388,3060
34717.432,-4.860476909840372e-09,6.55633073165518e-07,1.0,0.06098122149705887,0.01730176992714405,1.0186353921890259,37484.21875,2.808610200881958,2.926622152328491,0.0,21.420166015625,31.45516586303711,5.772681713104248,21454.779296875,16650.0,20317.146484375,16650.0,20562,-0.7614176869392395,-2.3159053325653076,-0.4247492849826813,8829,5233
34719.462,-4.860476909840372e-09,6.55633073165518e-07,1.0,0.06098122149705887,0.01730176992714405,1.0186353921890259,37484.21875,2.808610200881958,2.926622152328491,0.0,24.128568649291992,32.47797393798828,7.4146223068237305,22997.7421875,16650.0,20874.47265625,16650.0,-19174,-1.212817907333374,-2.4863736629486084,-0.43381598591804504,8906,5419
34721.385,-4.860476909840372e-09,6.55633073165518e-07,1.0,0.06112048029899597,0.017637457698583603,1.0190846920013428,37484.21875,2.808610200881958,2.926622152328491,0.0,24.128568649291992,32.47797393798828,5.828817367553711,20874.26953125,16650.0,19723.169921875,16650.0,23960,-1.212817907333374,-2.4863736629486084,-0.43381598591804504,9154,2475
34723.449,-4.934991082450324e-09,6.556325047313294e-07,1.0,0.06112048029899597,0.017637457698583603,1.0190846920013428,37463.39453125,2.8405983448028564,3.0147316455841064,0.0,24.259958267211914,32.991554260253906,5.367249488830566,19566.62890625,16650.0,19815.38671875,16650.0,18744,-1.202728033065796,-2.483860492706299,-0.4312611222267151,8487,3055
34725.345,-4.934991082450324e-09,6.556325047313294e-07,1.0,0.06112048029899597,0.017637457698583603,1.0190846920013428,37463.39453125,2.8405983448028564,3.0147316455841064,0.0,24.259958267211914,32.991554260253906,5.815213203430176,18527.748046875,16650.0,19996.59765625,16650.0,-30350,-1.202728033065796,-2.483860492706299,-0.4312611222267151,8776,1829
34727.322,-4.934991082450324e-09,6.556325047313294e-07,1.0,0.06103549152612686,0.017882468178868294,1.0191365480422974,37463.39453125,2.8405983448028564,3.0147316455841064,0.0,25.94146728515625,33.289825439453125,5.286378860473633,19330.537109375,16650.0,19805.556640625,16650.0,8395,-1.4829792976379395,-2.5335731506347656,-0.42833465337753296,7269,4576
34729.354,-4.934991082450324e-09,6.556325047313294e-07,1.0,0.06103549152612686,0.017882468178868294,1.0191365480422974,37463.39453125,2.8405983448028564,3.0147316455841064,0.0,25.896209716796875,33.265316009521484,5.489283084869385,17034.14453125,16650.0,17983.1796875,16650.0,-6942,-1.4754364490509033,-2.5294878482818604,-0.4266214966773987,6135,4430
34731.286,-4.934991082450324e-09,6.556325047313294e-07,1.0,0.06103549152612686,0.017882468178868294,1.0191365480422974,37463.39453125,2.8405983448028564,3.0147316455841064,0.0,25.896209716796875,33.265316009521484,5.789938926696777,16339.0419921875,16650.0,17129.10546875,16650.0,-17665,-1.4754364490509033,-2.5294878482818604,-0.4266214966773987,4245,2463
34733.334,-4.881900217412749e-09,6.556329026352614e-07,1.0,0.06105346977710724,0.01796295866370201,1.0190165042877197,37453.69140625,2.886967658996582,3.1322572231292725,0.0,26.174423217773438,33.9704704284668,5.790791988372803,15982.41015625,16650.0,17708.13671875,16650.0,17674,-1.4754364490509033,-2.5294878482818604,-0.4266214966773987,4157,4133
34735.241,-4.881900217412749e-09,6.556329026352614e-07,1.0,0.06105346977710724,0.01796295866370201,1.0190165042877197,37453.69140625,2.886967658996582,3.1322572231292725,0.0,26.131542205810547,33.9439697265625,5.511628150939941,15063.2099609375,16650.0,17486.1328125,16650.0,19523,-1.4682892560958862,-2.525071382522583,-0.4250744581222534,2153,3988
34737.227,-4.881900217412749e-09,6.556329026352614e-07,1.0,0.06105346977710724,0.01796295866370201,1.0190165042877197,37453.69140625,2.886967658996582,3.1322572231292725,0.0,26.388721466064453,33.55685806274414,4.772542953491211,14824.8076171875,16650.0,17790.689453125,16650.0,-3962,-1.5111526250839233,-2.460552215576172,-0.4194907248020172,2488,858
34739.248,-4.881900217412749e-09,6.556329026352614e-07,1.0,0.06109284237027168,0.01824021339416504,1.0191209316253662,37453.69140625,2.886967658996582,3.1322572231292725,0.0,26.34598731994629,33.53529357910156,5.363991737365723,14720.19921875,16650.0,17834.0390625,16650.0,-22797,-1.5040303468704224,-2.456958055496216,-0.41735514998435974,2111,-913
34741.173,-4.881900217412749e-09,6.556329026352614e-07,1.0,0.06109284237027168,0.01824021339416504,1.0191209316253662,37453.69140625,2.886967658996582,3.1322572231292725,0.0,26.34598731994629,33.53529357910156,5.738552093505859,14387.359375,16650.0,17100.84375,16650.0,-1950,-1.5040303468704224,-2.456958055496216,-0.41735514998435974,1390,-501
34743.229,-4.775865924955269e-09,6.556336984431255e-07,1.0,0.06113265082240105,0.018518557772040367,1.019142746925354,37402.8984375,2.953681707382202,3.2334940433502197,0.0,26.746273040771484,34.1427116394043,5.739387035369873,13531.8369140625,16647.44921875,17455.69921875,16650.0,23412,-1.5040303468704224,-2.456958055496216,-0.41735514998435974,-1129,-1352
34745.142,-4.775865924955269e-09,6.556336984431255e-07,1.0,0.06113265082240105,0.018518557772040367,1.019142746925354,37402.8984375,2.953681707382202,3.2334940433502197,0.0,26.700023651123047,34.11968231201172,5.485147953033447,12345.744140625,16639.6015625,16753.72265625,16650.0,31794,-1.4963222742080688,-2.453120231628418,-0.4159459173679352,-1382,576
34747.113,-4.775865924955269e-09,6.556336984431255e-07,1.0,0.06113265082240105,0.018518557772040367,1.019142746925354,37402.8984375,2.953681707382202,3.2334940433502197,0.0,25.413042068481445,33.01912307739258,5.245308876037598,11435.8056640625,16626.138671875,15718.5859375,16650.0,-31786,-1.2818251848220825,-2.269693374633789,-0.4132537543773651,-39,171
34749.145,-4.775865924955269e-09,6.556336984431255e-07,1.0,0.06120835617184639,0.01865917071700096,1.018986463546753,37402.8984375,2.953681707382202,3.2334940433502197,0.0,25.413042068481445,33.01912307739258,5.717263698577881,11723.73046875,16608.408203125,15996.9892578125,16650.0,-13843,-1.2818251848220825,-2.269693374633789,-0.4132537543773651,-1350,-949
34751.083,-4.775865924955269e-09,6.556336984431255e-07,1.0,0.06120835617184639,0.01865917071700096,1.018986463546753,37402.8984375,2.953681707382202,3.2334940433502197,0.0,25.413042068481445,33.01912307739258,5.718090057373047,10908.81640625,16586.0625,15565.041015625,16650.0,-27266,-1.2818251848220825,-2.269693374633789,-0.4132537543773651,-2986,-1001
34753.129,-4.728933689079895e-09,6.556340395036386e-07,1.0,0.06120835617184639,0.01865917071700096,1.018986463546753,37349.45703125,3.0253942012786865,3.333089828491211,0.0,25.84331703186035,33.61669921875,5.718916893005371,11291.33984375,16560.41796875,16113.7060546875,16650.0,-7870,-1.2818251848220825,-2.269693374633789,-0.4132537543773651,-3147,-2157
34755.037,-4.728933689079895e-09,6.556340395036386e-07,1.0,0.06133788451552391,0.01903950795531273,1.018964171409607,37349.45703125,3.0253942012786865,3.333089828491211,0.0,25.84331703186035,33.61669921875,5.719743728637695,11689.0546875,16532.587890625,16850.126953125,16650.0,-10742,-1.2818251848220825,-2.269693374633789,-0.4132537543773651,-4251,31
34757.015,-4.728933689079895e-09,6.556340395036386e-07,1.0,0.06133788451552391,0.01903950795531273,1.018964171409607,37349.45703125,3.0253942012786865,3.333089828491211,0.0,22.82804298400879,31.719383239746094,5.106237411499023,9411.791015625,16499.9453125,15827.9921875,16650.0,18250,-0.7792797088623047,-1.9534741640090942,-0.40985968708992004,-3427,-31
34759.045,-4.728933689079895e-09,6.556340395036386e-07,1.0,0.06133788451552391,0.01903950795531273,1.018964171409607,37349.45703125,3.0253942012786865,3.333089828491211,0.0,22.82804298400879,31.719383239746094,5.701018333435059,10813.408203125,16465.20703125,16504.693359375,16650.0,2368,-0.7792797088623047,-1.9534741640090942,-0.40985968708992004,-3240,-1058
34760.975,-4.728933689079895e-09,6.556340395036386e-07,1.0,0.061462752521038055,0.01913195289671421,1.0189541578292847,37349.45703125,3.0253942012786865,3.333089828491211,0.0,22.82804298400879,31.719383239746094,5.701838493347168,10227.7109375,16427.990234375,16127.751953125,16649.46875,22092,-0.7792797088623047,-1.9534741640090942,-0.40985968708992004,-4955,-2694
34763.024,-4.690095423143248e-09,6.556343237207329e-07,1.0,0.061462752521038055,0.01913195289671421,1.0189541578292847,37283.17578125,3.098008155822754,3.440051794052124,0.0,23.26372718811035,32.36115646362305,5.702657699584961,11287.1376953125,16390.173828125,17008.798828125,16649.5078125,3026,-0.7792797088623047,-1.9534741640090942,-0.40985968708992004,-4256,-2152
34764.933,-4.690095423143248e-09,6.556343237207329e-07,1.0,0.061462752521038055,0.01913195289671421,1.0189541578292847,37283.17578125,3.098008155822754,3.440051794052124,0.0,23.26372718811035,32.36115646362305,5.70347785949707,11590.466796875,16352.310546875,16550.626953125,16649.40625,9926,-0.7792797088623047,-1.9534741640090942,-0.40985968708992004,-5555,-5162
34766.912,-4.690095423143248e-09,6.556343237207329e-07,1.0,0.06171170622110367,0.019377417862415314,1.0188661813735962,37283.17578125,3.098008155822754,3.440051794052124,0.0,23.199020385742188,32.33853530883789,5.424404144287109,11568.4091796875,16314.4306640625,16519.15625,16649.1484375,-8510,-0.7684950828552246,-1.9497040510177612,-0.4083133339881897,-6080,-2337
34768.939,-4.690095423143248e-09,6.556343237207329e-07,1.0,0.06171170622110367,0.019377417862415314,1.0188661813735962,37283.17578125,3.098008155822754,3.440051794052124,0.0,19.30864906311035,30.228252410888672,4.767186164855957,9569.34765625,16273.923828125,15319.26171875,16647.1640625,32658,-0.12009991705417633,-1.5979901552200317,-0.4031827449798584,-7414,-1626
34770.874,-4.690095423143248e-09,6.556343237207329e-07,1.0,0.06167757138609886,0.019509680569171906,1.018743634223938,37283.17578125,3.098008155822754,3.440051794052124,0.0,19.30864906311035,30.228252410888672,5.665844917297363,12161.6533203125,16234.7373046875,17401.349609375,16646.515625,23268,-0.12009991705417633,-1.5979901552200317,-0.4031827449798584,-6152,-3857
34772.911,-4.613691206856174e-09,6.556348921549215e-07,1.0,0.06167757138609886,0.019509680569171906,1.018743634223938,37234.5625,3.133563280105591,3.556865930557251,0.0,19.52198028564453,30.92913818359375,5.666651725769043,11877.806640625,16196.3232421875,17981.099609375,16647.751953125,-20745,-0.12009991705417633,-1.5979901552200317,-0.4031827449798584,-7259,-2094
34774.825,-4.613691206856174e-09,6.556348921549215e-07,1.0,0.06167757138609886,0.019509680569171906,1.018743634223938,37234.5625,3.133563280105591,3.556865930557251,0.0,19.493040084838867,30.894166946411133,5.52387809753418,11881.5400390625,16158.609375,17296.146484375,16649.646484375,-15247,-0.11527692526578903,-1.592162013053894,-0.4023894965648651,-6094,-1958
34776.805,-4.613691206856174e-09,6.556348921549215e-07,1.0,0.06176583096385002,0.01978398859500885,1.0187634229660034,37234.5625,3.133563280105591,3.556865930557251,0.0,19.493040084838867,30.894166946411133,5.663501262664795,11816.626953125,16121.4404296875,16892.56640625,16650.0,-31628,-0.11527692526578903,-1.592162013053894,-0.4023894965648651,-5073,-2916
34778.841,-4.613691206856174e-09,6.556348921549215e-07,1.0,0.06176583096385002,0.01978398859500885,1.0187634229660034,37234.5625,3.133563280105591,3.556865930557251,0.0,15.623416900634766,28.842144012451172,3.3285937309265137,10457.6953125,16082.9677734375,16285.21875,16650.0,13389,0.5296604037284851,-1.2501581907272339,-0.3894851505756378,-7296,-528
34780.768,-4.613691206856174e-09,6.556348921549215e-07,1.0,0.06176583096385002,0.01978398859500885,1.0187634229660034,37234.5625,3.133563280105591,3.556865930557251,0.0,15.623416900634766,28.842144012451172,5.58763313293457,14577.611328125,16048.9443359375,18513.6015625,16650.0,-5524,0.5296604037284851,-1.2501581907272339,-0.3894851505756378,-4375,18
34782.812,-4.4569499202395946e-09,6.55635915336461e-07,1.0,0.06161223351955414,0.02017059735953808,1.0192573070526123,37174.22265625,3.1631288528442383,3.626909017562866,0.0,15.800809860229492,29.262401580810547,5.588412284851074,14468.638671875,16018.5263671875,18715.69140625,16650.0,30410,0.5296604037284851,-1.2501581907272339,-0.3894851505756378,-4361,-1699
34784.717,-4.4569499202395946e-09,6.55635915336461e-07,1.0,0.06161223351955414,0.02017059735953808,1.0192573070526123,37174.22265625,3.1631288528442383,3.626909017562866,0.0,15.863001823425293,29.215850830078125,5.55390739440918,14527.6845703125,15991.2255859375,18866.26953125,16650.0,10900,0.5192950963973999,-1.2423992156982422,-0.3892902135848999,-5699,-4140
34786.702,-4.4569499202395946e-09,6.55635915336461e-07,1.0,0.061871714890003204,0.020352166146039963,1.0192363262176514,37174.22265625,3.1631288528442383,3.626909017562866,0.0,15.863001823425293,29.215850830078125,5.588799476623535,15383.376953125,15967.6953125,19458.169921875,16650.0,16844,0.5192950963973999,-1.2423992156982422,-0.3892902135848999,-4842,1817
34788.729,-4.4569499202395946e-09,6.55635915336461e-07,1.0,0.061871714890003204,0.020352166146039963,1.0192363262176514,37174.22265625,3.1631288528442383,3.626909017562866,0.0,12.841344833374023,27.622690200805664,3.5724573135375977,13109.033203125,15944.306640625,18254.53125,16650.0,14394,1.022904634475708,-0.9768726229667664,-0.3781460225582123,-4428,-493
