timestamp,posCtl.targetX,posCtl.targetY,posCtl.targetZ,locSrv.x,locSrv.y,locSrv.z,controller.actuatorThrust,controller.pitch,controller.roll,controller.yaw,pid_attitude.pitch_output,pid_attitude.roll_output,pid_attitude.yaw_output,pid_rate.pitch_output,pid_rate.pitch_outI,pid_rate.roll_output,pid_rate.roll_outI,pid_rate.yaw_output,stateEstimate.pitch,stateEstimate.roll,stateEstimate.yaw,snn_control.torque_pitch,snn_control.torque_roll
71223.14,3.387837068657973e-07,1.9034793297123542e-07,1.0,0.08745505660772324,0.039365965873003006,1.0131179094314575,37413.27734375,5.43904972076416,2.639693021774292,0.0,22.282325744628906,19.321491241455078,-10.49058723449707,21407.2109375,16650.0,13030.58984375,16304.3974609375,17058,1.7253286838531494,-0.58055579662323,1.0880229473114014,2117,-2540
71225.189,4.4967748635826865e-07,1.972866536803508e-09,1.0,0.08781511336565018,0.03924955055117607,1.0128653049468994,37445.8515625,5.437292098999023,2.663973331451416,0.0,22.271780014038086,19.467174530029297,-8.658777236938477,20766.734375,16650.0,15378.900390625,16284.1474609375,11042,1.7253286838531494,-0.58055579662323,1.0880229473114014,3199,-4082
71227.098,4.4967748635826865e-07,1.972866536803508e-09,1.0,0.08781511336565018,0.03924955055117607,1.0128653049468994,37445.8515625,5.437292098999023,2.663973331451416,0.0,22.39044952392578,19.41845703125,-8.812769889831543,20552.072265625,16650.0,15248.333984375,16265.9150390625,7952,1.7055506706237793,-0.5724360346794128,1.0888617038726807,2880,-3824
71229.083,4.4967748635826865e-07,1.972866536803508e-09,1.0,0.08781511336565018,0.03924955055117607,1.0128653049468994,37445.8515625,5.437292098999023,2.663973331451416,0.0,22.39044952392578,19.41845703125,-8.66816520690918,20394.833984375,16650.0,15194.9990234375,16249.3154296875,26088,1.7055506706237793,-0.5724360346794128,1.0888617038726807,4468,-2898
71231.098,4.4967748635826865e-07,1.972866536803508e-09,1.0,0.08828001469373703,0.03905153274536133,1.0128474235534668,37445.8515625,5.437292098999023,2.663973331451416,0.0,22.39044952392578,19.41845703125,-8.670342445373535,21392.361328125,16650.0,16320.6025390625,16235.595703125,18550,1.7055506706237793,-0.5724360346794128,1.0888617038726807,6332,-2352
71233.039,4.4967748635826865e-07,1.972866536803508e-09,1.0,0.08828001469373703,0.03905153274536133,1.0128474235534668,37445.8515625,5.437292098999023,2.663973331451416,0.0,22.87588882446289,16.942602157592773,-10.195671081542969,22914.88671875,16650.0,15775.69921875,16223.56640625,14566,1.6246436834335327,-0.15979352593421936,1.0972768068313599,6332,-2352
71235.089,9.343969509245653e-07,-8.200438514904818e-07,1.0,0.08828001469373703,0.03905153274536133,1.0128474235534668,37487.9609375,5.4964728355407715,2.64190411567688,0.0,23.230974197387695,16.8101863861084,-8.72522258758545,22504.59765625,16650.0,17517.724609375,16215.2763671875,2504,1.6246436834335327,-0.15979352593421936,1.0972768068313599,4774,-3494
71236.995,9.343969509245653e-07,-8.200438514904818e-07,1.0,0.08841043710708618,0.03896316513419151,1.0125439167022705,37487.9609375,5.4964728355407715,2.64190411567688,0.0,23.230974197387695,16.8101863861084,-8.7274169921875,21370.734375,16650.0,17165.494140625,16209.64453125,5697,1.6246436834335327,-0.15979352593421936,1.0972768068313599,4368,-3866
71238.971,9.343969509245653e-07,-8.200438514904818e-07,1.0,0.08841043710708618,0.03896316513419151,1.0125439167022705,37487.9609375,5.4964728355407715,2.64190411567688,0.0,23.257789611816406,16.771638870239258,-8.809447288513184,21008.44921875,16650.0,17363.74609375,16206.4931640625,28313,1.6201746463775635,-0.15336903929710388,1.0977178812026978,5265,-3800
71240.994,9.343969509245653e-07,-8.200438514904818e-07,1.0,0.08910883963108063,0.03878841549158096,1.012682557106018,37487.9609375,5.4964728355407715,2.64190411567688,0.0,23.257789611816406,16.771638870239258,-8.734455108642578,21378.017578125,16650.0,18341.8046875,16206.71484375,-11131,1.6201746463775635,-0.15336903929710388,1.0977178812026978,7035,-2259
71242.934,9.343969509245653e-07,-8.200438514904818e-07,1.0,0.08910883963108063,0.03878841549158096,1.012682557106018,37487.9609375,5.4964728355407715,2.64190411567688,0.0,24.060773849487305,15.121830940246582,-9.809011459350586,22626.43359375,16650.0,18384.8203125,16209.798828125,-3494,1.4863439798355103,0.12159886211156845,1.103642463684082,7035,-2259
71244.966,2.2400649868359324e-06,-3.0300432172225555e-06,1.0,0.08910883963108063,0.03878841549158096,1.012682557106018,37484.53125,5.533258438110352,2.6035280227661133,0.0,24.28148651123047,14.89157485961914,-8.774415969848633,22081.71875,16650.0,19938.314453125,16217.3310546875,11913,1.4863439798355103,0.12159886211156845,1.103642463684082,6370,-574
71246.888,2.2400649868359324e-06,-3.0300432172225555e-06,1.0,0.08958227187395096,0.03871748596429825,1.0127739906311035,37484.53125,5.533258438110352,2.6035280227661133,0.0,24.28148651123047,14.89157485961914,-8.776623725891113,21189.0,16650.0,20092.5546875,16228.759765625,27060,1.4863439798355103,0.12159886211156845,1.103642463684082,6370,-574
71248.866,2.2400649868359324e-06,-3.0300432172225555e-06,1.0,0.08958227187395096,0.03871748596429825,1.0127739906311035,37484.53125,5.533258438110352,2.6035280227661133,0.0,24.3416805267334,14.85725212097168,-8.975744247436523,20743.33203125,16650.0,20442.05859375,16243.880859375,32366,1.4763116836547852,0.12731926143169403,1.1047303676605225,5492,-624
71250.883,2.2400649868359324e-06,-3.0300432172225555e-06,1.0,0.08958227187395096,0.03871748596429825,1.0127739906311035,37484.53125,5.533258438110352,2.6035280227661133,0.0,25.18431854248047,14.325376510620117,-8.444169998168945,21456.69921875,16650.0,21220.87890625,16263.091796875,-19234,1.3358721733093262,0.21596524119377136,1.1028331518173218,6492,914
71252.827,2.2400649868359324e-06,-3.0300432172225555e-06,1.0,0.08998294919729233,0.03850378841161728,1.012665033340454,37484.53125,5.533258438110352,2.6035280227661133,0.0,25.18431854248047,14.325376510620117,-8.778388023376465,20933.09375,16650.0,22228.482421875,16287.0234375,-3372,1.3358721733093262,0.21596524119377136,1.1028331518173218,6492,914
71254.866,4.992379672330571e-06,-7.677449502807576e-06,1.0,0.08998294919729233,0.03850378841161728,1.012665033340454,37525.65625,5.561004161834717,2.5576047897338867,0.0,25.350791931152344,14.049837112426758,-8.780593872070312,21289.673828125,16650.0,22863.609375,16315.6962890625,1260,1.3358721733093262,0.21596524119377136,1.1028331518173218,5642,3368
71256.78,4.992379672330571e-06,-7.677449502807576e-06,1.0,0.08998294919729233,0.03850378841161728,1.012665033340454,37525.65625,5.561004161834717,2.5576047897338867,0.0,25.350791931152344,14.049837112426758,-8.78279972076416,21093.146484375,16650.0,23440.443359375,16349.046875,-29004,1.3358721733093262,0.21596524119377136,1.1028331518173218,5123,4626
71258.763,4.992379672330571e-06,-7.677449502807576e-06,1.0,0.09029801189899445,0.038350705057382584,1.012658953666687,37525.65625,5.561004161834717,2.5576047897338867,0.0,25.350791931152344,14.049837112426758,-8.785005569458008,20053.943359375,16650.0,23612.513671875,16386.47265625,24337,1.3358721733093262,0.21596524119377136,1.1028331518173218,5264,6324
71260.78,4.992379672330571e-06,-7.677449502807576e-06,1.0,0.09029801189899445,0.038350705057382584,1.012658953666687,37525.65625,5.561004161834717,2.5576047897338867,0.0,26.060470581054688,14.841333389282227,-7.468654632568359,20182.544921875,16650.0,24915.548828125,16428.9765625,28542,1.2175923585891724,0.0840492695569992,1.095548391342163,5176,4411
71262.724,4.992379672330571e-06,-7.677449502807576e-06,1.0,0.09029801189899445,0.038350705057382584,1.012658953666687,37525.65625,5.561004161834717,2.5576047897338867,0.0,26.060470581054688,14.841333389282227,-8.745678901672363,19922.716796875,16650.0,24966.501953125,16475.716796875,11408,1.2175923585891724,0.0840492695569992,1.095548391342163,7828,7865
71264.756,9.982447409129236e-06,-1.607978811080102e-05,1.0,0.09075510501861572,0.03822096437215805,1.0126334428787231,37599.8671875,5.547268867492676,2.530424118041992,0.0,25.978059768676758,14.67824935913086,-8.747869491577148,19410.572265625,16650.0,25065.80078125,16526.0546875,-15525,1.2175923585891724,0.0840492695569992,1.095548391342163,6222,7084
71266.67,9.982447409129236e-06,-1.607978811080102e-05,1.0,0.09075510501861572,0.03822096437215805,1.0126334428787231,37599.8671875,5.547268867492676,2.530424118041992,0.0,25.978059768676758,14.67824935913086,-8.75006103515625,19331.5390625,16650.0,25564.76171875,16579.98046875,-5522,1.2175923585891724,0.0840492695569992,1.095548391342163,3639,6625
71268.65,9.982447409129236e-06,-1.607978811080102e-05,1.0,0.09104892611503601,0.038079071789979935,1.0124459266662598,37599.8671875,5.547268867492676,2.530424118041992,0.0,25.978059768676758,14.67824935913086,-8.752252578735352,18613.99609375,16650.0,25342.349609375,16636.52734375,12620,1.2175923585891724,0.0840492695569992,1.095548391342163,3875,7380
71270.684,9.982447409129236e-06,-1.607978811080102e-05,1.0,0.09104892611503601,0.038079071789979935,1.0124459266662598,37599.8671875,5.547268867492676,2.530424118041992,0.0,26.263038635253906,16.71612548828125,-7.702817916870117,17974.70703125,16650.0,27255.640625,16650.0,24200,1.1700960397720337,-0.2555968463420868,1.089738368988037,3967,7893
71272.614,9.982447409129236e-06,-1.607978811080102e-05,1.0,0.09104892611503601,0.038079071789979935,1.0124459266662598,37599.8671875,5.547268867492676,2.530424118041992,0.0,26.263038635253906,16.71612548828125,-8.721750259399414,18253.701171875,16650.0,26574.404296875,16650.0,28668,1.1700960397720337,-0.2555968463420868,1.089738368988037,3954,7267
71274.652,1.8187851310358383e-05,-2.9861286748200655e-05,1.0,0.09130039066076279,0.03786730021238327,1.01231849193573,37613.65234375,5.559510231018066,2.4869537353515625,0.0,26.33648681640625,16.455303192138672,-8.723930358886719,18495.712890625,16650.0,25963.25,16650.0,30736,1.1700960397720337,-0.2555968463420868,1.089738368988037,3337,8437
71276.571,1.8187851310358383e-05,-2.9861286748200655e-05,1.0,0.09130039066076279,0.03786730021238327,1.01231849193573,37613.65234375,5.559510231018066,2.4869537353515625,0.0,26.33648681640625,16.455303192138672,-8.726109504699707,18588.060546875,16650.0,26349.203125,16650.0,743,1.1700960397720337,-0.2555968463420868,1.089738368988037,4347,11440
71278.557,1.8187851310358383e-05,-2.9861286748200655e-05,1.0,0.09130039066076279,0.03786730021238327,1.01231849193573,37613.65234375,5.559510231018066,2.4869537353515625,0.0,26.33648681640625,16.455303192138672,-8.728288650512695,18631.57421875,16650.0,26640.01953125,16650.0,12622,1.1700960397720337,-0.2555968463420868,1.089738368988037,1351,10977
71280.574,1.8187851310358383e-05,-2.9861286748200655e-05,1.0,0.09152616560459137,0.03784850239753723,1.0123666524887085,37613.65234375,5.559510231018066,2.4869537353515625,0.0,26.33648681640625,16.455303192138672,-8.73046875,17422.1015625,16650.0,25871.8359375,16650.0,21221,1.1700960397720337,-0.2555968463420868,1.089738368988037,1872,10202
71282.504,1.8187851310358383e-05,-2.9861286748200655e-05,1.0,0.09152616560459137,0.03784850239753723,1.0123666524887085,37613.65234375,5.559510231018066,2.4869537353515625,0.0,26.039623260498047,19.349424362182617,-8.473808288574219,16515.4375,16650.0,27868.79296875,16650.0,-23828,1.219572901725769,-0.7379504442214966,1.088308334350586,2300,9583
71284.561,3.0717190384166315e-05,-5.085921293357387e-05,1.0,0.09152616560459137,0.03784850239753723,1.0123666524887085,37619.4296875,5.572024822235107,2.4544761180877686,0.0,26.11471176147461,19.154560089111328,-8.726241111755371,16766.43359375,16650.0,25847.521484375,16650.0,28922,1.219572901725769,-0.7379504442214966,1.088308334350586,1596,10590
71286.544,3.0717190384166315e-05,-5.085921293357387e-05,1.0,0.09161251038312912,0.03769049048423767,1.0125175714492798,37619.4296875,5.572024822235107,2.4544761180877686,0.0,26.11471176147461,19.154560089111328,-8.72841739654541,17172.212890625,16650.0,25966.8671875,16650.0,12620,1.219572901725769,-0.7379504442214966,1.088308334350586,1976,11234
71288.441,3.0717190384166315e-05,-5.085921293357387e-05,1.0,0.09161251038312912,0.03769049048423767,1.0125175714492798,37619.4296875,5.572024822235107,2.4544761180877686,0.0,26.045236587524414,19.140398025512695,-8.713483810424805,17900.779296875,16650.0,25922.91796875,16650.0,-8971,1.2311522960662842,-0.7355901002883911,1.0882138013839722,770,10774
71290.478,3.0717190384166315e-05,-5.085921293357387e-05,1.0,0.09197492897510529,0.037542492151260376,1.0124626159667969,37619.4296875,5.572024822235107,2.4544761180877686,0.0,25.279766082763672,22.40851402282715,-9.14767074584961,17077.0078125,16650.0,27837.44921875,16650.0,15965,1.3587303161621094,-1.2802762985229492,1.0905091762542725,1772,11177
71292.4,3.0717190384166315e-05,-5.085921293357387e-05,1.0,0.09197492897510529,0.037542492151260376,1.0124626159667969,37619.4296875,5.572024822235107,2.4544761180877686,0.0,25.279766082763672,22.40851402282715,-8.748161315917969,16387.966796875,16650.0,24775.177734375,16650.0,23790,1.3587303161621094,-1.2802762985229492,1.0905091762542725,899,10538
71294.449,4.885525049758144e-05,-8.119697304209694e-05,1.0,0.09197492897510529,0.037542492151260376,1.0124626159667969,37639.484375,5.561077117919922,2.4479146003723145,0.0,25.127235412597656,22.34937286376953,-8.845582962036133,16532.46875,16650.0,24442.982421875,16650.0,27827,1.3732047080993652,-1.276980996131897,1.0910353660583496,899,10538
71296.361,4.885525049758144e-05,-8.119697304209694e-05,1.0,0.09212151914834976,0.037534814327955246,1.0124655961990356,37639.484375,5.561077117919922,2.4479146003723145,0.0,25.127235412597656,22.34937286376953,-8.755681991577148,16854.90234375,16650.0,23769.517578125,16650.0,26288,1.3732047080993652,-1.276980996131897,1.0910353660583496,-2262,9759
71298.335,4.885525049758144e-05,-8.119697304209694e-05,1.0,0.09212151914834976,0.037534814327955246,1.0124655961990356,37639.484375,5.561077117919922,2.4479146003723145,0.0,25.127235412597656,22.34937286376953,-8.757863998413086,16196.76171875,16650.0,22370.23046875,16650.0,23984,1.3732047080993652,-1.276980996131897,1.0910353660583496,-2102,9333
71300.366,4.885525049758144e-05,-8.119697304209694e-05,1.0,0.09212151914834976,0.037534814327955246,1.0124655961990356,37639.484375,5.561077117919922,2.4479146003723145,0.0,24.021577835083008,25.359878540039062,-10.501687049865723,15120.7099609375,16650.0,24390.654296875,16650.0,-23830,1.5574806928634644,-1.7787318229675293,1.10065758228302,-779,8861
71302.292,4.885525049758144e-05,-8.119697304209694e-05,1.0,0.09265389293432236,0.03749709576368332,1.0122644901275635,37639.484375,5.561077117919922,2.4479146003723145,0.0,24.021577835083008,25.359878540039062,-8.820000648498535,15979.9716796875,16650.0,22204.28515625,16650.0,-4506,1.5574806928634644,-1.7787318229675293,1.10065758228302,-2297,8239
71304.335,7.400083995889872e-05,-0.0001232005888596177,1.0,0.09265389293432236,0.03749709576368332,1.0122644901275635,37655.1171875,5.5630998611450195,2.461533546447754,0.0,23.988475799560547,25.411582946777344,-9.006879806518555,16432.71875,16649.7734375,21707.3984375,16650.0,-29382,1.5650204420089722,-1.7737301588058472,1.1016778945922852,-3185,8185
71306.304,7.400083995889872e-05,-0.0001232005888596177,1.0,0.09265389293432236,0.03749709576368332,1.0122644901275635,37655.1171875,5.5630998611450195,2.461533546447754,0.0,23.988475799560547,25.411582946777344,-8.83052921295166,16860.79296875,16649.86328125,21366.185546875,16650.0,-26123,1.5650204420089722,-1.7737301588058472,1.1016778945922852,-3111,5451
71308.227,7.400083995889872e-05,-0.0001232005888596177,1.0,0.0928555577993393,0.03742287680506706,1.0122225284576416,37655.1171875,5.5630998611450195,2.461533546447754,0.0,23.988475799560547,25.411582946777344,-8.832733154296875,17162.568359375,16650.0,20553.9453125,16650.0,-29862,1.5650204420089722,-1.7737301588058472,1.1016778945922852,-2060,6352
71310.258,7.400083995889872e-05,-0.0001232005888596177,1.0,0.0928555577993393,0.03742287680506706,1.0122225284576416,37655.1171875,5.5630998611450195,2.461533546447754,0.0,22.51045036315918,27.414844512939453,-12.765575408935547,16522.236328125,16650.0,21437.107421875,16650.0,-21592,1.8113582134246826,-2.107607364654541,1.1233938932418823,-1854,6935
71312.2,7.400083995889872e-05,-0.0001232005888596177,1.0,0.0928555577993393,0.03742287680506706,1.0122225284576416,37655.1171875,5.5630998611450195,2.461533546447754,0.0,22.51045036315918,27.414844512939453,-8.967521667480469,17343.978515625,16650.0,19970.46484375,16650.0,28450,1.8113582134246826,-2.107607364654541,1.1233938932418823,-655,4960
71314.238,0.00010774326074169949,-0.0001795383868739009,1.0,0.09321833401918411,0.03735603019595146,1.0123016834259033,37614.9609375,5.521728515625,2.52253794670105,0.0,22.262222290039062,27.78087043762207,-8.969768524169922,16682.25390625,16650.0,19430.578125,16650.0,-15384,1.8113582134246826,-2.107607364654541,1.1233938932418823,-115,4802
71316.145,0.00010774326074169949,-0.0001795383868739009,1.0,0.09321833401918411,0.03735603019595146,1.0123016834259033,37614.9609375,5.521728515625,2.52253794670105,0.0,22.175731658935547,27.76032829284668,-9.41672134399414,17624.25,16650.0,18318.880859375,16650.0,27471,1.8257732391357422,-2.1041831970214844,1.125850796699524,-1974,1706
71318.171,0.00010774326074169949,-0.0001795383868739009,1.0,0.09335275739431381,0.03726077824831009,1.012455701828003,37614.9609375,5.521728515625,2.52253794670105,0.0,22.175731658935547,27.76032829284668,-8.989013671875,18619.974609375,16650.0,17746.416015625,16650.0,4164,1.8257732391357422,-2.1041831970214844,1.125850796699524,-1605,2496
71320.147,0.00010774326074169949,-0.0001795383868739009,1.0,0.09335275739431381,0.03726077824831009,1.012455701828003,37614.9609375,5.521728515625,2.52253794670105,0.0,22.117462158203125,27.73985481262207,-9.338290214538574,18792.669921875,16650.0,17459.263671875,16650.0,12717,1.8354847431182861,-2.100771188735962,1.1277680397033691,-700,681
71322.094,0.00010774326074169949,-0.0001795383868739009,1.0,0.09335275739431381,0.03726077824831009,1.012455701828003,37614.9609375,5.521728515625,2.52253794670105,0.0,20.78091812133789,28.607934951782227,-13.055290222167969,17355.98046875,16650.0,17338.5546875,16650.0,-13220,2.058242082595825,-2.245450973510742,1.1501449346542358,-516,-1936
71324.127,0.000151771106175147,-0.00025300143170170486,1.0,0.09356946498155594,0.03715484216809273,1.0124270915985107,37553.34375,5.474720001220703,2.59126877784729,0.0,20.49886703491211,29.02031707763672,-9.141633987426758,17761.578125,16650.0,16289.248046875,16650.0,25656,2.058242082595825,-2.245450973510742,1.1501449346542358,-369,2186
71326.068,0.000151771106175147,-0.00025300143170170486,1.0,0.09356946498155594,0.03715484216809273,1.0124270915985107,37553.34375,5.474720001220703,2.59126877784729,0.0,20.428356170654297,28.999345779418945,-9.541126251220703,18671.806640625,16650.0,15709.984375,16650.0,-11921,2.0699939727783203,-2.241955518722534,1.1523393392562866,1188,699
71328.028,0.000151771106175147,-0.00025300143170170486,1.0,0.09356946498155594,0.03715484216809273,1.0124270915985107,37553.34375,5.474720001220703,2.59126877784729,0.0,20.428356170654297,28.999345779418945,-9.15941047668457,19275.03125,16650.0,15376.728515625,16650.0,-10126,2.0699939727783203,-2.241955518722534,1.1523393392562866,941,-2346
71330.045,0.000151771106175147,-0.00025300143170170486,1.0,0.09393933415412903,0.037095922976732254,1.012476921081543,37553.34375,5.474720001220703,2.59126877784729,0.0,20.428356170654297,28.999345779418945,-9.161715507507324,19648.736328125,16650.0,15558.5390625,16650.0,5036,2.0699939727783203,-2.241955518722534,1.1523393392562866,887,-616
71331.98,0.000151771106175147,-0.00025300143170170486,1.0,0.09393933415412903,0.037095922976732254,1.012476921081543,37553.34375,5.474720001220703,2.59126877784729,0.0,19.56410026550293,28.232574462890625,-11.982574462890625,19525.1328125,16650.0,15130.27734375,16650.0,-14846,2.214036703109741,-2.1141605377197266,1.1679112911224365,763,-386
71334.028,0.00020803906954824924,-0.0003466599737294018,1.0,0.09431684017181396,0.03702961280941963,1.0124613046646118,37475.86328125,5.415528297424316,2.6699414253234863,0.0,19.20895004272461,28.704612731933594,-9.259819030761719,20185.859375,16650.0,16091.0986328125,16650.0,16440,2.214036703109741,-2.1141605377197266,1.1679112911224365,1249,-432
71335.951,0.00020803906954824924,-0.0003466599737294018,1.0,0.09431684017181396,0.03702961280941963,1.0124613046646118,37475.86328125,5.415528297424316,2.6699414253234863,0.0,19.20895004272461,28.704612731933594,-9.262154579162598,20554.26171875,16650.0,15464.7509765625,16650.0,-5310,2.214036703109741,-2.1141605377197266,1.1679112911224365,1703,-3179
71337.936,0.00020803906954824924,-0.0003466599737294018,1.0,0.09431684017181396,0.03702961280941963,1.0124613046646118,37475.86328125,5.415528297424316,2.6699414253234863,0.0,19.20895004272461,28.704612731933594,-9.264490127563477,20612.09375,16650.0,15031.802734375,16648.486328125,13602,2.214036703109741,-2.1141605377197266,1.1679112911224365,2440,-1426
71339.937,0.00020803906954824924,-0.0003466599737294018,1.0,0.09432297945022583,0.0370737724006176,1.0123039484024048,37475.86328125,5.415528297424316,2.6699414253234863,0.0,19.20895004272461,28.704612731933594,-9.266826629638672,20550.232421875,16650.0,14516.3095703125,16644.388671875,-18664,2.214036703109741,-2.1141605377197266,1.1679112911224365,2402,-2561
71341.875,0.00020803906954824924,-0.0003466599737294018,1.0,0.09432297945022583,0.0370737724006176,1.0123039484024048,37475.86328125,5.415528297424316,2.6699414253234863,0.0,19.06462860107422,27.029876708984375,-11.5758638381958,21276.33984375,16650.0,13692.6650390625,16637.046875,6664,2.2380900382995605,-1.835038185119629,1.1806553602218628,3441,-1401
71343.916,0.0002783925738185644,-0.00046348728938028216,1.0,0.09432297945022583,0.0370737724006176,1.0123039484024048,37384.9140625,5.3589372634887695,2.7356245517730713,0.0,18.725082397460938,27.423974990844727,-9.348012924194336,21330.6953125,16650.0,15389.57421875,16629.275390625,-11098,2.2380900382995605,-1.835038185119629,1.1806553602218628,4811,-4286
71345.835,0.0002783925738185644,-0.00046348728938028216,1.0,0.09464894235134125,0.03699295222759247,1.0123176574707031,37384.9140625,5.3589372634887695,2.7356245517730713,0.0,18.725082397460938,27.423974990844727,-9.350374221801758,21043.609375,16650.0,15011.7392578125,16620.654296875,-3066,2.2380900382995605,-1.835038185119629,1.1806553602218628,4601,-2943
71347.814,0.0002783925738185644,-0.00046348728938028216,1.0,0.09464894235134125,0.03699295222759247,1.0123176574707031,37384.9140625,5.3589372634887695,2.7356245517730713,0.0,18.63105583190918,27.404483795166016,-9.621284484863281,21244.68359375,16650.0,15501.5849609375,16611.990234375,-11742,2.2537612915039062,-1.8317893743515015,1.1821390390396118,4926,-2587
71349.835,0.0002783925738185644,-0.00046348728938028216,1.0,0.09464894235134125,0.03699295222759247,1.0123176574707031,37384.9140625,5.3589372634887695,2.7356245517730713,0.0,18.63105583190918,27.404483795166016,-9.364006042480469,21884.927734375,16650.0,15769.8779296875,16603.658203125,-24153,2.2537612915039062,-1.8317893743515015,1.1821390390396118,5601,-2438
71351.769,0.0002783925738185644,-0.00046348728938028216,1.0,0.09501402080059052,0.03691796585917473,1.0125669240951538,37384.9140625,5.3589372634887695,2.7356245517730713,0.0,19.168434143066406,25.286121368408203,-9.903337478637695,22571.275390625,16650.0,13881.8203125,16593.099609375,-32062,2.164198398590088,-1.478729248046875,1.1851056814193726,5873,-2194
71353.809,0.00036514404928311706,-0.0006070971139706671,1.0,0.09501402080059052,0.03691796585917473,1.0125669240951538,37357.07421875,5.297684192657471,2.7903265953063965,0.0,18.7557373046875,25.59008026123047,-9.529450416564941,22084.67578125,16650.0,16021.4912109375,16583.55078125,29280,2.1717281341552734,-1.474686622619629,1.1858952045440674,6217,-2477
71355.733,0.00036514404928311706,-0.0006070971139706671,1.0,0.09501402080059052,0.03691796585917473,1.0125669240951538,37357.07421875,5.297684192657471,2.7903265953063965,0.0,18.7557373046875,25.59008026123047,-9.393655776977539,21591.67578125,16650.0,16107.4638671875,16574.97265625,11426,2.1717281341552734,-1.474686622619629,1.1858952045440674,7392,-1265
71357.718,0.00036514404928311706,-0.0006070971139706671,1.0,0.09501402080059052,0.03691796585917473,1.0125669240951538,37357.07421875,5.297684192657471,2.7903265953063965,0.0,18.7557373046875,25.59008026123047,-9.396027565002441,21417.064453125,16650.0,16188.82421875,16567.318359375,-27417,2.1717281341552734,-1.474686622619629,1.1858952045440674,5814,-2107
71359.734,0.00036514404928311706,-0.0006070971139706671,1.0,0.09538259357213974,0.03676484525203705,1.012604832649231,37357.07421875,5.297684192657471,2.7903265953063965,0.0,18.7152042388916,25.563709259033203,-9.554014205932617,21789.279296875,16650.0,16492.169921875,16560.84765625,-29341,2.178483486175537,-1.4702914953231812,1.1867549419403076,5797,-2727
71361.664,0.00036514404928311706,-0.0006070971139706671,1.0,0.09569734334945679,0.03661172837018967,1.0123264789581299,37357.07421875,5.297684192657471,2.7903265953063965,0.0,19.726884841918945,23.497621536254883,-8.906509399414062,22782.669921875,16650.0,15275.896484375,16553.751953125,5273,2.0098700523376465,-1.125943660736084,1.1839957237243652,5355,-1157
71363.711,0.0004705302999354899,-0.00078095548087731,1.0,0.09569734334945679,0.03661172837018967,1.0123264789581299,37433.2734375,5.254209995269775,2.8261044025421143,0.0,19.4212589263916,23.681976318359375,-9.472978591918945,21805.630859375,16650.0,16998.345703125,16548.439453125,4712,2.017333507537842,-1.120891809463501,1.184444546699524,7150,-2619
71365.623,0.0004705302999354899,-0.00078095548087731,1.0,0.09569734334945679,0.03661172837018967,1.0123264789581299,37433.2734375,5.254209995269775,2.8261044025421143,0.0,19.4212589263916,23.681976318359375,-9.39680290222168,21164.095703125,16650.0,17505.515625,16545.291015625,-3772,2.017333507537842,-1.120891809463501,1.184444546699524,9983,-905
71367.604,0.0004705302999354899,-0.00078095548087731,1.0,0.0957985669374466,0.03657218813896179,1.0124833583831787,37433.2734375,5.254209995269775,2.8261044025421143,0.0,19.4212589263916,23.681976318359375,-9.399171829223633,20647.50390625,16650.0,17888.421875,16544.4609375,-20178,2.017333507537842,-1.120891809463501,1.184444546699524,6987,-1419
71369.623,0.0004705302999354899,-0.00078095548087731,1.0,0.0957985669374466,0.03657218813896179,1.0124833583831787,37433.2734375,5.254209995269775,2.8261044025421143,0.0,19.4212589263916,23.681976318359375,-9.401540756225586,20378.78515625,16650.0,17568.1953125,16545.130859375,-16737,2.017333507537842,-1.120891809463501,1.184444546699524,7009,-388
71371.564,0.0004705302999354899,-0.00078095548087731,1.0,0.0957985669374466,0.03657218813896179,1.0124833583831787,37433.2734375,5.254209995269775,2.8261044025421143,0.0,20.588043212890625,22.01819610595703,-7.9626665115356445,21095.76171875,16650.0,16712.2265625,16545.9140625,-22278,1.8228694200515747,-0.8435946702957153,1.1764819622039795,7204,-2386
71373.595,0.000596869271248579,-0.0009885820327326655,1.0,0.0958993136882782,0.036541834473609924,1.012230634689331,37509.0390625,5.19368314743042,2.871387481689453,0.0,20.224884033203125,22.289892196655273,-9.358470916748047,20389.77734375,16650.0,18814.15625,16549.583984375,22658,1.8228694200515747,-0.8435946702957153,1.1764819622039795,5603,-1217
71375.516,0.000596869271248579,-0.0009885820327326655,1.0,0.0958993136882782,0.036541834473609924,1.012230634689331,37509.0390625,5.19368314743042,2.871387481689453,0.0,20.224884033203125,22.289892196655273,-9.360824584960938,20395.2421875,16650.0,19148.423828125,16556.099609375,-320,1.8228694200515747,-0.8435946702957153,1.1764819622039795,6386,-3749
71377.503,0.000596869271248579,-0.0009885820327326655,1.0,0.0958993136882782,0.036541834473609924,1.012230634689331,37509.0390625,5.19368314743042,2.871387481689453,0.0,20.224884033203125,22.289892196655273,-9.363177299499512,19680.654296875,16650.0,20169.361328125,16566.33203125,30636,1.8228694200515747,-0.8435946702957153,1.1764819622039795,6230,-2686
71379.519,0.000596869271248579,-0.0009885820327326655,1.0,0.09610019624233246,0.036507438868284225,1.0122367143630981,37509.0390625,5.19368314743042,2.871387481689453,0.0,20.224884033203125,22.289892196655273,-9.365530014038086,19651.974609375,16650.0,20840.982421875,16580.5390625,31339,1.8228694200515747,-0.8435946702957153,1.1764819622039795,6435,-1007
71381.455,0.000596869271248579,-0.0009885820327326655,1.0,0.09610019624233246,0.036507438868284225,1.0122367143630981,37509.0390625,5.19368314743042,2.871387481689453,0.0,21.084964752197266,21.293781280517578,-7.937191009521484,20183.40234375,16650.0,20007.80078125,16596.927734375,-19590,1.6795226335525513,-0.6775760054588318,1.1685776710510254,8287,568
71383.504,0.0007468985859304667,-0.0012344126589596272,1.0,0.09610019624233246,0.036507438868284225,1.0122367143630981,37508.18359375,5.1692986488342285,2.8871212005615234,0.0,20.938655853271484,21.38818359375,-9.322778701782227,18624.5390625,16650.0,20542.78515625,16615.8203125,-12504,1.6795226335525513,-0.6775760054588318,1.1685776710510254,5523,2889
71385.411,0.0007468985859304667,-0.0012344126589596272,1.0,0.09629949927330017,0.03645883873105049,1.0122661590576172,37508.18359375,5.1692986488342285,2.8871212005615234,0.0,20.938655853271484,21.38818359375,-9.325116157531738,18352.42578125,16650.0,21165.40625,16637.6015625,-17382,1.6795226335525513,-0.6775760054588318,1.1685776710510254,3666,457
71387.4,0.0007468985859304667,-0.0012344126589596272,1.0,0.09629949927330017,0.03645883873105049,1.0122661590576172,37508.18359375,5.1692986488342285,2.8871212005615234,0.0,20.938655853271484,21.38818359375,-9.32745361328125,18630.892578125,16650.0,21857.2421875,16650.0,25802,1.6795226335525513,-0.6775760054588318,1.1685776710510254,3892,2674
71389.425,0.0007468985859304667,-0.0012344126589596272,1.0,0.0966111272573471,0.03639259189367294,1.012283444404602,37508.18359375,5.1692986488342285,2.8871212005615234,0.0,20.938655853271484,21.38818359375,-9.329790115356445,18160.365234375,16650.0,22251.46875,16650.0,1092,1.6795226335525513,-0.6775760054588318,1.1685776710510254,3192,3356
71391.362,0.0007468985859304667,-0.0012344126589596272,1.0,0.0966111272573471,0.03639259189367294,1.012283444404602,37508.18359375,5.1692986488342285,2.8871212005615234,0.0,21.31653594970703,21.339550018310547,-7.810336589813232,17432.099609375,16650.0,22761.40234375,16650.0,5835,1.6165425777435303,-0.6694703102111816,1.160170078277588,2311,2634
71393.394,0.0009229094139300287,-0.0015219210181385279,1.0,0.0966111272573471,0.03639259189367294,1.012283444404602,37533.5859375,5.146071910858154,2.8956151008605957,0.0,21.177175521850586,21.390512466430664,-9.283985137939453,16585.556640625,16650.0,23068.37109375,16650.0,-17670,1.6165425777435303,-0.6694703102111816,1.160170078277588,-470,5939
71395.305,0.0009229094139300287,-0.0015219210181385279,1.0,0.096666119992733,0.03641999512910843,1.0121963024139404,37533.5859375,5.146071910858154,2.8956151008605957,0.0,21.177175521850586,21.390512466430664,-9.286306381225586,17001.66015625,16650.0,23715.79296875,16650.0,-21058,1.6165425777435303,-0.6694703102111816,1.160170078277588,2686,4222
71397.298,0.0009229094139300287,-0.0015219210181385279,1.0,0.096666119992733,0.03641999512910843,1.0121963024139404,37533.5859375,5.146071910858154,2.8956151008605957,0.0,21.177175521850586,21.390512466430664,-9.288625717163086,17312.560546875,16650.0,24249.478515625,16650.0,31444,1.6165425777435303,-0.6694703102111816,1.160170078277588,2146,5312
71399.317,0.0009229094139300287,-0.0015219210181385279,1.0,0.096666119992733,0.03641999512910843,1.0121963024139404,37533.5859375,5.146071910858154,2.8956151008605957,0.0,21.177175521850586,21.390512466430664,-9.290946960449219,16992.828125,16650.0,23933.458984375,16650.0,30928,1.6165425777435303,-0.6694703102111816,1.160170078277588,1959,6506
71401.243,0.0009229094139300287,-0.0015219210181385279,1.0,0.09683753550052643,0.036363568156957626,1.0121235847473145,37533.5859375,5.146071910858154,2.8956151008605957,0.0,20.883045196533203,22.27029800415039,-6.892359733581543,16482.630859375,16650.0,24757.6875,16650.0,3745,1.6655645370483398,-0.8161010146141052,1.146905541419983,955,4435
71403.29,0.0011278537567704916,-0.0018553179688751698,1.0,0.09683753550052643,0.036363568156957626,1.0121235847473145,37574.25,5.127817153930664,2.90696382522583,0.0,20.773515701293945,22.338390350341797,-9.215947151184082,15991.06640625,16650.0,24555.67578125,16650.0,6028,1.6655645370483398,-0.8161010146141052,1.146905541419983,345,8146
71405.209,0.0011278537567704916,-0.0018553179688751698,1.0,0.09714709967374802,0.03634262830018997,1.012296199798584,37574.25,5.127817153930664,2.90696382522583,0.0,20.773515701293945,22.338390350341797,-9.218240737915039,15084.6162109375,16650.0,24475.013671875,16650.0,-20850,1.6655645370483398,-0.8161010146141052,1.146905541419983,277,7073
71407.18,0.0011278537567704916,-0.0018553179688751698,1.0,0.09714709967374802,0.03634262830018997,1.012296199798584,37574.25,5.127817153930664,2.90696382522583,0.0,20.773515701293945,22.338390350341797,-9.220535278320312,15660.767578125,16650.0,24552.96484375,16650.0,23498,1.6655645370483398,-0.8161010146141052,1.146905541419983,-132,7178
71409.201,0.0011278537567704916,-0.0018553179688751698,1.0,0.09714709967374802,0.03634262830018997,1.012296199798584,37574.25,5.127817153930664,2.90696382522583,0.0,20.773515701293945,22.338390350341797,-9.22282886505127,16189.765625,16650.0,24287.8671875,16650.0,-13374,1.6655645370483398,-0.8161010146141052,1.146905541419983,-1035,8253
71411.138,0.0011278537567704916,-0.0018553179688751698,1.0,0.09741078317165375,0.03630801662802696,1.0120474100112915,37574.25,5.127817153930664,2.90696382522583,0.0,19.860488891601562,24.052831649780273,-5.566462516784668,15593.1552734375,16649.0859375,25856.505859375,16650.0,27220,1.8177356719970703,-1.1018412113189697,1.1266921758651733,-2488,8275
71413.198,0.0013650929322466254,-0.0022393635008484125,1.0,0.09741078317165375,0.03630801662802696,1.0120474100112915,37619.9453125,5.116012096405029,2.9275929927825928,0.0,19.789657592773438,24.176605224609375,-9.106054306030273,16588.025390625,16648.244140625,25513.5546875,16650.0,-4443,1.8177356719970703,-1.1018412113189697,1.1266921758651733,-2955,7955
71415.096,0.0013650929322466254,-0.0022393635008484125,1.0,0.09741078317165375,0.03630801662802696,1.0120474100112915,37619.9453125,5.116012096405029,2.9275929927825928,0.0,19.789657592773438,24.176605224609375,-9.108307838439941,15791.6630859375,16646.404296875,24371.48046875,16650.0,20363,1.8177356719970703,-1.1018412113189697,1.1266921758651733,-1120,6627
71417.077,0.0013650929322466254,-0.0022393635008484125,1.0,0.09762857854366302,0.03632129728794098,1.0120031833648682,37619.9453125,5.116012096405029,2.9275929927825928,0.0,19.789657592773438,24.176605224609375,-9.11056137084961,15028.7138671875,16642.71875,23007.564453125,16650.0,-6341,1.8177356719970703,-1.1018412113189697,1.1266921758651733,-10,8830
71419.14,0.0013650929322466254,-0.0022393635008484125,1.0,0.09762857854366302,0.03632129728794098,1.0120031833648682,37619.9453125,5.116012096405029,2.9275929927825928,0.0,19.789657592773438,24.176605224609375,-9.112813949584961,15369.4921875,16637.95703125,23161.03515625,16650.0,-5450,1.8177356719970703,-1.1018412113189697,1.1266921758651733,-2678,7887
71421.04,0.0013650929322466254,-0.0022393635008484125,1.0,0.09762857854366302,0.03632129728794098,1.0120031833648682,37619.9453125,5.116012096405029,2.9275929927825928,0.0,18.492454528808594,26.28634262084961,-4.970880508422852,14933.45703125,16631.72265625,25511.0703125,16650.0,12738,2.0339362621307373,-1.453464388847351,1.103796362876892,-2961,6348
71423.079,0.0016363105969503522,-0.002676506992429495,1.0,0.09774075448513031,0.03630019351840019,1.0120553970336914,37640.6171875,5.05788516998291,2.987550735473633,0.0,18.143693923950195,26.64609146118164,-8.979854583740234,15957.7568359375,16625.638671875,24638.30859375,16650.0,29357,2.0339362621307373,-1.453464388847351,1.103796362876892,-789,7238
71424.99,0.0016363105969503522,-0.002676506992429495,1.0,0.09774075448513031,0.03630019351840019,1.0120553970336914,37640.6171875,5.05788516998291,2.987550735473633,0.0,18.185604095458984,26.611135482788086,-9.171595573425293,16495.595703125,16620.40234375,23743.39453125,16650.0,-13106,2.026951313018799,-1.4476385116577148,1.1048434972763062,-2850,6684
71426.981,0.0016363105969503522,-0.002676506992429495,1.0,0.09774075448513031,0.03630019351840019,1.0120553970336914,37640.6171875,5.05788516998291,2.987550735473633,0.0,18.185604095458984,26.611135482788086,-8.990556716918945,16322.4375,16615.646484375,22608.26953125,16650.0,-7282,2.026951313018799,-1.4476385116577148,1.1048434972763062,-2197,8006
71428.998,0.0016363105969503522,-0.002676506992429495,1.0,0.0979514867067337,0.03633720427751541,1.0123112201690674,37640.6171875,5.05788516998291,2.987550735473633,0.0,18.185604095458984,26.611135482788086,-8.992766380310059,17309.365234375,16612.611328125,22728.419921875,16650.0,23382,2.026951313018799,-1.4476385116577148,1.1048434972763062,-3280,6659
71430.934,0.0016363105969503522,-0.002676506992429495,1.0,0.0979514867067337,0.03633720427751541,1.0123112201690674,37640.6171875,5.05788516998291,2.987550735473633,0.0,16.765899658203125,28.578235626220703,-5.933852195739746,16749.65625,16610.26953125,24272.658203125,16650.0,16068,2.26356840133667,-1.775488257408142,1.0879313945770264,-2310,6574
71432.993,0.0019454607972875237,-0.003173734061419964,1.0,0.0979514867067337,0.03633720427751541,1.0123112201690674,37624.5546875,5.025677680969238,3.044085741043091,0.0,16.572654724121094,28.917442321777344,-8.895645141601562,16790.73828125,16608.560546875,22242.794921875,16650.0,-27841,2.26356840133667,-1.775488257408142,1.0879313945770264,-2263,8507
71434.882,0.0019454607972875237,-0.003173734061419964,1.0,0.09801922738552094,0.03633344545960426,1.0122480392456055,37624.5546875,5.025677680969238,3.044085741043091,0.0,16.572654724121094,28.917442321777344,-8.897821426391602,17017.146484375,16607.68359375,21539.90625,16650.0,-2151,2.26356840133667,-1.775488257408142,1.0879313945770264,-2117,7058
71436.865,0.0019454607972875237,-0.003173734061419964,1.0,0.09801922738552094,0.03633344545960426,1.0122480392456055,37624.5546875,5.025677680969238,3.044085741043091,0.0,16.604022979736328,28.8826961517334,-9.056344985961914,17766.779296875,16608.49609375,21235.7109375,16650.0,-29116,2.25834059715271,-1.7696971893310547,1.0887951850891113,-756,5418
71438.905,0.0019454607972875237,-0.003173734061419964,1.0,0.09812547266483307,0.036272577941417694,1.0122987031936646,37624.5546875,5.025677680969238,3.044085741043091,0.0,16.604022979736328,28.8826961517334,-8.90735912322998,18332.25,16611.466796875,21439.70703125,16650.0,-14250,2.25834059715271,-1.7696971893310547,1.0887951850891113,-1004,6837
71440.82,0.0019454607972875237,-0.003173734061419964,1.0,0.09812547266483307,0.036272577941417694,1.0122987031936646,37624.5546875,5.025677680969238,3.044085741043091,0.0,16.604022979736328,28.8826961517334,-8.909536361694336,19428.544921875,16617.69140625,21526.34765625,16650.0,19442,2.25834059715271,-1.7696971893310547,1.0887951850891113,-330,6455
71442.896,0.0022941401693969965,-0.0037332247011363506,1.0,0.09812547266483307,0.036272577941417694,1.0122987031936646,37612.94921875,4.982481002807617,3.1142454147338867,0.0,15.31834602355957,30.750097274780273,-6.737172603607178,18846.53125,16625.83984375,21655.5078125,16650.0,-6249,2.4294233322143555,-2.010770559310913,1.0767812728881836,551,7382
71444.781,0.0022941401693969965,-0.0037332247011363506,1.0,0.09833404421806335,0.03623763844370842,1.0126205682754517,37612.94921875,4.982481002807617,3.1142454147338867,0.0,15.31834602355957,30.750097274780273,-8.841760635375977,19970.6015625,16637.07421875,19534.6328125,16650.0,-30978,2.4294233322143555,-2.010770559310913,1.0767812728881836,462,6260
71446.757,0.0022941401693969965,-0.0037332247011363506,1.0,0.09833404421806335,0.03623763844370842,1.0126205682754517,37612.94921875,4.982481002807617,3.1142454147338867,0.0,15.31834602355957,30.750097274780273,-8.843914031982422,20474.0625,16650.0,19470.71875,16650.0,19290,2.4294233322143555,-2.010770559310913,1.0767812728881836,2198,4601
71448.786,0.0022941401693969965,-0.0037332247011363506,1.0,0.09833404421806335,0.03623763844370842,1.0126205682754517,37612.94921875,4.982481002807617,3.1142454147338867,0.0,15.31834602355957,30.750097274780273,-8.846067428588867,19940.384765625,16650.0,19102.8515625,16650.0,9948,2.4294233322143555,-2.010770559310913,1.0767812728881836,1373,3803
71450.742,0.0022941401693969965,-0.0037332247011363506,1.0,0.09832729399204254,0.03623555600643158,1.012366771697998,37612.94921875,4.982481002807617,3.1142454147338867,0.0,14.92772102355957,31.543413162231445,-7.320518493652344,20353.80078125,16650.0,19810.587890625,16650.0,-22104,2.494527578353882,-2.1429898738861084,1.0683410167694092,2201,4271
71452.765,0.0026870216242969036,-0.004362151026725769,1.0,0.09832729399204254,0.03623555600643158,1.012366771697998,37616.96484375,4.919898509979248,3.1985902786254883,0.0,14.581001281738281,32.01005935668945,-8.976049423217773,21233.33203125,16650.0,19118.642578125,16650.0,-674,2.489731550216675,-2.1364197731018066,1.0693153142929077,2608,2709
71454.69,0.0026870216242969036,-0.004362151026725769,1.0,0.09832729399204254,0.03623555600643158,1.012366771697998,37616.96484375,4.919898509979248,3.1985902786254883,0.0,14.581001281738281,32.01005935668945,-8.807685852050781,20450.04296875,16650.0,17190.779296875,16650.0,-28914,2.489731550216675,-2.1364197731018066,1.0693153142929077,5120,3807
71456.669,0.0026870216242969036,-0.004362151026725769,1.0,0.09851551055908203,0.03625786677002907,1.0126408338546753,37616.96484375,4.919898509979248,3.1985902786254883,0.0,14.581001281738281,32.01005935668945,-8.809823989868164,20600.298828125,16650.0,16969.6171875,16650.0,-8900,2.489731550216675,-2.1364197731018066,1.0693153142929077,3367,3843
71458.683,0.0026870216242969036,-0.004362151026725769,1.0,0.09851551055908203,0.03625786677002907,1.0126408338546753,37616.96484375,4.919898509979248,3.1985902786254883,0.0,14.599860191345215,31.974580764770508,-9.028338432312012,21474.76953125,16650.0,17267.544921875,16650.0,17407,2.486588478088379,-2.1305065155029297,1.070510745048523,4750,2745
71460.622,0.0026870216242969036,-0.004362151026725769,1.0,0.09869494289159775,0.03630310297012329,1.0125341415405273,37616.96484375,4.919898509979248,3.1985902786254883,0.0,14.995199203491211,31.821578979492188,-7.188473701477051,22239.447265625,16650.0,17148.865234375,16650.0,12146,2.420698642730713,-2.105006217956543,1.0614898204803467,4258,497
71462.676,0.0031260442920029163,-0.005062606651335955,1.0,0.09869494289159775,0.03630310297012329,1.0125341415405273,37609.28125,4.81805419921875,3.3176565170288086,0.0,14.384133338928223,32.53597640991211,-8.769258499145508,22192.23046875,16650.0,17741.15625,16650.0,-6675,2.420698642730713,-2.105006217956543,1.0614898204803467,3868,402
71464.577,0.0031260442920029163,-0.005062606651335955,1.0,0.09869494289159775,0.03630310297012329,1.0125341415405273,37609.28125,4.81805419921875,3.3176565170288086,0.0,14.395612716674805,32.498435974121094,-9.045777320861816,22338.0,16650.0,16781.96484375,16650.0,-12580,2.418785333633423,-2.0987496376037598,1.063005805015564,4820,-1398
71466.558,0.0031260442920029163,-0.005062606651335955,1.0,0.09885447472333908,0.03637275472283363,1.0127465724945068,37609.28125,4.81805419921875,3.3176565170288086,0.0,14.395612716674805,32.498435974121094,-8.78260612487793,21672.50390625,16650.0,15775.5390625,16650.0,4354,2.418785333633423,-2.0987496376037598,1.063005805015564,7708,2045
71468.572,0.0031260442920029163,-0.005062606651335955,1.0,0.09885447472333908,0.03637275472283363,1.0127465724945068,37609.28125,4.81805419921875,3.3176565170288086,0.0,14.419930458068848,32.459228515625,-8.99346923828125,21959.33203125,16650.0,15332.958984375,16650.0,-5010,2.4147324562072754,-2.092214345932007,1.0641590356826782,6571,1307
71470.514,0.0031260442920029163,-0.005062606651335955,1.0,0.09885447472333908,0.03637275472283363,1.0127465724945068,37609.28125,4.81805419921875,3.3176565170288086,0.0,15.481842041015625,31.391864776611328,-6.940372467041016,23016.2265625,16650.0,14684.8349609375,16650.0,-29222,2.2377471923828125,-1.914320707321167,1.0539193153381348,6025,-1167
71472.56,0.0036157395225018263,-0.005841413047164679,1.0,0.0990309789776802,0.03642662242054939,1.0127254724502563,37560.26171875,4.747549057006836,3.4183273315429688,0.0,15.05881118774414,31.99588966369629,-8.734431266784668,22537.60546875,16650.0,16478.294921875,16650.0,26710,2.2377471923828125,-1.914320707321167,1.0539193153381348,7412,-84
71474.492,0.0036157395225018263,-0.005841413047164679,1.0,0.0990309789776802,0.03642662242054939,1.0127254724502563,37560.26171875,4.747549057006836,3.4183273315429688,0.0,15.086760520935059,31.955629348754883,-8.910860061645508,22653.41796875,16650.0,16324.58203125,16650.0,-5979,2.233088970184326,-1.9076108932495117,1.0548824071884155,6957,-1025
71476.457,0.0036157395225018263,-0.005841413047164679,1.0,0.09908706694841385,0.03639586269855499,1.012718915939331,37560.26171875,4.747549057006836,3.4183273315429688,0.0,15.086760520935059,31.955629348754883,-8.744428634643555,22029.0390625,16650.0,15530.53125,16649.615234375,14333,2.233088970184326,-1.9076108932495117,1.0548824071884155,7115,-443
71478.473,0.0036157395225018263,-0.005841413047164679,1.0,0.09908706694841385,0.03639586269855499,1.012718915939331,37560.26171875,4.747549057006836,3.4183273315429688,0.0,15.123611450195312,31.912792205810547,-8.960648536682129,22282.578125,16650.0,15435.390625,16647.677734375,-16948,2.226947069168091,-1.9004712104797363,1.056065320968628,8520,588
71480.41,0.0036157395225018263,-0.005841413047164679,1.0,0.09908706694841385,0.03639586269855499,1.012718915939331,37560.26171875,4.747549057006836,3.4183273315429688,0.0,16.62906265258789,30.11693000793457,-7.130368232727051,23917.369140625,16650.0,14824.947265625,16643.638671875,7779,1.9760383367538452,-1.6011608839035034,1.0470854043960571,8246,1131
71482.471,0.004159559030085802,-0.006703629624098539,1.0,0.0992078185081482,0.036449581384658813,1.0125927925109863,37492.19921875,4.685979843139648,3.5160460472106934,0.0,16.259647369384766,30.703243255615234,-8.703948020935059,21999.01171875,16650.0,16534.3515625,16640.130859375,3822,1.9760383367538452,-1.6011608839035034,1.0470854043960571,7912,768
71484.371,0.004159559030085802,-0.006703629624098539,1.0,0.0992078185081482,0.036449581384658813,1.0125927925109863,37492.19921875,4.685979843139648,3.5160460472106934,0.0,16.259647369384766,30.703243255615234,-8.706042289733887,22325.06640625,16650.0,15916.0654296875,16636.248046875,25616,1.9760383367538452,-1.6011608839035034,1.0470854043960571,7378,-268
71486.344,0.004159559030085802,-0.006703629624098539,1.0,0.0992078185081482,0.036449581384658813,1.0125927925109863,37492.19921875,4.685979843139648,3.5160460472106934,0.0,16.317012786865234,30.659900665283203,-8.813109397888184,22052.607421875,16650.0,15730.3203125,16631.80859375,28169,1.9664777517318726,-1.5939371585845947,1.0476653575897217,7330,-558
71488.37,0.004159559030085802,-0.006703629624098539,1.0,0.09944213181734085,0.036502182483673096,1.0128378868103027,37492.19921875,4.685979843139648,3.5160460472106934,0.0,16.317012786865234,30.659900665283203,-8.713712692260742,20652.0078125,16650.0,15873.876953125,16627.107421875,-8113,1.9664777517318726,-1.5939371585845947,1.0476653575897217,7981,-1460
71490.302,0.004159559030085802,-0.006703629624098539,1.0,0.09944213181734085,0.036502182483673096,1.0128378868103027,37492.19921875,4.685979843139648,3.5160460472106934,0.0,16.317012786865234,30.659900665283203,-8.715807914733887,19889.0234375,16650.0,16122.283203125,16622.521484375,-416,1.9664777517318726,-1.5939371585845947,1.0476653575897217,7740,-1183
71492.356,0.0047585563734173775,-0.00764844287186861,1.0,0.09944213181734085,0.036502182483673096,1.0128378868103027,37473.90625,4.6422858238220215,3.602625846862793,0.0,17.78152847290039,29.070632934570312,-6.306703567504883,20686.599609375,16650.0,14626.97265625,16616.048828125,-28674,1.6786977052688599,-1.2424798011779785,1.034343957901001,7621,-9
71494.285,0.0047585563734173775,-0.00764844287186861,1.0,0.0993926078081131,0.03649170696735382,1.0124914646148682,37473.90625,4.6422858238220215,3.602625846862793,0.0,17.78152847290039,29.070632934570312,-8.640016555786133,20364.654296875,16650.0,15874.6201171875,16609.673828125,29569,1.6786977052688599,-1.2424798011779785,1.034343957901001,6956,-1874
71496.235,0.0047585563734173775,-0.00764844287186861,1.0,0.0993926078081131,0.03649170696735382,1.0124914646148682,37473.90625,4.6422858238220215,3.602625846862793,0.0,17.78152847290039,29.070632934570312,-8.642086029052734,20354.71484375,16650.0,16437.833984375,16604.140625,-7452,1.6786977052688599,-1.2424798011779785,1.034343957901001,6473,-888
71498.263,0.0047585563734173775,-0.00764844287186861,1.0,0.0993926078081131,0.03649170696735382,1.0124914646148682,37473.90625,4.6422858238220215,3.602625846862793,0.0,17.763076782226562,29.034622192382812,-8.844303131103516,19287.5546875,16650.0,16613.087890625,16599.548828125,4762,1.681773066520691,-1.2364779710769653,1.035449743270874,5785,-2793
71500.195,0.0047585563734173775,-0.00764844287186861,1.0,0.09943622350692749,0.036604978144168854,1.0125263929367065,37473.90625,4.6422858238220215,3.602625846862793,0.0,19.017621994018555,26.921401977539062,-5.5469651222229,20038.037109375,16650.0,15574.8173828125,16594.359375,19610,1.472682237625122,-0.8842743039131165,1.0182902812957764,5044,-3953
71502.235,0.005417974665760994,-0.008683670312166214,1.0,0.09943622350692749,0.036604978144168854,1.0125263929367065,37519.00390625,4.55338716506958,3.7037761211395264,0.0,18.484230041503906,27.528301239013672,-8.551907539367676,18925.771484375,16650.0,17716.994140625,16591.537109375,15220,1.472682237625122,-0.8842743039131165,1.0182902812957764,6665,-1805
71504.16,0.005417974665760994,-0.008683670312166214,1.0,0.09943622350692749,0.036604978144168854,1.0125263929367065,37519.00390625,4.55338716506958,3.7037761211395264,0.0,18.47348403930664,27.489727020263672,-8.600118637084961,17730.4609375,16650.0,16640.32421875,16589.25390625,2916,1.474473237991333,-0.8778448700904846,1.018545389175415,5601,-2516
71506.153,0.005417974665760994,-0.008683670312166214,1.0,0.09951390326023102,0.036704402416944504,1.0124627351760864,37519.00390625,4.55338716506958,3.7037761211395264,0.0,18.47348403930664,27.489727020263672,-8.557512283325195,16266.8994140625,16650.0,16505.693359375,16587.2421875,-26864,1.474473237991333,-0.8778448700904846,1.018545389175415,5092,200
71508.152,0.005417974665760994,-0.008683670312166214,1.0,0.09951390326023102,0.036704402416944504,1.0124627351760864,37519.00390625,4.55338716506958,3.7037761211395264,0.0,18.46127700805664,27.45406723022461,-8.680855751037598,16421.677734375,16650.0,17808.15625,16587.1953125,-24112,1.4765076637268066,-0.8719015121459961,1.0192155838012695,3525,206
71510.092,0.005417974665760994,-0.008683670312166214,1.0,0.09965100139379501,0.0368037186563015,1.012647271156311,37519.00390625,4.55338716506958,3.7037761211395264,0.0,19.025432586669922,25.60445785522461,-5.336551189422607,17557.59375,16650.0,17226.0390625,16588.005859375,22997,1.3824818134307861,-0.5636338591575623,1.001375675201416,3598,-65
71512.137,0.006142580881714821,-0.009816853329539299,1.0,0.09965100139379501,0.0368037186563015,1.012647271156311,37532.015625,4.524338245391846,3.7512264251708984,0.0,18.8370361328125,25.85489273071289,-8.60708999633789,17132.44140625,16650.0,18492.3359375,16591.21484375,10431,1.3848321437835693,-0.5579225420951843,1.002185344696045,2617,-2592
71514.07,0.006142580881714821,-0.009816853329539299,1.0,0.09965100139379501,0.0368037186563015,1.012647271156311,37532.015625,4.524338245391846,3.7512264251708984,0.0,18.8370361328125,25.85489273071289,-8.467401504516602,17032.939453125,16650.0,18900.666015625,16596.962890625,-32206,1.3848321437835693,-0.5579225420951843,1.002185344696045,1548,-1854
71516.031,0.006142580881714821,-0.009816853329539299,1.0,0.09971798211336136,0.03685031831264496,1.0125792026519775,37532.015625,4.524338245391846,3.7512264251708984,0.0,18.8370361328125,25.85489273071289,-8.469406127929688,16271.607421875,16650.0,19184.01953125,16605.1875,17430,1.3848321437835693,-0.5579225420951843,1.002185344696045,-1801,-1614
71518.05,0.006142580881714821,-0.009816853329539299,1.0,0.09971798211336136,0.03685031831264496,1.0125792026519775,37532.015625,4.524338245391846,3.7512264251708984,0.0,18.83299446105957,25.818889617919922,-8.58104419708252,14950.20703125,16650.0,19492.046875,16615.87890625,-24507,1.3855059146881104,-0.5519219636917114,1.0027910470962524,-146,-1756
71519.981,0.006142580881714821,-0.009816853329539299,1.0,0.09971798211336136,0.03685031831264496,1.0125792026519775,37532.015625,4.524338245391846,3.7512264251708984,0.0,18.495845794677734,24.502140045166016,-6.087558269500732,14570.5087890625,16650.0,18736.44921875,16627.599609375,-27681,1.441697359085083,-0.33246394991874695,0.9895895719528198,-1389,-755
71522.021,0.0069324248470366,-0.011048709973692894,1.0,0.09977412968873978,0.03690255805850029,1.0125703811645508,37578.2578125,4.442752361297607,3.8349876403808594,0.0,18.006330490112305,25.00470733642578,-8.399795532226562,15033.939453125,16649.490234375,20078.93359375,16641.951171875,-14152,1.441697359085083,-0.33246394991874695,0.9895895719528198,125,143
71523.94,0.0069324248470366,-0.011048709973692894,1.0,0.09977412968873978,0.03690255805850029,1.0125703811645508,37578.2578125,4.442752361297607,3.8349876403808594,0.0,18.018220901489258,24.970020294189453,-8.514871597290039,15451.9267578125,16647.47265625,20404.361328125,16650.0,10297,1.4397156238555908,-0.3266827464103699,0.9902144074440002,358,-882
71525.929,0.0069324248470366,-0.011048709973692894,1.0,0.09977412968873978,0.03690255805850029,1.0125703811645508,37578.2578125,4.442752361297607,3.8349876403808594,0.0,18.018220901489258,24.970020294189453,-8.407505989074707,14822.728515625,16643.361328125,20978.365234375,16650.0,-21294,1.4397156238555908,-0.3266827464103699,0.9902144074440002,-1082,-86
71527.94,0.0069324248470366,-0.011048709973692894,1.0,0.09981873631477356,0.03701620548963547,1.0126873254776,37578.2578125,4.442752361297607,3.8349876403808594,0.0,18.018220901489258,24.970020294189453,-8.409486770629883,14220.25390625,16636.71484375,20599.43359375,16650.0,30616,1.4397156238555908,-0.3266827464103699,0.9902144074440002,-1735,1178
71529.874,0.0069324248470366,-0.011048709973692894,1.0,0.09981873631477356,0.03701620548963547,1.0126873254776,37578.2578125,4.442752361297607,3.8349876403808594,0.0,16.864912033081055,24.419464111328125,-4.4362921714782715,13948.89453125,16627.603515625,20857.107421875,16650.0,10404,1.631933569908142,-0.23492272198200226,0.9682523608207703,-2413,2211
71531.915,0.00779511034488678,-0.012384970672428608,1.0,0.09991709887981415,0.03706610947847366,1.0130736827850342,37567.890625,4.387040138244629,3.8946011066436768,0.0,16.5306396484375,24.777141571044922,-8.281586647033691,14946.525390625,16617.783203125,22346.486328125,16650.0,9510,1.631933569908142,-0.23492272198200226,0.9682523608207703,-2383,1739
71533.866,0.00779511034488678,-0.012384970672428608,1.0,0.09991709887981415,0.03706610947847366,1.0130736827850342,37567.890625,4.387040138244629,3.8946011066436768,0.0,16.56801986694336,24.74326515197754,-8.595108032226562,14493.7734375,16606.78125,22256.103515625,16650.0,-15580,1.6257034540176392,-0.2292766273021698,0.9699738025665283,-2139,2537
71535.82,0.00779511034488678,-0.012384970672428608,1.0,0.09991709887981415,0.03706610947847366,1.0130736827850342,37567.890625,4.387040138244629,3.8946011066436768,0.0,16.56801986694336,24.74326515197754,-8.295795440673828,13894.94140625,16594.015625,22809.6953125,16650.0,6450,1.6257034540176392,-0.2292766273021698,0.9699738025665283,-2701,2336
71537.839,0.00779511034488678,-0.012384970672428608,1.0,0.09986377507448196,0.03717628866434097,1.0131994485855103,37567.890625,4.387040138244629,3.8946011066436768,0.0,16.56801986694336,24.74326515197754,-8.297735214233398,14742.0615234375,16580.92578125,23116.755859375,16650.0,13494,1.6257034540176392,-0.2292766273021698,0.9699738025665283,-4220,6243
71539.771,0.00779511034488678,-0.012384970672428608,1.0,0.09986377507448196,0.03717628866434097,1.0131994485855103,37567.890625,4.387040138244629,3.8946011066436768,0.0,16.56801986694336,24.74326515197754,-8.299674987792969,14825.7041015625,16567.693359375,22535.16796875,16650.0,-5682,1.6257034540176392,-0.2292766273021698,0.9699738025665283,-2360,4683
71541.811,0.008733481168746948,-0.013829191215336323,1.0,0.09986377507448196,0.03717628866434097,1.0131994485855103,37530.50390625,4.342904567718506,3.9513916969299316,0.0,14.764180183410645,25.278793334960938,-3.0626912117004395,13404.2099609375,16552.46875,23295.0703125,16650.0,-22548,1.8822077512741089,-0.2617407739162445,0.9410297870635986,-2467,6332
71543.729,0.008733481168746948,-0.013829191215336323,1.0,0.09986315667629242,0.037282854318618774,1.013094425201416,37530.50390625,4.342904567718506,3.9513916969299316,0.0,14.764180183410645,25.278793334960938,-8.129776000976562,14872.962890625,16537.5625,23962.53515625,16650.0,2142,1.8822077512741089,-0.2617407739162445,0.9410297870635986,-3060,5916
71545.708,0.008733481168746948,-0.013829191215336323,1.0,0.09986315667629242,0.037282854318618774,1.013094425201416,37530.50390625,4.342904567718506,3.9513916969299316,0.0,14.851516723632812,25.238290786743164,-8.325873374938965,15918.9853515625,16524.333984375,24469.291015625,16650.0,-3566,1.8676517009735107,-0.25499024987220764,0.9421027898788452,-4555,8421
71547.744,0.008733481168746948,-0.013829191215336323,1.0,0.09986315667629242,0.037282854318618774,1.013094425201416,37530.50390625,4.342904567718506,3.9513916969299316,0.0,14.851516723632812,25.238290786743164,-8.139982223510742,16795.595703125,16513.685546875,24399.8671875,16650.0,-2920,1.8676517009735107,-0.25499024987220764,0.9421027898788452,-3400,6548
71549.667,0.008733481168746948,-0.013829191215336323,1.0,0.09982773661613464,0.037355225533246994,1.013084053993225,37530.50390625,4.342904567718506,3.9513916969299316,0.0,13.094644546508789,26.239465713500977,-2.0748114585876465,15086.7294921875,16502.923828125,24587.1015625,16650.0,-22223,2.160463809967041,-0.42185261845588684,0.9085835218429565,-3178,5198
71551.713,0.009751065634191036,-0.015385698527097702,1.0,0.09982773661613464,0.037355225533246994,1.013084053993225,37533.5859375,4.287818908691406,4.016222953796387,0.0,12.849790573120117,26.585697174072266,-8.130373001098633,15362.5419921875,16492.44921875,23733.05078125,16650.0,-23382,2.1461870670318604,-0.41472679376602173,0.9096214771270752,-2752,7728
71553.626,0.009751065634191036,-0.015385698527097702,1.0,0.09982773661613464,0.037355225533246994,1.013084053993225,37533.5859375,4.287818908691406,4.016222953796387,0.0,12.849790573120117,26.585697174072266,-7.950549602508545,16028.3515625,16483.11328125,23704.083984375,16650.0,8762,2.1461870670318604,-0.41472679376602173,0.9096214771270752,-3510,7029
71555.603,0.009751065634191036,-0.015385698527097702,1.0,0.09973788261413574,0.037444233894348145,1.013017177581787,37533.5859375,4.287818908691406,4.016222953796387,0.0,12.849790573120117,26.585697174072266,-7.95236873626709,17679.251953125,16476.9375,24284.671875,16650.0,-14163,2.1461870670318604,-0.41472679376602173,0.9096214771270752,-1614,8544
