timestamp,posCtl.targetX,posCtl.targetY,posCtl.targetZ,locSrv.x,locSrv.y,locSrv.z,controller.actuatorThrust,controller.pitch,controller.roll,controller.yaw,pid_attitude.pitch_output,pid_attitude.roll_output,pid_attitude.yaw_output,pid_rate.pitch_output,pid_rate.pitch_outI,pid_rate.roll_output,pid_rate.roll_outI,pid_rate.yaw_output,stateEstimate.pitch,stateEstimate.roll,stateEstimate.yaw,snn_control.torque_pitch,snn_control.torque_roll
142530.396,-1.8444941574102813e-08,2.3140920291098155e-08,1.0,0.08653776347637177,0.022829964756965637,1.0176433324813843,37621.6171875,3.4475035667419434,1.515650749206543,0.0,8.591403007507324,11.880077362060547,-10.976494789123535,15625.6923828125,16334.560546875,21849.044921875,16650.0,-12246,2.0156030654907227,-0.46436217427253723,0.6882832050323486,-2454,6044
142532.366,-1.8444941574102813e-08,2.3140920291098155e-08,1.0,0.08653776347637177,0.022829964756965637,1.0176433324813843,37621.6171875,3.4475035667419434,1.515650749206543,0.0,8.591403007507324,11.880077362060547,-10.992692947387695,15559.271484375,16320.1123046875,21839.64453125,16650.0,19852,2.0156030654907227,-0.46436217427253723,0.6882832050323486,-2117,4882
142534.39,-1.8444941574102813e-08,2.3140920291098155e-08,1.0,0.08654812723398209,0.022777922451496124,1.017634630203247,37621.6171875,3.4475035667419434,1.515650749206543,0.0,8.591403007507324,11.880077362060547,-10.994070053100586,15679.6259765625,16307.2353515625,21047.3046875,16650.0,-15051,2.0156030654907227,-0.46436217427253723,0.6882832050323486,-2134,5927
142536.315,-1.8444941574102813e-08,2.3140920291098155e-08,1.0,0.08654812723398209,0.022777922451496124,1.017634630203247,37621.6171875,3.4475035667419434,1.515650749206543,0.0,7.038848876953125,13.505104064941406,-6.535985469818115,15628.720703125,16295.6162109375,22134.318359375,16650.0,31321,2.274362087249756,-0.7351999878883362,0.6636455655097961,-2645,4811
142538.37,1.1850794123802189e-07,-2.0557898494644178e-07,1.0,0.08654812723398209,0.022777922451496124,1.017634630203247,37632.6875,3.377377986907959,1.5049386024475098,0.0,6.618095397949219,13.440831184387207,-10.848899841308594,17560.94140625,16287.6298828125,21063.9296875,16650.0,-19132,2.274362087249756,-0.7351999878883362,0.6636455655097961,-1941,4341
142540.274,1.1850794123802189e-07,-2.0557898494644178e-07,1.0,0.08641856908798218,0.022648736834526062,1.01750648021698,37632.6875,3.377377986907959,1.5049386024475098,0.0,6.618095397949219,13.440831184387207,-10.850227355957031,17974.90234375,16283.2314453125,20499.171875,16650.0,4832,2.274362087249756,-0.7351999878883362,0.6636455655097961,-2359,6017
142542.254,1.1850794123802189e-07,-2.0557898494644178e-07,1.0,0.08641856908798218,0.022648736834526062,1.01750648021698,37632.6875,3.377377986907959,1.5049386024475098,0.0,6.578799247741699,13.419164657592773,-11.017049789428711,17660.966796875,16281.404296875,20040.693359375,16650.0,16536,2.280911445617676,-0.7315887212753296,0.6645599007606506,-482,5148
142544.287,1.1850794123802189e-07,-2.0557898494644178e-07,1.0,0.08641856908798218,0.022648736834526062,1.01750648021698,37632.6875,3.377377986907959,1.5049386024475098,0.0,6.578799247741699,13.419164657592773,-10.858370780944824,18197.005859375,16282.4345703125,19989.283203125,16650.0,-6067,2.280911445617676,-0.7315887212753296,0.6645599007606506,343,4041
142546.215,1.1850794123802189e-07,-2.0557898494644178e-07,1.0,0.08639772236347198,0.022620122879743576,1.0173261165618896,37632.6875,3.377377986907959,1.5049386024475098,0.0,6.578799247741699,13.419164657592773,-10.859699249267578,18612.7421875,16286.396484375,19630.412109375,16650.0,6446,2.280911445617676,-0.7315887212753296,0.6645599007606506,-1594,5133
142548.256,6.744025426996814e-07,-1.1311983598716324e-06,1.0,0.08639772236347198,0.022620122879743576,1.0173261165618896,37599.1953125,3.291584014892578,1.5054166316986084,0.0,5.2497239112854,14.855984687805176,-7.844935417175293,18452.6953125,16292.576171875,20721.2578125,16650.0,-22009,2.4166300296783447,-0.9705808162689209,0.6478965878486633,281,4190
142550.174,6.744025426996814e-07,-1.1311983598716324e-06,1.0,0.08640607446432114,0.022352397441864014,1.0173356533050537,37599.1953125,3.291584014892578,1.5054166316986084,0.0,5.2497239112854,14.855984687805176,-10.762310981750488,20517.70703125,16303.3447265625,19897.734375,16650.0,3384,2.4166300296783447,-0.9705808162689209,0.6478965878486633,346,3603
142552.152,6.744025426996814e-07,-1.1311983598716324e-06,1.0,0.08640607446432114,0.022352397441864014,1.0173356533050537,37599.1953125,3.291584014892578,1.5054166316986084,0.0,5.2497239112854,14.855984687805176,-10.763607025146484,20498.25,16317.8935546875,19494.66015625,16650.0,3114,2.4166300296783447,-0.9705808162689209,0.6478965878486633,845,6013
142554.18,6.744025426996814e-07,-1.1311983598716324e-06,1.0,0.08640607446432114,0.022352397441864014,1.0173356533050537,37599.1953125,3.291584014892578,1.5054166316986084,0.0,5.2497239112854,14.855984687805176,-10.764902114868164,20439.796875,16335.4892578125,18808.49609375,16650.0,26264,2.4166300296783447,-0.9705808162689209,0.6478965878486633,1207,3586
142556.105,6.744025426996814e-07,-1.1311983598716324e-06,1.0,0.08652830868959427,0.022439047694206238,1.0173441171646118,37599.1953125,3.291584014892578,1.5054166316986084,0.0,5.446387767791748,15.88652515411377,-9.119754791259766,21189.734375,16356.59765625,18945.79296875,16650.0,7515,2.38385272026062,-1.142337679862976,0.638800323009491,2935,4368
142558.154,2.1226837816357147e-06,-3.5367922919249395e-06,1.0,0.08652830868959427,0.022439047694206238,1.0173441171646118,37563.21484375,3.2130038738250732,1.5143930912017822,0.0,4.931791305541992,15.922046661376953,-11.049331665039062,21257.224609375,16380.689453125,18037.51171875,16650.0,24843,2.391038656234741,-1.1392812728881836,0.6406591534614563,4704,3847
142560.066,2.1226837816357147e-06,-3.5367922919249395e-06,1.0,0.08652830868959427,0.022439047694206238,1.0173441171646118,37563.21484375,3.2130038738250732,1.5143930912017822,0.0,4.931791305541992,15.922046661376953,-10.725317001342773,22180.212890625,16408.462890625,17907.58984375,16650.0,-25364,2.391038656234741,-1.1392812728881836,0.6406591534614563,4679,3275
142562.045,2.1226837816357147e-06,-3.5367922919249395e-06,1.0,0.08630446344614029,0.02240433171391487,1.0170820951461792,37563.21484375,3.2130038738250732,1.5143930912017822,0.0,4.931791305541992,15.922046661376953,-10.726598739624023,22446.30078125,16439.615234375,18164.662109375,16650.0,26756,2.391038656234741,-1.1392812728881836,0.6406591534614563,4834,1350
142564.069,2.1226837816357147e-06,-3.5367922919249395e-06,1.0,0.08630446344614029,0.02240433171391487,1.0170820951461792,37563.21484375,3.2130038738250732,1.5143930912017822,0.0,4.844358444213867,15.90849781036377,-10.952001571655273,22908.884765625,16474.15625,18082.857421875,16650.0,-24413,2.4056107997894287,-1.1370232105255127,0.6418973803520203,3954,1307
142565.999,2.1226837816357147e-06,-3.5367922919249395e-06,1.0,0.08622453361749649,0.02223491296172142,1.017433762550354,37563.21484375,3.2130038738250732,1.5143930912017822,0.0,6.102642059326172,16.339553833007812,-9.499040603637695,23848.67578125,16512.720703125,17717.564453125,16650.0,-30244,2.195896863937378,-1.208866000175476,0.6350601315498352,4288,1391
142568.046,5.119594788993709e-06,-8.502388482156675e-06,1.0,0.08622453361749649,0.02223491296172142,1.017433762550354,37570.13671875,3.1232144832611084,1.5338563919067383,0.0,5.563905715942383,16.456335067749023,-10.696828842163086,22678.1953125,16553.0234375,17420.94140625,16650.0,5524,2.195896863937378,-1.208866000175476,0.6350601315498352,6736,1333
142569.963,5.119594788993709e-06,-8.502388482156675e-06,1.0,0.08622453361749649,0.02223491296172142,1.017433762550354,37570.13671875,3.1232144832611084,1.5338563919067383,0.0,5.563905715942383,16.456335067749023,-10.698099136352539,24035.5625,16596.529296875,16933.107421875,16650.0,-10686,2.195896863937378,-1.208866000175476,0.6350601315498352,6028,414
142571.943,5.119594788993709e-06,-8.502388482156675e-06,1.0,0.08617603033781052,0.022033797577023506,1.017160177230835,37570.13671875,3.1232144832611084,1.5338563919067383,0.0,5.563905715942383,16.456335067749023,-10.699369430541992,23834.60546875,16642.375,16493.033203125,16650.0,24128,2.195896863937378,-1.208866000175476,0.6350601315498352,7650,-628
142573.981,5.119594788993709e-06,-8.502388482156675e-06,1.0,0.08617603033781052,0.022033797577023506,1.017160177230835,37570.13671875,3.1232144832611084,1.5338563919067383,0.0,5.563905715942383,16.456335067749023,-10.700639724731445,23537.5390625,16650.0,16377.3818359375,16650.0,7400,2.195896863937378,-1.208866000175476,0.6350601315498352,9159,301
142575.897,5.119594788993709e-06,-8.502388482156675e-06,1.0,0.08617603033781052,0.022033797577023506,1.017160177230835,37570.13671875,3.1232144832611084,1.5338563919067383,0.0,7.742255210876465,16.300317764282227,-9.174519538879395,25343.8125,16650.0,16361.6591796875,16650.0,-4077,1.8328386545181274,-1.1828632354736328,0.6266216039657593,8301,1448
142577.938,1.048103513312526e-05,-1.7361420759698376e-05,1.0,0.0860801488161087,0.02188090607523918,1.0171719789505005,37602.62890625,3.0241641998291016,1.5703781843185425,0.0,7.147953033447266,16.51944923400879,-10.652514457702637,24011.48046875,16650.0,16781.841796875,16650.0,-26024,1.8328386545181274,-1.1828632354736328,0.6266216039657593,9243,2892
142579.886,1.048103513312526e-05,-1.7361420759698376e-05,1.0,0.0860801488161087,0.02188090607523918,1.0171719789505005,37602.62890625,3.0241641998291016,1.5703781843185425,0.0,7.106607913970947,16.49422836303711,-10.910643577575684,24752.2109375,16650.0,16899.478515625,16650.0,-15750,1.8397295475006104,-1.1786599159240723,0.6280407905578613,7150,-589
142581.831,1.048103513312526e-05,-1.7361420759698376e-05,1.0,0.0860801488161087,0.02188090607523918,1.0171719789505005,37602.62890625,3.0241641998291016,1.5703781843185425,0.0,7.106607913970947,16.49422836303711,-10.663541793823242,23917.75390625,16650.0,17178.900390625,16650.0,-25490,1.8397295475006104,-1.1786599159240723,0.6280407905578613,8891,1931
142583.858,1.048103513312526e-05,-1.7361420759698376e-05,1.0,0.08592931181192398,0.02183067984879017,1.0171709060668945,37602.62890625,3.0241641998291016,1.5703781843185425,0.0,7.106607913970947,16.49422836303711,-10.66479778289795,23283.935546875,16650.0,16993.478515625,16650.0,19124,1.8397295475006104,-1.1786599159240723,0.6280407905578613,8086,643
142585.794,1.048103513312526e-05,-1.7361420759698376e-05,1.0,0.08592931181192398,0.02183067984879017,1.0171709060668945,37602.62890625,3.0241641998291016,1.5703781843185425,0.0,9.844335556030273,15.820844650268555,-8.421472549438477,24582.771484375,16650.0,16025.6552734375,16650.0,9942,1.3834415674209595,-1.0664292573928833,0.6156399250030518,8830,1141
142587.847,1.92211246030638e-05,-3.1761217542225495e-05,1.0,0.08592931181192398,0.02183067984879017,1.0171709060668945,37569.2421875,2.9661428928375244,1.5877196788787842,0.0,9.496208190917969,15.924894332885742,-10.592855453491211,22208.6171875,16650.0,16416.37109375,16650.0,-24773,1.3834415674209595,-1.0664292573928833,0.6156399250030518,8159,1048
142589.754,1.92211246030638e-05,-3.1761217542225495e-05,1.0,0.08573685586452484,0.02162250503897667,1.016996145248413,37569.2421875,2.9661428928375244,1.5877196788787842,0.0,9.496208190917969,15.924894332885742,-10.594085693359375,23012.375,16650.0,16314.30078125,16650.0,-25673,1.3834415674209595,-1.0664292573928833,0.6156399250030518,9823,685
142591.734,1.92211246030638e-05,-3.1761217542225495e-05,1.0,0.08573685586452484,0.02162250503897667,1.016996145248413,37569.2421875,2.9661428928375244,1.5877196788787842,0.0,9.496208190917969,15.924894332885742,-10.595317840576172,22777.6171875,16650.0,15735.2197265625,16649.923828125,-2070,1.3834415674209595,-1.0664292573928833,0.6156399250030518,9387,1983
142593.767,1.92211246030638e-05,-3.1761217542225495e-05,1.0,0.08574425429105759,0.02150859497487545,1.0171869993209839,37569.2421875,2.9661428928375244,1.5877196788787842,0.0,9.496208190917969,15.924894332885742,-10.596548080444336,21944.75390625,16650.0,15900.3603515625,16648.861328125,-18024,1.3834415674209595,-1.0664292573928833,0.6156399250030518,7849,190
142595.69,1.92211246030638e-05,-3.1761217542225495e-05,1.0,0.08574425429105759,0.02150859497487545,1.0171869993209839,37569.2421875,2.9661428928375244,1.5877196788787842,0.0,9.496208190917969,15.924894332885742,-10.597780227661133,22444.548828125,16650.0,17084.486328125,16648.55859375,13692,1.3834415674209595,-1.0664292573928833,0.6156399250030518,9142,1652
142597.731,3.246937194489874e-05,-5.3535211918642744e-05,1.0,0.08574425429105759,0.02150859497487545,1.0171869993209839,37562.50390625,2.922346830368042,1.600744605064392,0.0,11.849013328552246,15.124452590942383,-9.354442596435547,23705.794921875,16650.0,16719.458984375,16648.3984375,-29820,0.9475113153457642,-0.9199976325035095,0.6087639331817627,8709,391
142599.646,3.246937194489874e-05,-5.3535211918642744e-05,1.0,0.08551079779863358,0.021473292261362076,1.0171165466308594,37562.50390625,2.922346830368042,1.600744605064392,0.0,11.849013328552246,15.124452590942383,-10.558958053588867,20539.783203125,16650.0,16489.82421875,16648.056640625,-11200,0.9475113153457642,-0.9199976325035095,0.6087639331817627,8072,1422
142601.629,3.246937194489874e-05,-5.3535211918642744e-05,1.0,0.08551079779863358,0.021473292261362076,1.0171165466308594,37562.50390625,2.922346830368042,1.600744605064392,0.0,11.849013328552246,15.124452590942383,-10.560175895690918,20057.78125,16650.0,16055.5986328125,16646.982421875,24568,0.9475113153457642,-0.9199976325035095,0.6087639331817627,8256,87
142603.661,3.246937194489874e-05,-5.3535211918642744e-05,1.0,0.08551079779863358,0.021473292261362076,1.0171165466308594,37562.50390625,2.922346830368042,1.600744605064392,0.0,11.849013328552246,15.124452590942383,-10.561393737792969,20614.74609375,16650.0,16397.408203125,16645.755859375,13357,0.9475113153457642,-0.9199976325035095,0.6087639331817627,7730,-36
142605.593,3.246937194489874e-05,-5.3535211918642744e-05,1.0,0.08527329564094543,0.021345898509025574,1.0172092914581299,37562.50390625,2.922346830368042,1.600744605064392,0.0,14.105426788330078,14.163336753845215,-9.11871337890625,22160.865234375,16650.0,16570.888671875,16644.63671875,22580,0.5714423656463623,-0.759811520576477,0.6007866859436035,7861,763
142607.626,5.1557773986132815e-05,-8.482075645588338e-05,1.0,0.08527329564094543,0.021345898509025574,1.0172092914581299,37570.87109375,2.9085159301757812,1.6063016653060913,0.0,14.022441864013672,14.19667911529541,-10.5159330368042,19323.0859375,16650.0,16891.330078125,16644.03125,-2300,0.5714423656463623,-0.759811520576477,0.6007866859436035,7123,-1182
142609.545,5.1557773986132815e-05,-8.482075645588338e-05,1.0,0.08527329564094543,0.021345898509025574,1.0172092914581299,37570.87109375,2.9085159301757812,1.6063016653060913,0.0,14.022441864013672,14.19667911529541,-10.517134666442871,19021.94140625,16650.0,16612.6015625,16643.48828125,10038,0.5714423656463623,-0.759811520576477,0.6007866859436035,7890,788
142611.515,5.1557773986132815e-05,-8.482075645588338e-05,1.0,0.0852140560746193,0.021338144317269325,1.0173721313476562,37570.87109375,2.9085159301757812,1.6063016653060913,0.0,14.022441864013672,14.19667911529541,-10.518336296081543,19196.326171875,16650.0,17065.556640625,16643.595703125,-32578,0.5714423656463623,-0.759811520576477,0.6007866859436035,5842,-727
142613.547,5.1557773986132815e-05,-8.482075645588338e-05,1.0,0.0852140560746193,0.021338144317269325,1.0173721313476562,37570.87109375,2.9085159301757812,1.6063016653060913,0.0,13.962926864624023,14.174569129943848,-10.735383987426758,18301.642578125,16650.0,17280.4921875,16644.53515625,-28416,0.5813614726066589,-0.7561264634132385,0.6019791960716248,5803,878
142615.485,5.1557773986132815e-05,-8.482075645588338e-05,1.0,0.08503022789955139,0.021252743899822235,1.0173771381378174,37570.87109375,2.9085159301757812,1.6063016653060913,0.0,15.422740936279297,13.280319213867188,-10.662519454956055,18781.955078125,16650.0,16578.068359375,16645.2265625,-31541,0.3380591571331024,-0.6070848703384399,0.6027229428291321,5187,-310
142617.522,7.798401929903775e-05,-0.00012806840823031962,1.0,0.08503022789955139,0.021252743899822235,1.0173771381378174,37588.01171875,2.8956799507141113,1.6082446575164795,0.0,15.308664321899414,13.266077041625977,-10.682882308959961,17196.8984375,16650.0,16816.8828125,16646.033203125,-2258,0.344235897064209,-0.6027681827545166,0.6035478711128235,2512,-3978
142619.445,7.798401929903775e-05,-0.00012806840823031962,1.0,0.08503022789955139,0.021252743899822235,1.0173771381378174,37588.01171875,2.8956799507141113,1.6082446575164795,0.0,15.308664321899414,13.266077041625977,-10.539726257324219,15672.65234375,16650.0,16720.0078125,16646.80078125,18553,0.344235897064209,-0.6027681827545166,0.6035478711128235,2820,531
142621.419,7.798401929903775e-05,-0.00012806840823031962,1.0,0.08503022789955139,0.021252743899822235,1.0173771381378174,37588.01171875,2.8956799507141113,1.6082446575164795,0.0,15.308664321899414,13.266077041625977,-10.540933609008789,15787.0927734375,16650.0,17439.146484375,16648.494140625,19093,0.344235897064209,-0.6027681827545166,0.6035478711128235,3471,872
142623.465,7.798401929903775e-05,-0.00012806840823031962,1.0,0.08496233820915222,0.0211500134319067,1.0173237323760986,37588.01171875,2.8956799507141113,1.6082446575164795,0.0,15.267803192138672,13.240638732910156,-10.729387283325195,15802.39453125,16650.0,17654.708984375,16650.0,-8790,0.35104599595069885,-0.5985284447669983,0.6045823693275452,2522,-113
142625.371,7.798401929903775e-05,-0.00012806840823031962,1.0,0.08496233820915222,0.0211500134319067,1.0173237323760986,37588.01171875,2.8956799507141113,1.6082446575164795,0.0,15.675041198730469,12.500740051269531,-9.94096565246582,15129.0390625,16650.0,17085.26953125,16650.0,-16390,0.2831730544567108,-0.475212037563324,0.6012200117111206,-1558,-1152
142627.421,0.00011337647447362542,-0.00018582332995720208,1.0,0.08473031222820282,0.021108616143465042,1.0174278020858765,37600.65625,2.869680643081665,1.6226738691329956,0.0,15.519044876098633,12.58731460571289,-10.530580520629883,14392.6796875,16650.0,17598.728515625,16650.0,28592,0.2831730544567108,-0.475212037563324,0.6012200117111206,-797,-770
142629.341,0.00011337647447362542,-0.00018582332995720208,1.0,0.08473031222820282,0.021108616143465042,1.0174278020858765,37600.65625,2.869680643081665,1.6226738691329956,0.0,15.519044876098633,12.58731460571289,-10.531783103942871,13763.5458984375,16648.48828125,17507.8046875,16650.0,20042,0.2831730544567108,-0.475212037563324,0.6012200117111206,-239,1290
142631.313,0.00011337647447362542,-0.00018582332995720208,1.0,0.08473031222820282,0.021108616143465042,1.0174278020858765,37600.65625,2.869680643081665,1.6226738691329956,0.0,15.519044876098633,12.58731460571289,-10.53298568725586,13037.529296875,16642.423828125,17796.287109375,16650.0,-5140,0.2831730544567108,-0.475212037563324,0.6012200117111206,-737,1620
142633.341,0.00011337647447362542,-0.00018582332995720208,1.0,0.08471458405256271,0.02097681723535061,1.0173389911651611,37600.65625,2.869680643081665,1.6226738691329956,0.0,15.519044876098633,12.58731460571289,-10.534188270568848,13050.064453125,16632.59375,18437.568359375,16650.0,-2135,0.2831730544567108,-0.475212037563324,0.6012200117111206,-103,-149
142635.267,0.00011337647447362542,-0.00018582332995720208,1.0,0.08471458405256271,0.02097681723535061,1.0173389911651611,37600.65625,2.869680643081665,1.6226738691329956,0.0,14.619549751281738,12.074979782104492,-9.34777545928955,12486.8798828125,16618.890625,18099.462890625,16650.0,9746,0.43308910727500916,-0.38982275128364563,0.5946586728096008,-2376,-439
142637.318,0.0001594427158124745,-0.0002607646747492254,1.0,0.08460329473018646,0.02097681723535061,1.0173389911651611,37557.7734375,2.8817555904388428,1.6140878200531006,0.0,14.691999435424805,12.023463249206543,-10.497199058532715,13778.62890625,16603.70703125,18834.595703125,16650.0,18428,0.43308910727500916,-0.38982275128364563,0.5946586728096008,-3284,-514
142639.225,0.0001594427158124745,-0.0002607646747492254,1.0,0.08460329473018646,0.02090950682759285,1.0171942710876465,37557.7734375,2.8817555904388428,1.6140878200531006,0.0,14.691999435424805,12.023463249206543,-10.498388290405273,14172.2666015625,16587.83203125,19544.53515625,16650.0,29536,0.43308910727500916,-0.38982275128364563,0.5946586728096008,-1653,932
142641.205,0.0001594427158124745,-0.0002607646747492254,1.0,0.08460329473018646,0.02090950682759285,1.0171942710876465,37557.7734375,2.8817555904388428,1.6140878200531006,0.0,14.631002426147461,12.00300121307373,-10.624563217163086,12937.048828125,16569.759765625,19240.369140625,16650.0,-29202,0.44325506687164307,-0.3864123523235321,0.5953491926193237,-2266,448
142643.263,0.0001594427158124745,-0.0002607646747492254,1.0,0.08446568250656128,0.020901579409837723,1.0169806480407715,37557.7734375,2.8817555904388428,1.6140878200531006,0.0,14.631002426147461,12.00300121307373,-10.504912376403809,12214.4501953125,16548.919921875,19222.517578125,16650.0,-2608,0.44325506687164307,-0.3864123523235321,0.5953491926193237,-2944,1642
142645.169,0.0001594427158124745,-0.0002607646747492254,1.0,0.08446568250656128,0.020901579409837723,1.0169806480407715,37557.7734375,2.8817555904388428,1.6140878200531006,0.0,14.631002426147461,12.00300121307373,-10.506103515625,13044.892578125,16526.91015625,19362.9296875,16650.0,19357,0.44325506687164307,-0.3864123523235321,0.5953491926193237,-1986,1669
142647.204,0.00021813088096678257,-0.00035598271642811596,1.0,0.08446568250656128,0.020901579409837723,1.0169806480407715,37535.69140625,2.87081241607666,1.6045587062835693,0.0,12.665349960327148,11.8184814453125,-9.245777130126953,11430.71484375,16501.80859375,19212.7734375,16650.0,19917,0.7599208354949951,-0.3651881217956543,0.5883795619010925,-2708,1574
142649.125,0.00021813088096678257,-0.00035598271642811596,1.0,0.084375761449337,0.02079370990395546,1.01699697971344,37535.69140625,2.87081241607666,1.6045587062835693,0.0,12.665349960327148,11.8184814453125,-10.466638565063477,13573.3349609375,16477.017578125,19886.9140625,16650.0,22502,0.7599208354949951,-0.3651881217956543,0.5883795619010925,-4305,4078
142651.108,0.00021813088096678257,-0.00035598271642811596,1.0,0.084375761449337,0.02079370990395546,1.01699697971344,37535.69140625,2.87081241607666,1.6045587062835693,0.0,12.625154495239258,11.795909881591797,-10.528857231140137,14033.3359375,16453.1328125,19773.84765625,16650.0,-7678,0.7666199207305908,-0.36142632365226746,0.5887168049812317,-3819,1665
142653.136,0.00021813088096678257,-0.00035598271642811596,1.0,0.084375761449337,0.02079370990395546,1.01699697971344,37535.69140625,2.87081241607666,1.6045587062835693,0.0,12.625154495239258,11.795909881591797,-10.471017837524414,13104.8408203125,16428.796875,19302.541015625,16650.0,-17728,0.7666199207305908,-0.36142632365226746,0.5887168049812317,-2402,1559
142655.082,0.00021813088096678257,-0.00035598271642811596,1.0,0.08410421758890152,0.02075132355093956,1.0169495344161987,37535.69140625,2.87081241607666,1.6045587062835693,0.0,10.412882804870605,12.095100402832031,-7.708532333374023,11715.8828125,16402.267578125,19852.416015625,16650.0,18785,1.1353319883346558,-0.4112914800643921,0.573448121547699,-3041,3311
142657.108,0.0002916867670137435,-0.00047483487287536263,1.0,0.08410421758890152,0.02075132355093956,1.0169495344161987,37566.7578125,2.857480525970459,1.5944924354553223,0.0,10.332891464233398,12.034704208374023,-10.381698608398438,13246.994140625,16375.98828125,19609.078125,16650.0,605,1.1353319883346558,-0.4112914800643921,0.573448121547699,-2540,2207
142659.021,0.0002916867670137435,-0.00047483487287536263,1.0,0.08410421758890152,0.02075132355093956,1.0169495344161987,37566.7578125,2.857480525970459,1.5944924354553223,0.0,10.332891464233398,12.034704208374023,-10.382844924926758,13707.650390625,16350.5654296875,19782.482421875,16650.0,23455,1.1353319883346558,-0.4112914800643921,0.573448121547699,-3679,2621
142661.005,0.0002916867670137435,-0.00047483487287536263,1.0,0.08399821072816849,0.02071538008749485,1.0170096158981323,37566.7578125,2.857480525970459,1.5944924354553223,0.0,10.332891464233398,12.034704208374023,-10.383992195129395,14788.099609375,16327.326171875,19978.53515625,16650.0,-22526,1.1353319883346558,-0.4112914800643921,0.573448121547699,-3265,4910
142663.063,0.0002916867670137435,-0.00047483487287536263,1.0,0.08399821072816849,0.02071538008749485,1.0170096158981323,37566.7578125,2.857480525970459,1.5944924354553223,0.0,10.332891464233398,12.034704208374023,-10.385139465332031,14411.36328125,16305.435546875,20096.875,16650.0,23731,1.1353319883346558,-0.4112914800643921,0.573448121547699,-4852,4629
142664.969,0.0002916867670137435,-0.00047483487287536263,1.0,0.08361973613500595,0.020763546228408813,1.0172805786132812,37566.7578125,2.857480525970459,1.5944924354553223,0.0,8.186982154846191,12.58381462097168,-6.75813627243042,13139.703125,16283.0009765625,21257.171875,16650.0,-9404,1.4929834604263306,-0.5028099417686462,0.5534033179283142,-3696,989
142666.997,0.00038209211197681725,-0.000620321836322546,1.0,0.08361973613500595,0.020763546228408813,1.0172805786132812,37577.28125,2.8374247550964355,1.5892794132232666,0.0,8.06664752960205,12.552536010742188,-10.267084121704102,15492.001953125,16263.279296875,20412.3671875,16650.0,-26731,1.4929834604263306,-0.5028099417686462,0.5534033179283142,-3407,3598
142668.915,0.00038209211197681725,-0.000620321836322546,1.0,0.08361973613500595,0.020763546228408813,1.0172805786132812,37577.28125,2.8374247550964355,1.5892794132232666,0.0,8.06664752960205,12.552536010742188,-10.268190383911133,15118.1533203125,16245.3408203125,19439.75390625,16650.0,-348,1.4929834604263306,-0.5028099417686462,0.5534033179283142,-2340,4733
142670.9,0.00038209211197681725,-0.000620321836322546,1.0,0.08340028673410416,0.02069075219333172,1.0173594951629639,37577.28125,2.8374247550964355,1.5892794132232666,0.0,8.06664752960205,12.552536010742188,-10.269296646118164,15826.2255859375,16229.8525390625,19295.423828125,16650.0,19240,1.4929834604263306,-0.5028099417686462,0.5534033179283142,-1548,4411
142672.925,0.00038209211197681725,-0.000620321836322546,1.0,0.08340028673410416,0.02069075219333172,1.0173594951629639,37577.28125,2.8374247550964355,1.5892794132232666,0.0,8.107089042663574,12.52173900604248,-10.076231956481934,17041.197265625,16218.0439453125,19448.28515625,16650.0,-22081,1.4862432479858398,-0.4976769685745239,0.5523305535316467,-1808,3057
142674.871,0.00038209211197681725,-0.000620321836322546,1.0,0.08340028673410416,0.02069075219333172,1.0173594951629639,37577.28125,2.8374247550964355,1.5892794132232666,0.0,6.4585771560668945,13.285669326782227,-6.623812675476074,15772.9873046875,16207.6240234375,19872.482421875,16650.0,-27484,1.7609952688217163,-0.624998927116394,0.5322133302688599,-1937,4378
142676.897,0.0004919409402646124,-0.0007964507094584405,1.0,0.0833495482802391,0.020646797493100166,1.0175987482070923,37531.30859375,2.7715744972229004,1.606522560119629,0.0,6.063475608825684,13.389129638671875,-10.145390510559082,17492.37109375,16200.6640625,20009.4921875,16650.0,-14234,1.7609952688217163,-0.624998927116394,0.5322133302688599,-898,3450
142678.812,0.0004919409402646124,-0.0007964507094584405,1.0,0.0833495482802391,0.020646797493100166,1.0175987482070923,37531.30859375,2.7715744972229004,1.606522560119629,0.0,6.063475608825684,13.389129638671875,-10.146454811096191,18409.42578125,16197.8134765625,20317.83203125,16650.0,14158,1.7609952688217163,-0.624998927116394,0.5322133302688599,-270,3706
142680.803,0.0004919409402646124,-0.0007964507094584405,1.0,0.0833495482802391,0.020646797493100166,1.0175987482070923,37531.30859375,2.7715744972229004,1.606522560119629,0.0,6.171170711517334,13.349661827087402,-10.020505905151367,18562.41796875,16198.587890625,20426.828125,16650.0,-23989,1.7430460453033447,-0.618421196937561,0.5315116047859192,314,3061
142682.81,0.0004919409402646124,-0.0007964507094584405,1.0,0.08362092077732086,0.02051468938589096,1.0170975923538208,37531.30859375,2.7715744972229004,1.606522560119629,0.0,6.171170711517334,13.349661827087402,-10.144371032714844,18393.779296875,16202.15625,19406.236328125,16650.0,-22056,1.7430460453033447,-0.618421196937561,0.5315116047859192,924,3577
142684.745,0.0004919409402646124,-0.0007964507094584405,1.0,0.08362092077732086,0.02051468938589096,1.0170975923538208,37531.30859375,2.7715744972229004,1.606522560119629,0.0,5.572556495666504,14.046298027038574,-7.745734214782715,18238.21484375,16207.8359375,19249.861328125,16650.0,27662,1.8428150415420532,-0.7345271706581116,0.518253743648529,719,3625
142686.809,0.0006236504414118826,-0.0010071620345115662,1.0,0.08362092077732086,0.02051468938589096,1.0170975923538208,37508.171875,2.755358934402466,1.6095852851867676,0.0,5.475263595581055,14.064674377441406,-10.066896438598633,19214.181640625,16216.56640625,18931.13671875,16650.0,14685,1.8428150415420532,-0.7345271706581116,0.518253743648529,1422,2247
142688.704,0.0006236504414118826,-0.0010071620345115662,1.0,0.08362092077732086,0.02051468938589096,1.0170975923538208,37508.171875,2.755358934402466,1.6095852851867676,0.0,5.475263595581055,14.064674377441406,-10.067933082580566,20013.83203125,16228.8876953125,19335.20703125,16650.0,-30435,1.8428150415420532,-0.7345271706581116,0.518253743648529,2466,779
142690.685,0.0006236504414118826,-0.0010071620345115662,1.0,0.08352342247962952,0.02042553387582302,1.0171334743499756,37508.171875,2.755358934402466,1.6095852851867676,0.0,5.475263595581055,14.064674377441406,-10.0689697265625,20996.1484375,16245.4912109375,19437.189453125,16650.0,2814,1.8428150415420532,-0.7345271706581116,0.518253743648529,3795,2942
142692.722,0.0006236504414118826,-0.0010071620345115662,1.0,0.08352342247962952,0.02042553387582302,1.0171334743499756,37508.171875,2.755358934402466,1.6095852851867676,0.0,5.534939289093018,14.034281730651855,-10.14603328704834,21836.986328125,16266.75390625,18931.857421875,16650.0,-4865,1.832869052886963,-0.7294617295265198,0.5186737775802612,3883,954
142694.664,0.0006236504414118826,-0.0010071620345115662,1.0,0.08324553072452545,0.020315021276474,1.0174577236175537,37508.171875,2.755358934402466,1.6095852851867676,0.0,5.534939289093018,14.034281730651855,-10.073564529418945,21315.142578125,16291.171875,18001.408203125,16650.0,-30520,1.832869052886963,-0.7294617295265198,0.5186737775802612,3434,2124
142696.683,0.0007788317161612213,-0.0012548615923151374,1.0,0.08324553072452545,0.020315021276474,1.0174577236175537,37522.875,2.7348735332489014,1.618622064590454,0.0,5.82621431350708,14.645397186279297,-8.376158714294434,21441.638671875,16318.3515625,18954.779296875,16650.0,-4030,1.7638378143310547,-0.8222775459289551,0.5092902183532715,4465,2721
142698.608,0.0007788317161612213,-0.0012548615923151374,1.0,0.083002470433712,0.020254552364349365,1.0172351598739624,37522.875,2.7348735332489014,1.618622064590454,0.0,5.82621431350708,14.645397186279297,-10.01930046081543,22510.7421875,16349.216796875,19428.49609375,16650.0,-18558,1.7638378143310547,-0.8222775459289551,0.5092902183532715,6800,4299
142700.584,0.0007788317161612213,-0.0012548615923151374,1.0,0.083002470433712,0.020254552364349365,1.0172351598739624,37522.875,2.7348735332489014,1.618622064590454,0.0,5.8715386390686035,14.612886428833008,-10.034159660339355,23159.025390625,16383.970703125,19178.28515625,16650.0,15191,1.7562837600708008,-0.8168591260910034,0.5093666911125183,5960,1895
142702.606,0.0007788317161612213,-0.0012548615923151374,1.0,0.083002470433712,0.020254552364349365,1.0172351598739624,37522.875,2.7348735332489014,1.618622064590454,0.0,5.8715386390686035,14.612886428833008,-10.021795272827148,23023.36328125,16421.734375,19129.44140625,16650.0,10424,1.7562837600708008,-0.8168591260910034,0.5093666911125183,6129,2199
142704.532,0.0007788317161612213,-0.0012548615923151374,1.0,0.0826822817325592,0.0201570987701416,1.0171844959259033,37522.875,2.7348735332489014,1.618622064590454,0.0,7.239618301391602,14.987556457519531,-9.251486778259277,23582.1171875,16462.6953125,18916.55078125,16650.0,20214,1.5282704830169678,-0.8793039917945862,0.5051052570343018,6685,2058
142706.599,0.0009615572635084391,-0.0015458656707778573,1.0,0.0826822817325592,0.0201570987701416,1.0171844959259033,37492.48046875,2.6964566707611084,1.634942650794983,0.0,7.049015045166016,15.055543899536133,-9.787859916687012,22060.1328125,16504.240234375,18435.216796875,16650.0,15538,1.5216208696365356,-0.8743146061897278,0.5039429068565369,6282,2235
142708.5,0.0009615572635084391,-0.0015458656707778573,1.0,0.0826822817325592,0.0201570987701416,1.0171844959259033,37492.48046875,2.6964566707611084,1.634942650794983,0.0,7.049015045166016,15.055543899536133,-9.992279052734375,22885.8046875,16547.310546875,18014.58984375,16650.0,720,1.5216208696365356,-0.8743146061897278,0.5039429068565369,8066,2661
142710.467,0.0009615572635084391,-0.0015458656707778573,1.0,0.08253251761198044,0.019988417625427246,1.0170031785964966,37492.48046875,2.6964566707611084,1.634942650794983,0.0,7.049015045166016,15.055543899536133,-9.993288040161133,23768.60546875,16592.76953125,18083.0078125,16650.0,-1566,1.5216208696365356,-0.8743146061897278,0.5039429068565369,7903,1153
142712.499,0.0009615572635084391,-0.0015458656707778573,1.0,0.08253251761198044,0.019988417625427246,1.0170031785964966,37492.48046875,2.6964566707611084,1.634942650794983,0.0,7.049015045166016,15.055543899536133,-9.994295120239258,23931.57421875,16640.375,18427.595703125,16650.0,14586,1.5216208696365356,-0.8743146061897278,0.5039429068565369,8142,2344
142714.431,0.0009615572635084391,-0.0015458656707778573,1.0,0.08262912184000015,0.019902732223272324,1.0168215036392212,37492.48046875,2.6964566707611084,1.634942650794983,0.0,9.170307159423828,15.268444061279297,-10.063919067382812,24926.16015625,16650.0,18874.58203125,16650.0,20068,1.1680721044540405,-0.9097980260848999,0.5043219923973083,8589,2796
142716.478,0.0011727579403668642,-0.0018816649680957198,1.0,0.08262912184000015,0.019902732223272324,1.0168215036392212,37447.4765625,2.64451265335083,1.6588484048843384,0.0,8.818900108337402,15.393732070922852,-9.994012832641602,22704.142578125,16650.0,18971.810546875,16650.0,25401,1.1746959686279297,-0.9067737460136414,0.5042967200279236,8809,2173
142718.394,0.0011727579403668642,-0.0018816649680957198,1.0,0.08262912184000015,0.019902732223272324,1.0168215036392212,37447.4765625,2.64451265335083,1.6588484048843384,0.0,8.818900108337402,15.393732070922852,-9.999444007873535,23214.376953125,16650.0,18627.59765625,16650.0,-14743,1.1746959686279297,-0.9067737460136414,0.5042967200279236,7730,1476
142720.38,0.0011727579403668642,-0.0018816649680957198,1.0,0.08238904178142548,0.019829144701361656,1.0166672468185425,37447.4765625,2.64451265335083,1.6588484048843384,0.0,8.818900108337402,15.393732070922852,-10.000452041625977,22788.720703125,16650.0,18138.68359375,16650.0,30366,1.1746959686279297,-0.9067737460136414,0.5042967200279236,8809,2558
142722.397,0.0011727579403668642,-0.0018816649680957198,1.0,0.08238904178142548,0.019829144701361656,1.0166672468185425,37447.4765625,2.64451265335083,1.6588484048843384,0.0,8.766465187072754,15.374659538269043,-9.850637435913086,22773.11328125,16650.0,18462.390625,16650.0,-6056,1.183435082435608,-0.9035947918891907,0.5034634470939636,7973,2057
142724.333,0.0011727579403668642,-0.0018816649680957198,1.0,0.08238904178142548,0.019829144701361656,1.0166672468185425,37447.4765625,2.64451265335083,1.6588484048843384,0.0,11.255645751953125,15.43912410736084,-10.314802169799805,24977.146484375,16650.0,19338.8984375,16650.0,-845,0.7685716152191162,-0.914339005947113,0.505216658115387,9019,1669
142726.365,0.0014165256870910525,-0.0022682773414999247,1.0,0.0823114663362503,0.01977781020104885,1.0169761180877686,37462.1796875,2.566739082336426,1.7045221328735352,0.0,10.789005279541016,15.713167190551758,-10.009000778198242,21886.41015625,16650.0,19134.61328125,16650.0,-3447,0.7685716152191162,-0.914339005947113,0.505216658115387,8609,1216
142728.306,0.0014165256870910525,-0.0022682773414999247,1.0,0.0823114663362503,0.01977781020104885,1.0169761180877686,37462.1796875,2.566739082336426,1.7045221328735352,0.0,10.789005279541016,15.713167190551758,-10.010010719299316,20964.953125,16650.0,18036.28125,16650.0,6184,0.7685716152191162,-0.914339005947113,0.505216658115387,8924,1729
142730.269,0.0014165256870910525,-0.0022682773414999247,1.0,0.0823114663362503,0.01977781020104885,1.0169761180877686,37462.1796875,2.566739082336426,1.7045221328735352,0.0,10.789005279541016,15.713167190551758,-10.01102066040039,21004.1484375,16650.0,18303.44921875,16650.0,-7358,0.7685716152191162,-0.914339005947113,0.505216658115387,8026,968
142732.29,0.0014165256870910525,-0.0022682773414999247,1.0,0.08210723102092743,0.019683999940752983,1.017042636871338,37462.1796875,2.566739082336426,1.7045221328735352,0.0,10.789005279541016,15.713167190551758,-10.012031555175781,21468.4765625,16650.0,18588.197265625,16650.0,23885,0.7685716152191162,-0.914339005947113,0.505216658115387,8629,1524
142734.22,0.0014165256870910525,-0.0022682773414999247,1.0,0.08210723102092743,0.019683999940752983,1.017042636871338,37462.1796875,2.566739082336426,1.7045221328735352,0.0,13.284750938415527,15.730971336364746,-11.433032035827637,23378.119140625,16650.0,19097.30859375,16650.0,31637,0.3526138663291931,-0.9173064231872559,0.5130618214607239,7939,1969
142736.264,0.0016956098843365908,-0.0027104585897177458,1.0,0.08210723102092743,0.019683999940752983,1.017042636871338,37486.91796875,2.5303921699523926,1.7384967803955078,0.0,13.066669464111328,15.934819221496582,-10.061155319213867,21254.255859375,16650.0,19268.12109375,16650.0,31930,0.3526138663291931,-0.9173064231872559,0.5130618214607239,7967,1157
142738.174,0.0016956098843365908,-0.0027104585897177458,1.0,0.08193204551935196,0.019633164629340172,1.0170049667358398,37486.91796875,2.5303921699523926,1.7384967803955078,0.0,13.066669464111328,15.934819221496582,-10.06218147277832,20945.24609375,16650.0,18881.380859375,16650.0,-19100,0.3526138663291931,-0.9173064231872559,0.5130618214607239,8747,1406
142740.159,0.0016956098843365908,-0.0027104585897177458,1.0,0.08193204551935196,0.019633164629340172,1.0170049667358398,37486.91796875,2.5303921699523926,1.7384967803955078,0.0,13.066669464111328,15.934819221496582,-10.063207626342773,19120.671875,16650.0,18820.54296875,16650.0,-10832,0.3526138663291931,-0.9173064231872559,0.5130618214607239,8377,2022
142742.19,0.0016956098843365908,-0.0027104585897177458,1.0,0.08168794959783554,0.01957017369568348,1.0170354843139648,37486.91796875,2.5303921699523926,1.7384967803955078,0.0,13.066669464111328,15.934819221496582,-10.064233779907227,18100.7109375,16650.0,18541.15234375,16650.0,15968,0.3526138663291931,-0.9173064231872559,0.5130618214607239,8149,1886
142744.11,0.0016956098843365908,-0.0027104585897177458,1.0,0.08168794959783554,0.01957017369568348,1.0170354843139648,37486.91796875,2.5303921699523926,1.7384967803955078,0.0,13.02318000793457,15.911713600158691,-9.99134635925293,17802.75390625,16650.0,18019.783203125,16650.0,3744,0.35986217856407166,-0.9134553670883179,0.5126534700393677,7396,3407
142746.154,0.002012584824115038,-0.0032109736930578947,1.0,0.08168794959783554,0.01957017369568348,1.0170354843139648,37493.09765625,2.5113165378570557,1.7716269493103027,0.0,14.602840423583984,16.167882919311523,-10.78116512298584,18866.2109375,16650.0,18610.322265625,16650.0,-27579,0.07750996947288513,-0.9230201840400696,0.5166165828704834,5762,2236
142748.08,0.002012584824115038,-0.0032109736930578947,1.0,0.08156309276819229,0.01951410621404648,1.0171297788619995,37493.09765625,2.5113165378570557,1.7716269493103027,0.0,14.602840423583984,16.167882919311523,-10.088653564453125,18004.96875,16650.0,19111.232421875,16650.0,22100,0.07750996947288513,-0.9230201840400696,0.5166165828704834,5213,675
142750.059,0.002012584824115038,-0.0032109736930578947,1.0,0.08156309276819229,0.01951410621404648,1.0171297788619995,37493.09765625,2.5113165378570557,1.7716269493103027,0.0,14.548619270324707,16.14657974243164,-10.152885437011719,17236.423828125,16650.0,19172.3203125,16650.0,12528,0.08654666692018509,-0.9194695353507996,0.5169657468795776,4849,1801
142752.076,0.002012584824115038,-0.0032109736930578947,1.0,0.08156309276819229,0.01951410621404648,1.0171297788619995,37493.09765625,2.5113165378570557,1.7716269493103027,0.0,14.548619270324707,16.14657974243164,-10.092816352844238,16270.796875,16650.0,19173.84765625,16650.0,17370,0.08654666692018509,-0.9194695353507996,0.5169657468795776,2721,1407
142754.005,0.002012584824115038,-0.0032109736930578947,1.0,0.08140896260738373,0.019490495324134827,1.0170289278030396,37493.09765625,2.5113165378570557,1.7716269493103027,0.0,14.548619270324707,16.14657974243164,-10.093850135803223,16188.4521484375,16650.0,19517.724609375,16650.0,1032,0.08654666692018509,-0.9194695353507996,0.5169657468795776,2880,2755
142756.048,0.0023713780101388693,-0.0037759270053356886,1.0,0.08140896260738373,0.019490495324134827,1.0170289278030396,37467.44921875,2.5041818618774414,1.808727741241455,0.0,15.098299026489258,16.3690185546875,-10.507146835327148,15880.24609375,16650.0,18991.79296875,16650.0,-9860,-0.012201258912682533,-0.9194422364234924,0.5192434191703796,-310,1436
142757.97,0.0023713780101388693,-0.0037759270053356886,1.0,0.08140896260738373,0.019490495324134827,1.0170289278030396,37467.44921875,2.5041818618774414,1.808727741241455,0.0,15.098299026489258,16.3690185546875,-10.10959243774414,14047.568359375,16650.0,18164.1015625,16650.0,5016,-0.012201258912682533,-0.9194422364234924,0.5192434191703796,1850,3393
142759.941,0.0023713780101388693,-0.0037759270053356886,1.0,0.08130349963903427,0.019379954785108566,1.0169763565063477,37467.44921875,2.5041818618774414,1.808727741241455,0.0,15.098299026489258,16.3690185546875,-10.110631942749023,13662.59375,16650.0,19273.982421875,16650.0,4176,-0.012201258912682533,-0.9194422364234924,0.5192434191703796,2710,2028
142761.969,0.0023713780101388693,-0.0037759270053356886,1.0,0.08130349963903427,0.019379954785108566,1.0169763565063477,37467.44921875,2.5041818618774414,1.808727741241455,0.0,15.06268310546875,16.34435272216797,-10.090470314025879,14489.5400390625,16647.630859375,19612.576171875,16650.0,24014,-0.006265462376177311,-0.9153311252593994,0.519126296043396,1065,1408
142763.908,0.0023713780101388693,-0.0037759270053356886,1.0,0.08130349963903427,0.019379954785108566,1.0169763565063477,37467.44921875,2.5041818618774414,1.808727741241455,0.0,14.568463325500488,16.460771560668945,-9.903257369995117,14216.720703125,16642.421875,19104.005859375,16650.0,5686,0.07610462605953217,-0.9347341656684875,0.517973005771637,-53,-513
142765.946,0.002774259075522423,-0.004407954402267933,1.0,0.08133378624916077,0.019320346415042877,1.0170515775680542,37450.609375,2.4750847816467285,1.8678323030471802,0.0,14.393880844116211,16.815399169921875,-10.106119155883789,14099.375,16634.701171875,19752.486328125,16650.0,23281,0.07610462605953217,-0.9347341656684875,0.517973005771637,-2509,-47
142767.866,0.002774259075522423,-0.004407954402267933,1.0,0.08133378624916077,0.019320346415042877,1.0170515775680542,37450.609375,2.4750847816467285,1.8678323030471802,0.0,14.344413757324219,16.794750213623047,-10.208536148071289,13890.34765625,16624.62109375,20038.060546875,16650.0,8316,0.08434919267892838,-0.9312928318977356,0.5185331106185913,-365,1947
142769.841,0.002774259075522423,-0.004407954402267933,1.0,0.08133378624916077,0.019320346415042877,1.0170515775680542,37450.609375,2.4750847816467285,1.8678323030471802,0.0,14.344413757324219,16.794750213623047,-10.111554145812988,12943.6787109375,16611.330078125,19147.0234375,16650.0,21652,0.08434919267892838,-0.9312928318977356,0.5185331106185913,-1761,3731
142771.866,0.002774259075522423,-0.004407954402267933,1.0,0.08120222389698029,0.019265994429588318,1.0169962644577026,37450.609375,2.4750847816467285,1.8678323030471802,0.0,14.344413757324219,16.794750213623047,-10.112591743469238,12010.826171875,16594.142578125,17972.76953125,16650.0,4560,0.08434919267892838,-0.9312928318977356,0.5185331106185913,-1620,3257
142773.804,0.002774259075522423,-0.004407954402267933,1.0,0.08120222389698029,0.019265994429588318,1.0169962644577026,37450.609375,2.4750847816467285,1.8678323030471802,0.0,12.844343185424805,16.97871971130371,-9.347726821899414,11112.978515625,16572.54296875,18171.599609375,16650.0,20574,0.334360808134079,-0.9619542956352234,0.5143016576766968,-1932,3942
142775.848,0.0032256669364869595,-0.005113592371344566,1.0,0.08112736791372299,0.019207146018743515,1.0168514251708984,37505.33203125,2.4663491249084473,1.9129536151885986,0.0,12.791929244995117,17.249446868896484,-10.08926010131836,12342.83984375,16548.93359375,18928.939453125,16650.0,14536,0.334360808134079,-0.9619542956352234,0.5143016576766968,-2588,2583
142777.763,0.0032256669364869595,-0.005113592371344566,1.0,0.08112736791372299,0.019207146018743515,1.0168514251708984,37505.33203125,2.4663491249084473,1.9129536151885986,0.0,12.791929244995117,17.249446868896484,-10.090288162231445,12971.55078125,16524.521484375,19592.84765625,16650.0,-419,0.334360808134079,-0.9619542956352234,0.5143016576766968,-3357,4100
142779.742,0.0032256669364869595,-0.005113592371344566,1.0,0.08112736791372299,0.019207146018743515,1.0168514251708984,37505.33203125,2.4663491249084473,1.9129536151885986,0.0,12.791929244995117,17.249446868896484,-10.091317176818848,13232.7373046875,16499.822265625,19460.1640625,16650.0,-28736,0.334360808134079,-0.9619542956352234,0.5143016576766968,-3555,2289
142781.763,0.0032256669364869595,-0.005113592371344566,1.0,0.08109365403652191,0.019153466448187828,1.016998052597046,37505.33203125,2.4663491249084473,1.9129536151885986,0.0,12.791929244995117,17.249446868896484,-10.092345237731934,13737.767578125,16475.58984375,19386.67578125,16650.0,-21382,0.334360808134079,-0.9619542956352234,0.5143016576766968,-4427,1404
142783.702,0.0032256669364869595,-0.005113592371344566,1.0,0.08109365403652191,0.019153466448187828,1.016998052597046,37505.33203125,2.4663491249084473,1.9129536151885986,0.0,10.613567352294922,17.353254318237305,-9.272494316101074,12052.087890625,16449.53125,19082.884765625,16650.0,17033,0.6974211931228638,-0.9792554974555969,0.5097664594650269,-3677,2584
142785.735,0.003727396484464407,-0.005895306821912527,1.0,0.08093462139368057,0.019118182361125946,1.0167701244354248,37548.4140625,2.4524593353271484,1.9632288217544556,0.0,10.530228614807129,17.6549072265625,-10.06717300415039,12579.37109375,16422.693359375,19164.361328125,16650.0,-15657,0.6974211931228638,-0.9792554974555969,0.5097664594650269,-3560,3013
142787.649,0.003727396484464407,-0.005895306821912527,1.0,0.08093462139368057,0.019118182361125946,1.0167701244354248,37548.4140625,2.4524593353271484,1.9632288217544556,0.0,10.488059997558594,17.630245208740234,-10.05400562286377,12507.984375,16395.14453125,18697.61328125,16650.0,18196,0.704449474811554,-0.9751452207565308,0.5096880793571472,-2742,4101
142789.631,0.003727396484464407,-0.005895306821912527,1.0,0.08093462139368057,0.019118182361125946,1.0167701244354248,37548.4140625,2.4524593353271484,1.9632288217544556,0.0,10.488059997558594,17.630245208740234,-10.068741798400879,12705.4140625,16367.3056640625,18165.431640625,16650.0,-20177,0.704449474811554,-0.9751452207565308,0.5096880793571472,-3554,2952
142791.655,0.003727396484464407,-0.005895306821912527,1.0,0.08081045746803284,0.019020088016986847,1.0166808366775513,37548.4140625,2.4524593353271484,1.9632288217544556,0.0,10.488059997558594,17.630245208740234,-10.069761276245117,13622.7197265625,16340.482421875,18294.849609375,16650.0,-13186,0.704449474811554,-0.9751452207565308,0.5096880793571472,-3719,4065
142793.589,0.003727396484464407,-0.005895306821912527,1.0,0.08081045746803284,0.019020088016986847,1.0166808366775513,37548.4140625,2.4524593353271484,1.9632288217544556,0.0,10.488059997558594,17.630245208740234,-10.070780754089355,14465.7724609375,16315.662109375,18539.376953125,16650.0,-25884,0.704449474811554,-0.9751452207565308,0.5096880793571472,-2877,2855
142795.634,0.004284150432795286,-0.006758266128599644,1.0,0.08081045746803284,0.019020088016986847,1.0166808366775513,37564.84765625,2.4041433334350586,2.0246543884277344,0.0,7.674675941467285,18.063507080078125,-8.021132469177246,12352.3037109375,16289.73046875,19078.240234375,16650.0,16528,1.1250306367874146,-0.9859300851821899,0.4983585476875305,-3104,925
142797.545,0.004284150432795286,-0.006758266128599644,1.0,0.08095474541187286,0.01892746426165104,1.0166186094284058,37564.84765625,2.4041433334350586,2.0246543884277344,0.0,7.674675941467285,18.063507080078125,-10.004796981811523,14524.9130859375,16265.798828125,18864.724609375,16650.0,19680,1.1250306367874146,-0.9859300851821899,0.4983585476875305,-3589,2541
142799.528,0.004284150432795286,-0.006758266128599644,1.0,0.08095474541187286,0.01892746426165104,1.0166186094284058,37564.84765625,2.4041433334350586,2.0246543884277344,0.0,7.674675941467285,18.063507080078125,-10.005793571472168,14365.6240234375,16243.3505859375,18220.369140625,16650.0,-17754,1.1250306367874146,-0.9859300851821899,0.4983585476875305,-3194,1407
142801.55,0.004284150432795286,-0.006758266128599644,1.0,0.08095474541187286,0.01892746426165104,1.0166186094284058,37564.84765625,2.4041433334350586,2.0246543884277344,0.0,7.674675941467285,18.063507080078125,-10.006790161132812,14472.859375,16222.3125,17724.5546875,16650.0,31650,1.1250306367874146,-0.9859300851821899,0.4983585476875305,-3375,905
142803.483,0.004284150432795286,-0.006758266128599644,1.0,0.08080681413412094,0.018887097015976906,1.016542673110962,37564.84765625,2.4041433334350586,2.0246543884277344,0.0,7.674675941467285,18.063507080078125,-10.007786750793457,15434.5859375,16203.755859375,18041.771484375,16650.0,-3896,1.1250306367874146,-0.9859300851821899,0.4983585476875305,-2750,161
142805.521,0.004900348372757435,-0.007708558347076178,1.0,0.08080681413412094,0.018887097015976906,1.016542673110962,37524.9921875,2.3405747413635254,2.091043710708618,0.0,5.24815559387207,18.35494613647461,-7.0429816246032715,14259.8916015625,16185.724609375,17951.193359375,16650.0,-11176,1.4658821821212769,-0.9681139588356018,0.4819730818271637,-2740,2267
142807.44,0.004900348372757435,-0.007708558347076178,1.0,0.08071494102478027,0.01887073926627636,1.0165257453918457,37524.9921875,2.3405747413635254,2.091043710708618,0.0,5.24815559387207,18.35494613647461,-9.911401748657227,16689.3359375,16171.388671875,17487.15625,16650.0,24058,1.4658821821212769,-0.9681139588356018,0.4819730818271637,-2690,633
142809.418,0.004900348372757435,-0.007708558347076178,1.0,0.08071494102478027,0.01887073926627636,1.0165257453918457,37524.9921875,2.3405747413635254,2.091043710708618,0.0,5.24815559387207,18.35494613647461,-9.91236686706543,17559.060546875,16161.3046875,17804.57421875,16650.0,-2190,1.4658821821212769,-0.9681139588356018,0.4819730818271637,-2155,1584
142811.441,0.004900348372757435,-0.007708558347076178,1.0,0.08071494102478027,0.01887073926627636,1.0165257453918457,37524.9921875,2.3405747413635254,2.091043710708618,0.0,5.24815559387207,18.35494613647461,-9.913330078125,17795.0078125,16155.0888671875,18104.755859375,16650.0,-1428,1.4658821821212769,-0.9681139588356018,0.4819730818271637,-2179,286
142813.384,0.004900348372757435,-0.007708558347076178,1.0,0.0805973932147026,0.018827958032488823,1.0165119171142578,37524.9921875,2.3405747413635254,2.091043710708618,0.0,5.24815559387207,18.35494613647461,-9.914295196533203,17936.66796875,16152.2861328125,18281.056640625,16650.0,2873,1.4658821821212769,-0.9681139588356018,0.4819730818271637,-1540,1338
142815.415,0.005574519746005535,-0.00874974112957716,1.0,0.0805973932147026,0.018827958032488823,1.0165119171142578,37511.59375,2.3734991550445557,2.1061172485351562,0.0,5.445701599121094,18.44538688659668,-9.915258407592773,18144.423828125,16152.6083984375,17830.787109375,16650.0,-25912,1.4658821821212769,-0.9681139588356018,0.4819730818271637,-581,-441
142817.337,0.005574519746005535,-0.00874974112957716,1.0,0.0805973932147026,0.018827958032488823,1.0165119171142578,37511.59375,2.3734991550445557,2.1061172485351562,0.0,4.417631149291992,18.066299438476562,-6.648314476013184,16625.474609375,16153.5048828125,16465.65234375,16650.0,-7526,1.6372272968292236,-0.9049326777458191,0.463918536901474,355,-875
142819.318,0.005574519746005535,-0.00874974112957716,1.0,0.0805710181593895,0.019000284373760223,1.0166127681732178,37511.59375,2.3734991550445557,2.1061172485351562,0.0,4.417631149291992,18.066299438476562,-9.80878734588623,18039.025390625,16156.7626953125,16322.2783203125,16650.0,7973,1.6372272968292236,-0.9049326777458191,0.463918536901474,1397,56
142821.343,0.005574519746005535,-0.00874974112957716,1.0,0.0805710181593895,0.019000284373760223,1.0166127681732178,37511.59375,2.3734991550445557,2.1061172485351562,0.0,4.417631149291992,18.066299438476562,-9.809715270996094,20419.890625,16165.1494140625,17686.7265625,16650.0,-32215,1.6372272968292236,-0.9049326777458191,0.463918536901474,1547,-304
142823.272,0.005574519746005535,-0.00874974112957716,1.0,0.0805710181593895,0.019000284373760223,1.0166127681732178,37511.59375,2.3734991550445557,2.1061172485351562,0.0,4.417631149291992,18.066299438476562,-9.810643196105957,21578.31640625,16179.3388671875,18484.822265625,16650.0,-20410,1.6372272968292236,-0.9049326777458191,0.463918536901474,3976,-2773
142825.311,0.00631718197837472,-0.009886424988508224,1.0,0.0804668664932251,0.01881168596446514,1.0166301727294922,37537.125,2.263387680053711,2.2003173828125,0.0,3.756962299346924,18.631500244140625,-9.81157112121582,20639.703125,16197.0859375,18701.3359375,16650.0,15580,1.6372272968292236,-0.9049326777458191,0.463918536901474,2943,-841
142827.237,0.00631718197837472,-0.009886424988508224,1.0,0.0804668664932251,0.01881168596446514,1.0166301727294922,37537.125,2.263387680053711,2.2003173828125,0.0,3.9429681301116943,18.024824142456055,-6.0022172927856445,20105.65234375,16217.060546875,16789.025390625,16650.0,14970,1.6062263250350952,-0.8038198351860046,0.4428674876689911,3833,-2125
142829.216,0.00631718197837472,-0.009886424988508224,1.0,0.0804668664932251,0.01881168596446514,1.0166301727294922,37537.125,2.263387680053711,2.2003173828125,0.0,3.9429681301116943,18.024824142456055,-9.687036514282227,19928.234375,16238.625,16490.3828125,16650.0,-10033,1.6062263250350952,-0.8038198351860046,0.4428674876689911,4021,-396
142831.231,0.00631718197837472,-0.009886424988508224,1.0,0.08010928332805634,0.018664859235286713,1.0166345834732056,37537.125,2.263387680053711,2.2003173828125,0.0,3.9429681301116943,18.024824142456055,-9.687922477722168,21868.462890625,16264.06640625,17458.275390625,16650.0,-1111,1.6062263250350952,-0.8038198351860046,0.4428674876689911,3989,-304
142833.165,0.00631718197837472,-0.009886424988508224,1.0,0.08010928332805634,0.018664859235286713,1.0166345834732056,37537.125,2.263387680053711,2.2003173828125,0.0,3.975407838821411,17.990083694458008,-9.887458801269531,22901.259765625,16294.0791015625,18761.90234375,16650.0,22196,1.600819706916809,-0.7980297803878784,0.44396498799324036,4409,-409
142835.217,0.007128788623958826,-0.011122901923954487,1.0,0.08009281009435654,0.01865127682685852,1.0165026187896729,37562.87890625,2.179966926574707,2.2762763500213623,0.0,3.4748833179473877,18.44583511352539,-9.696283340454102,21777.888671875,16326.3564453125,18987.427734375,16650.0,4870,1.600819706916809,-0.7980297803878784,0.44396498799324036,4893,-176
142837.123,0.007128788623958826,-0.011122901923954487,1.0,0.08009281009435654,0.01865127682685852,1.0165026187896729,37562.87890625,2.179966926574707,2.2762763500213623,0.0,3.4748833179473877,18.44583511352539,-9.697171211242676,21811.51953125,16360.5234375,18396.408203125,16650.0,23864,1.600819706916809,-0.7980297803878784,0.44396498799324036,6460,648
142839.102,0.007128788623958826,-0.011122901923954487,1.0,0.08009281009435654,0.01865127682685852,1.0165026187896729,37562.87890625,2.179966926574707,2.2762763500213623,0.0,4.927957534790039,17.80093765258789,-5.495365619659424,23748.759765625,16398.796875,18322.921875,16650.0,25778,1.3586406707763672,-0.6905468106269836,0.42074593901634216,5680,616
142841.131,0.007128788623958826,-0.011122901923954487,1.0,0.07993821799755096,0.01855367049574852,1.016467809677124,37562.87890625,2.179966926574707,2.2762763500213623,0.0,4.927957534790039,17.80093765258789,-9.559539794921875,23372.91796875,16439.93359375,18787.26171875,16650.0,200,1.3586406707763672,-0.6905468106269836,0.42074593901634216,9480,1377
142843.061,0.007128788623958826,-0.011122901923954487,1.0,0.07993821799755096,0.01855367049574852,1.016467809677124,37562.87890625,2.179966926574707,2.2762763500213623,0.0,4.927957534790039,17.80093765258789,-9.560381889343262,22823.150390625,16482.669921875,18763.873046875,16650.0,-11736,1.3586406707763672,-0.6905468106269836,0.42074593901634216,7515,1007
142845.102,0.008011882193386555,-0.01246121246367693,1.0,0.07993821799755096,0.01855367049574852,1.016467809677124,37555.78125,2.094153881072998,2.351515054702759,0.0,4.413079261779785,18.252370834350586,-9.561223983764648,22052.240234375,16525.65234375,18872.9453125,16650.0,15810,1.3586406707763672,-0.6905468106269836,0.42074593901634216,7965,2023
142847.018,0.008011882193386555,-0.01246121246367693,1.0,0.07985734939575195,0.018522312864661217,1.0166065692901611,37555.78125,2.094153881072998,2.351515054702759,0.0,4.413079261779785,18.252370834350586,-9.562065124511719,22071.810546875,16568.806640625,18677.7734375,16650.0,15478,1.3586406707763672,-0.6905468106269836,0.42074593901634216,8442,2655
142848.998,0.008011882193386555,-0.01246121246367693,1.0,0.07985734939575195,0.018522312864661217,1.0166065692901611,37555.78125,2.094153881072998,2.351515054702759,0.0,6.789506912231445,17.890092849731445,-6.413008689880371,24369.1015625,16615.109375,19343.26171875,16650.0,21031,0.9625693559646606,-0.6301670074462891,0.4033433794975281,8146,1195
142851.022,0.008011882193386555,-0.01246121246367693,1.0,0.07985734939575195,0.018522312864661217,1.0166065692901611,37555.78125,2.094153881072998,2.351515054702759,0.0,6.789506912231445,17.890092849731445,-9.45926284790039,23693.03515625,16650.0,20340.056640625,16650.0,-28650,0.9625693559646606,-0.6301670074462891,0.4033433794975281,8270,959
142852.96,0.008011882193386555,-0.01246121246367693,1.0,0.07955233752727509,0.018643172457814217,1.0167505741119385,37555.78125,2.094153881072998,2.351515054702759,0.0,6.789506912231445,17.890092849731445,-9.46006965637207,22781.24609375,16650.0,20094.46484375,16650.0,14414,0.9625693559646606,-0.6301670074462891,0.4033433794975281,7705,1407
142854.996,0.008969219401478767,-0.013908821158111095,1.0,0.07955233752727509,0.018643172457814217,1.0167505741119385,37635.1796875,1.9745211601257324,2.4468231201171875,0.0,6.071710586547852,18.46194076538086,-9.46087646484375,21008.1484375,16650.0,19770.0390625,16650.0,27839,0.9625693559646606,-0.6301670074462891,0.4033433794975281,8957,3164
142856.919,0.008969219401478767,-0.013908821158111095,1.0,0.07955233752727509,0.018643172457814217,1.0167505741119385,37635.1796875,1.9745211601257324,2.4468231201171875,0.0,6.0299763679504395,18.43724822998047,-9.688674926757812,21805.689453125,16650.0,19667.97265625,16650.0,14638,0.9695250391960144,-0.6260514855384827,0.4045974612236023,8730,1823
142858.892,0.008969219401478767,-0.013908821158111095,1.0,0.07925207167863846,0.018540458753705025,1.0170758962631226,37635.1796875,1.9745211601257324,2.4468231201171875,0.0,6.0299763679504395,18.43724822998047,-9.470020294189453,22374.4296875,16650.0,20645.1328125,16650.0,25118,0.9695250391960144,-0.6260514855384827,0.4045974612236023,8314,2630
