timestamp,posCtl.targetX,posCtl.targetY,posCtl.targetZ,locSrv.x,locSrv.y,locSrv.z,controller.actuatorThrust,controller.pitch,controller.roll,controller.yaw,pid_attitude.pitch_output,pid_attitude.roll_output,pid_attitude.yaw_output,pid_rate.pitch_output,pid_rate.pitch_outI,pid_rate.roll_output,pid_rate.roll_outI,pid_rate.yaw_output,stateEstimate.pitch,stateEstimate.roll,stateEstimate.yaw,snn_control.torque_pitch,snn_control.torque_roll
174153.191,2.1698589591778727e-08,-2.3615503152996098e-07,1.0,0.042264290153980255,0.0495130680501461,1.0151455402374268,37506.28515625,-0.2533106803894043,3.3664019107818604,0.0,2.1344594955444336,22.716686248779297,0.03343665599822998,13545.935546875,16642.203125,18794.94921875,16650.0,-22374,-0.609053909778595,-0.41971227526664734,-0.3212394714355469,-93,1528
174155.106,2.1698589591778727e-08,-2.3615503152996098e-07,1.0,0.042264290153980255,0.0495130680501461,1.0151455402374268,37506.28515625,-0.2533106803894043,3.3664019107818604,0.0,2.0504279136657715,22.691131591796875,-0.05307638645172119,12619.173828125,16632.021484375,19001.447265625,16650.0,10410,-0.5950486660003662,-0.4154531955718994,-0.3207579553127289,209,3666
174157.084,2.1698589591778727e-08,-2.3615503152996098e-07,1.0,0.042264290153980255,0.0495130680501461,1.0151455402374268,37506.28515625,-0.2533106803894043,3.3664019107818604,0.0,1.8954226970672607,22.680007934570312,0.5923663377761841,12663.828125,16618.265625,18885.412109375,16650.0,8646,-0.5692144632339478,-0.4135994017124176,-0.32385480403900146,-1164,2209
174159.106,2.1698589591778727e-08,-2.3615503152996098e-07,1.0,0.041979074478149414,0.04938653111457825,1.015064001083374,37506.28515625,-0.2533106803894043,3.3664019107818604,0.0,1.8954226970672607,22.680007934570312,0.05106544494628906,13425.384765625,16602.56640625,18911.26171875,16650.0,7517,-0.5692144632339478,-0.4135994017124176,-0.32385480403900146,-1644,2371
174161.049,2.1698589591778727e-08,-2.3615503152996098e-07,1.0,0.041979074478149414,0.04938653111457825,1.015064001083374,37506.28515625,-0.2533106803894043,3.3664019107818604,0.0,1.818518042564392,22.652179718017578,-0.09822630882263184,13678.3818359375,16585.60546875,19486.662109375,16650.0,21,-0.556397020816803,-0.40896132588386536,-0.3230264186859131,-2548,1365
174163.096,2.740453339811211e-07,-6.412277571143932e-07,1.0,0.041979074478149414,0.04938653111457825,1.015064001083374,37512.20703125,-0.2584441900253296,3.3475210666656494,0.0,1.7877169847488403,22.538894653320312,0.047387123107910156,12926.740234375,16566.619140625,19045.83984375,16650.0,13724,-0.556397020816803,-0.40896132588386536,-0.3230264186859131,-2098,1290
174164.999,2.740453339811211e-07,-6.412277571143932e-07,1.0,0.04161429405212402,0.04933366924524307,1.0151307582855225,37512.20703125,-0.2584441900253296,3.3475210666656494,0.0,1.7877169847488403,22.538894653320312,0.04803311824798584,12466.9140625,16545.361328125,18225.005859375,16650.0,-20063,-0.556397020816803,-0.40896132588386536,-0.3230264186859131,-2733,3354
174166.979,2.740453339811211e-07,-6.412277571143932e-07,1.0,0.04161429405212402,0.04933366924524307,1.0151307582855225,37512.20703125,-0.2584441900253296,3.3475210666656494,0.0,0.6328266263008118,22.37432861328125,1.0942901372909546,11709.9638671875,16521.228515625,17772.3828125,16650.0,7112,-0.3639152944087982,-0.381533682346344,-0.3288032114505768,-2194,949
174169.006,2.740453339811211e-07,-6.412277571143932e-07,1.0,0.04161429405212402,0.04933366924524307,1.0151307582855225,37512.20703125,-0.2584441900253296,3.3475210666656494,0.0,0.6328266263008118,22.37432861328125,0.08400905132293701,12816.9345703125,16496.21484375,18415.4765625,16650.0,27860,-0.3639152944087982,-0.381533682346344,-0.3288032114505768,-2520,1599
174170.969,2.740453339811211e-07,-6.412277571143932e-07,1.0,0.04127531871199608,0.0492490753531456,1.015097737312317,37512.20703125,-0.2584441900253296,3.3475210666656494,0.0,0.6328266263008118,22.37432861328125,0.08466660976409912,13442.736328125,16471.330078125,19306.2578125,16650.0,-19100,-0.3639152944087982,-0.381533682346344,-0.3288032114505768,-3463,2418
174172.979,1.1144072686875006e-06,-1.9870371943397913e-06,1.0,0.04127531871199608,0.0492490753531456,1.015097737312317,37495.4140625,-0.2532549500465393,3.3265905380249023,0.0,0.6307616829872131,22.213960647583008,-0.08956921100616455,13786.39453125,16447.046875,19251.08984375,16650.0,-24669,-0.35838189721107483,-0.37573620676994324,-0.3278369605541229,-1934,644
174174.9,1.1144072686875006e-06,-1.9870371943397913e-06,1.0,0.04080606997013092,0.04924629628658295,1.0151206254959106,37495.4140625,-0.2532549500465393,3.3265905380249023,0.0,0.6307616829872131,22.213960647583008,0.08018028736114502,13715.7578125,16423.19921875,18810.61328125,16650.0,-8348,-0.35838189721107483,-0.37573620676994324,-0.3278369605541229,-3238,579
174176.874,1.1144072686875006e-06,-1.9870371943397913e-06,1.0,0.04080606997013092,0.04924629628658295,1.0151206254959106,37495.4140625,-0.2532549500465393,3.3265905380249023,0.0,0.6307616829872131,22.213960647583008,0.08083593845367432,13167.091796875,16399.017578125,18161.322265625,16650.0,-5850,-0.35838189721107483,-0.37573620676994324,-0.3278369605541229,-2789,1799
174178.896,1.1144072686875006e-06,-1.9870371943397913e-06,1.0,0.04080606997013092,0.04924629628658295,1.0151206254959106,37495.4140625,-0.2532549500465393,3.3265905380249023,0.0,-0.9104259610176086,21.898256301879883,1.3345988988876343,11909.912109375,16372.9150390625,18284.0546875,16650.0,-25352,-0.10151728987693787,-0.3231189548969269,-0.3347601294517517,-2030,778
174180.834,1.1144072686875006e-06,-1.9870371943397913e-06,1.0,0.04040868580341339,0.04914059489965439,1.0148221254348755,37495.4140625,-0.2532549500465393,3.3265905380249023,0.0,-0.9104259610176086,21.898256301879883,0.12371385097503662,13747.6328125,16347.6962890625,18761.578125,16650.0,2102,-0.10151728987693787,-0.3231189548969269,-0.3347601294517517,-3091,1245
174182.878,3.094071189480019e-06,-5.149354365130421e-06,1.0,0.04040868580341339,0.04914059489965439,1.0148221254348755,37458.46484375,-0.2508520483970642,3.3051772117614746,0.0,-0.9664181470870972,21.745424270629883,0.20165646076202393,14628.875,16324.4208984375,19257.78125,16650.0,23096,-0.08978236466646194,-0.3190601170063019,-0.33518704771995544,-1978,718
174184.796,3.094071189480019e-06,-5.149354365130421e-06,1.0,0.04040868580341339,0.04914059489965439,1.0148221254348755,37458.46484375,-0.2508520483970642,3.3051772117614746,0.0,-0.9664181470870972,21.745424270629883,0.127616286277771,14579.7119140625,16302.7265625,18655.888671875,16650.0,-522,-0.08978236466646194,-0.3190601170063019,-0.33518704771995544,-2504,1701
174186.773,3.094071189480019e-06,-5.149354365130421e-06,1.0,0.04015873000025749,0.04902312532067299,1.0148292779922485,37458.46484375,-0.2508520483970642,3.3051772117614746,0.0,-2.40956974029541,21.442852020263672,1.419715166091919,13707.68359375,16281.2177734375,18078.63671875,16650.0,31648,0.15074291825294495,-0.2686314880847931,-0.3423219323158264,-2535,599
174188.792,3.094071189480019e-06,-5.149354365130421e-06,1.0,0.04015873000025749,0.04902312532067299,1.0148292779922485,37458.46484375,-0.2508520483970642,3.3051772117614746,0.0,-2.470273017883301,21.415664672851562,0.2737847566604614,15332.2431640625,16262.052734375,18695.0859375,16650.0,-29332,0.1608601212501526,-0.26410025358200073,-0.34288540482521057,-2310,1682
174190.737,3.094071189480019e-06,-5.149354365130421e-06,1.0,0.03972421959042549,0.04893270507454872,1.0147215127944946,37458.46484375,-0.2508520483970642,3.3051772117614746,0.0,-2.470273017883301,21.415664672851562,0.17586278915405273,15234.2939453125,16244.7353515625,18551.45703125,16650.0,-13279,0.1608601212501526,-0.26410025358200073,-0.34288540482521057,-2971,2518
174192.769,6.9473471739911474e-06,-1.128879921452608e-05,1.0,0.03972421959042549,0.04893270507454872,1.0147215127944946,37435.328125,-0.2787017226219177,3.302644729614258,0.0,-2.637371063232422,21.400470733642578,0.17654860019683838,15373.6669921875,16229.1640625,18405.76953125,16650.0,-22345,0.1608601212501526,-0.26410025358200073,-0.34288540482521057,-1275,745
174194.683,6.9473471739911474e-06,-1.128879921452608e-05,1.0,0.03972421959042549,0.04893270507454872,1.0147215127944946,37435.328125,-0.2787017226219177,3.302644729614258,0.0,-2.677060127258301,21.369800567626953,0.29015278816223145,15870.330078125,16215.7265625,17809.216796875,16650.0,-3369,0.16747495532035828,-0.2589889466762543,-0.3435092568397522,-2031,-817
174196.668,6.9473471739911474e-06,-1.128879921452608e-05,1.0,0.039437998086214066,0.04880905896425247,1.0147089958190918,37435.328125,-0.2787017226219177,3.302644729614258,0.0,-3.659349203109741,21.043664932250977,1.5109131336212158,15449.9423828125,16203.5234375,18491.6328125,16650.0,-12715,0.3311898410320282,-0.2046326994895935,-0.3508530855178833,-1835,780
174198.69,6.9473471739911474e-06,-1.128879921452608e-05,1.0,0.039437998086214066,0.04880905896425247,1.0147089958190918,37435.328125,-0.2787017226219177,3.302644729614258,0.0,-3.659349203109741,21.043664932250977,0.22644495964050293,17432.6953125,16195.005859375,19650.451171875,16650.0,-9803,0.3311898410320282,-0.2046326994895935,-0.3508530855178833,-1969,183
174200.625,6.9473471739911474e-06,-1.128879921452608e-05,1.0,0.039437998086214066,0.04880905896425247,1.0147089958190918,37435.328125,-0.2787017226219177,3.302644729614258,0.0,-3.659349203109741,21.043664932250977,0.22714662551879883,17155.357421875,16189.1953125,18607.251953125,16650.0,-24486,0.3311898410320282,-0.2046326994895935,-0.3508530855178833,-703,2648
174202.665,1.3597191355074756e-05,-2.185639641538728e-05,1.0,0.03907691687345505,0.04876101762056351,1.014731764793396,37472.66796875,-0.2896174192428589,3.2737133502960205,0.0,-3.724843740463257,20.87007713317871,0.22784829139709473,16947.01953125,16185.369140625,17851.0,16650.0,-29616,0.3311898410320282,-0.2046326994895935,-0.3508530855178833,-552,550
174204.582,1.3597191355074756e-05,-2.185639641538728e-05,1.0,0.03907691687345505,0.04876101762056351,1.014731764793396,37472.66796875,-0.2896174192428589,3.2737133502960205,0.0,-3.724843740463257,20.87007713317871,0.22854995727539062,17913.92578125,16184.486328125,18301.833984375,16650.0,-26839,0.3311898410320282,-0.2046326994895935,-0.3508530855178833,-234,-228
174206.557,1.3597191355074756e-05,-2.185639641538728e-05,1.0,0.03907691687345505,0.04876101762056351,1.014731764793396,37472.66796875,-0.2896174192428589,3.2737133502960205,0.0,-4.002255916595459,20.52375602722168,-0.150732159614563,18609.751953125,16186.9814453125,18948.56640625,16650.0,16499,0.37742525339126587,-0.14691248536109924,-0.34875375032424927,275,-512
174208.584,1.3597191355074756e-05,-2.185639641538728e-05,1.0,0.038666144013404846,0.04869959130883217,1.0147500038146973,37472.66796875,-0.2896174192428589,3.2737133502960205,0.0,-4.002255916595459,20.52375602722168,0.21734905242919922,18700.017578125,16192.4033203125,18998.55078125,16650.0,10519,0.37742525339126587,-0.14691248536109924,-0.34875375032424927,1518,943
174210.521,1.3597191355074756e-05,-2.185639641538728e-05,1.0,0.038666144013404846,0.04869959130883217,1.0147500038146973,37472.66796875,-0.2896174192428589,3.2737133502960205,0.0,-4.022902965545654,20.489334106445312,0.3512367010116577,19077.330078125,16200.7578125,18553.787109375,16650.0,-8827,0.3808663785457611,-0.14117540419101715,-0.34948959946632385,1211,-368
174212.557,2.4100541850202717e-05,-3.851781730190851e-05,1.0,0.038666144013404846,0.04869959130883217,1.0147500038146973,37509.41015625,-0.30506622791290283,3.242810010910034,0.0,-4.115595817565918,20.303913116455078,0.22316193580627441,19787.17578125,16212.486328125,18802.05078125,16650.0,-11457,0.3808663785457611,-0.14117540419101715,-0.34948959946632385,3744,299
174214.475,2.4100541850202717e-05,-3.851781730190851e-05,1.0,0.03834295645356178,0.048562657088041306,1.0146631002426147,37509.41015625,-0.30506622791290283,3.242810010910034,0.0,-4.115595817565918,20.303913116455078,0.22386085987091064,20084.79296875,16227.4033203125,19775.5859375,16650.0,-3803,0.3808663785457611,-0.14117540419101715,-0.34948959946632385,1828,-140
174216.461,2.4100541850202717e-05,-3.851781730190851e-05,1.0,0.03834295645356178,0.048562657088041306,1.0146631002426147,37509.41015625,-0.30506622791290283,3.242810010910034,0.0,-3.5176141262054443,19.99734115600586,-2.258340835571289,20861.091796875,16245.9873046875,19821.892578125,16650.0,4520,0.2812028229236603,-0.09008009731769562,-0.3357720673084259,2854,704
174218.484,2.4100541850202717e-05,-3.851781730190851e-05,1.0,0.03834295645356178,0.048562657088041306,1.0146631002426147,37509.41015625,-0.30506622791290283,3.242810010910034,0.0,-3.5176141262054443,19.99734115600586,0.14289867877960205,21093.12890625,16267.90625,20076.32421875,16650.0,3126,0.2812028229236603,-0.09008009731769562,-0.3357720673084259,3764,871
174220.416,2.4100541850202717e-05,-3.851781730190851e-05,1.0,0.03777718544006348,0.0485958568751812,1.0149595737457275,37509.41015625,-0.30506622791290283,3.242810010910034,0.0,-3.5176141262054443,19.99734115600586,0.1435701847076416,21875.2265625,16293.615234375,19914.23046875,16650.0,13789,0.2812028229236603,-0.09008009731769562,-0.3357720673084259,3342,2063
174222.452,3.972984995925799e-05,-6.328382005449384e-05,1.0,0.03777718544006348,0.0485958568751812,1.0149595737457275,37491.70703125,-0.35039204359054565,3.2160415649414062,0.0,-3.898027181625366,19.828752517700195,0.312219500541687,21213.83203125,16321.5615234375,19472.99609375,16650.0,-5948,0.2992791533470154,-0.08875049650669098,-0.33670011162757874,5313,1476
174224.378,3.972984995925799e-05,-6.328382005449384e-05,1.0,0.03738737851381302,0.048485804349184036,1.0149335861206055,37491.70703125,-0.35039204359054565,3.2160415649414062,0.0,-3.898027181625366,19.828752517700195,0.15048527717590332,21219.888671875,16351.3427734375,19819.0078125,16650.0,23570,0.2992791533470154,-0.08875049650669098,-0.33670011162757874,4746,1807
174226.347,3.972984995925799e-05,-6.328382005449384e-05,1.0,0.03738737851381302,0.048485804349184036,1.0149335861206055,37491.70703125,-0.35039204359054565,3.2160415649414062,0.0,-3.898027181625366,19.828752517700195,0.15115869045257568,21819.962890625,16383.4091796875,20347.505859375,16650.0,5256,0.2992791533470154,-0.08875049650669098,-0.33670011162757874,7227,2531
174228.377,3.972984995925799e-05,-6.328382005449384e-05,1.0,0.03738737851381302,0.048485804349184036,1.0149335861206055,37491.70703125,-0.35039204359054565,3.2160415649414062,0.0,-2.3806116580963135,19.846464157104492,-3.311095714569092,22837.8671875,16418.689453125,20563.826171875,16650.0,19138,0.046376559883356094,-0.09170255810022354,-0.3175681233406067,6425,4438
174230.311,3.972984995925799e-05,-6.328382005449384e-05,1.0,0.03698498755693436,0.048438072204589844,1.0153486728668213,37491.70703125,-0.35039204359054565,3.2160415649414062,0.0,-2.3806116580963135,19.846464157104492,0.03763699531555176,21941.068359375,16455.404296875,20708.845703125,16650.0,-32312,0.046376559883356094,-0.09170255810022354,-0.3175681233406067,6292,1692
174232.347,6.18350604781881e-05,-9.827691974351183e-05,1.0,0.03698498755693436,0.048438072204589844,1.0153486728668213,37444.453125,-0.3732665777206421,3.187580108642578,0.0,-2.5178587436676025,19.675695419311523,0.03827214241027832,22412.990234375,16493.892578125,20922.33984375,16650.0,-14502,0.046376559883356094,-0.09170255810022354,-0.3175681233406067,7067,3186
174234.264,6.18350604781881e-05,-9.827691974351183e-05,1.0,0.03698498755693436,0.048438072204589844,1.0153486728668213,37444.453125,-0.3732665777206421,3.187580108642578,0.0,-2.5178587436676025,19.675695419311523,0.03890728950500488,22946.87890625,16534.515625,21149.4921875,16650.0,6027,0.046376559883356094,-0.09170255810022354,-0.3175681233406067,6748,3792
174236.244,6.18350604781881e-05,-9.827691974351183e-05,1.0,0.03664165735244751,0.048288192600011826,1.0153433084487915,37444.453125,-0.3732665777206421,3.187580108642578,0.0,-0.24049383401870728,19.98874855041504,-3.19069766998291,24856.048828125,16579.40234375,21734.890625,16650.0,7944,-0.33318427205085754,-0.1438780277967453,-0.29972168803215027,7393,3833
174238.268,6.18350604781881e-05,-9.827691974351183e-05,1.0,0.03664165735244751,0.048288192600011826,1.0153433084487915,37444.453125,-0.3732665777206421,3.187580108642578,0.0,-0.24049383401870728,19.98874855041504,-0.06697261333465576,23122.58203125,16625.47265625,21612.720703125,16650.0,-23982,-0.33318427205085754,-0.1438780277967453,-0.29972168803215027,7607,3822
174240.209,6.18350604781881e-05,-9.827691974351183e-05,1.0,0.03664165735244751,0.048288192600011826,1.0153433084487915,37444.453125,-0.3732665777206421,3.187580108642578,0.0,-0.24049383401870728,19.98874855041504,-0.06637322902679443,22761.646484375,16650.0,21742.35546875,16650.0,-1408,-0.33318427205085754,-0.1438780277967453,-0.29972168803215027,8192,3609
174242.249,9.205115202348679e-05,-0.0001460358325857669,1.0,0.0363059863448143,0.04812674969434738,1.0150821208953857,37460.765625,-0.39106285572052,3.1764659881591797,0.0,-0.34727150201797485,19.92206382751465,-0.0657738447189331,22933.796875,16650.0,21792.10546875,16650.0,17318,-0.33318427205085754,-0.1438780277967453,-0.29972168803215027,7511,2686
174244.159,9.205115202348679e-05,-0.0001460358325857669,1.0,0.0363059863448143,0.04812674969434738,1.0150821208953857,37460.765625,-0.39106285572052,3.1764659881591797,0.0,-0.38781416416168213,19.906206130981445,-0.002357959747314453,22331.736328125,16650.0,21209.990234375,16650.0,31488,-0.326427161693573,-0.14123502373695374,-0.300068736076355,7780,3557
174246.138,9.205115202348679e-05,-0.0001460358325857669,1.0,0.0363059863448143,0.04812674969434738,1.0150821208953857,37460.765625,-0.39106285572052,3.1764659881591797,0.0,2.3741276264190674,20.655517578125,-2.4762370586395264,22997.205078125,16650.0,21584.95703125,16650.0,17236,-0.7867507934570312,-0.2661205232143402,-0.2867332696914673,7985,3912
174248.163,9.205115202348679e-05,-0.0001460358325857669,1.0,0.03613822162151337,0.048042647540569305,1.0151323080062866,37460.765625,-0.39106285572052,3.1764659881591797,0.0,2.3741276264190674,20.655517578125,-0.14195716381072998,21201.455078125,16650.0,21725.44921875,16650.0,3050,-0.7867507934570312,-0.2661205232143402,-0.2867332696914673,7402,4184
174250.106,9.205115202348679e-05,-0.0001460358325857669,1.0,0.03613822162151337,0.048042647540569305,1.0151323080062866,37460.765625,-0.39106285572052,3.1764659881591797,0.0,2.3741276264190674,20.655517578125,-0.14138364791870117,21303.4375,16650.0,21826.75,16650.0,-25346,-0.7867507934570312,-0.2661205232143402,-0.2867332696914673,7771,3942
174252.153,0.00013207696611061692,-0.00020916703215334564,1.0,0.03595244139432907,0.047952957451343536,1.0152382850646973,37521.171875,-0.3799511194229126,3.148345708847046,0.0,2.440798044204712,20.486797332763672,-0.14081013202667236,21427.59765625,16650.0,21972.451171875,16650.0,-7812,-0.7867507934570312,-0.2661205232143402,-0.2867332696914673,6748,2607
174254.06,0.00013207696611061692,-0.00020916703215334564,1.0,0.03595244139432907,0.047952957451343536,1.0152382850646973,37521.171875,-0.3799511194229126,3.148345708847046,0.0,2.440798044204712,20.486797332763672,-0.14023661613464355,21246.728515625,16650.0,22089.13671875,16650.0,954,-0.7867507934570312,-0.2661205232143402,-0.2867332696914673,6307,3729
174256.034,0.00013207696611061692,-0.00020916703215334564,1.0,0.03595244139432907,0.047952957451343536,1.0152382850646973,37521.171875,-0.3799511194229126,3.148345708847046,0.0,4.987800598144531,21.447561264038086,-1.8884509801864624,23056.7890625,16650.0,22826.8984375,16650.0,4692,-1.2112512588500977,-0.4262479245662689,-0.2770715653896332,6665,4343
174258.063,0.00013207696611061692,-0.00020916703215334564,1.0,0.03552689403295517,0.04781724885106087,1.0150518417358398,37521.171875,-0.3799511194229126,3.148345708847046,0.0,4.987800598144531,21.447561264038086,-0.1970987319946289,20956.34765625,16650.0,22358.4375,16650.0,-9585,-1.2112512588500977,-0.4262479245662689,-0.2770715653896332,7241,5131
174260.0,0.00013207696611061692,-0.00020916703215334564,1.0,0.03552689403295517,0.04781724885106087,1.0150518417358398,37521.171875,-0.3799511194229126,3.148345708847046,0.0,4.945013046264648,21.417818069458008,-0.3228083848953247,20546.46875,16650.0,22232.06640625,16650.0,-10779,-1.2041199207305908,-0.42129072546958923,-0.2763739824295044,6789,4645
174262.032,0.00018368713790550828,-0.0002903992135543376,1.0,0.03552689403295517,0.04781724885106087,1.0150518417358398,37523.5390625,-0.35675501823425293,3.1245296001434326,0.0,5.084189414978027,21.274921417236328,-0.2001786231994629,19707.376953125,16650.0,21112.06640625,16650.0,12153,-1.2041199207305908,-0.42129072546958923,-0.2763739824295044,7071,2991
174263.949,0.00018368713790550828,-0.0002903992135543376,1.0,0.03501856327056885,0.047727495431900024,1.0149387121200562,37523.5390625,-0.35675501823425293,3.1245296001434326,0.0,5.084189414978027,21.274921417236328,-0.19962584972381592,19367.84765625,16650.0,21224.39453125,16650.0,3938,-1.2041199207305908,-0.42129072546958923,-0.2763739824295044,6305,3453
174265.936,0.00018368713790550828,-0.0002903992135543376,1.0,0.03501856327056885,0.047727495431900024,1.0149387121200562,37523.5390625,-0.35675501823425293,3.1245296001434326,0.0,7.380743026733398,22.55242919921875,-1.3919695615768433,20897.048828125,16650.0,22554.111328125,16650.0,31189,-1.5868788957595825,-0.6342083215713501,-0.26978346705436707,5900,5388
174267.962,0.00018368713790550828,-0.0002903992135543376,1.0,0.03501856327056885,0.047727495431900024,1.0149387121200562,37523.5390625,-0.35675501823425293,3.1245296001434326,0.0,7.380743026733398,22.55242919921875,-0.238089919090271,19491.90625,16650.0,22001.068359375,16650.0,-24026,-1.5868788957595825,-0.6342083215713501,-0.26978346705436707,6871,5778
174269.89,0.00018368713790550828,-0.0002903992135543376,1.0,0.034703247249126434,0.04762117192149162,1.0151187181472778,37523.5390625,-0.35675501823425293,3.1245296001434326,0.0,7.380743026733398,22.55242919921875,-0.23755037784576416,19569.748046875,16650.0,22134.970703125,16650.0,-13410,-1.5868788957595825,-0.6342083215713501,-0.26978346705436707,6356,3735
174271.931,0.0002489473554305732,-0.00039286279934458435,1.0,0.034703247249126434,0.04762117192149162,1.0151187181472778,37481.1953125,-0.3190805912017822,3.1104896068573,0.0,7.557425022125244,22.440752029418945,-0.20838868618011475,19114.107421875,16650.0,21689.076171875,16650.0,-17120,-1.5786514282226562,-0.629635751247406,-0.2699415981769562,5453,4399
174273.859,0.0002489473554305732,-0.00039286279934458435,1.0,0.034371182322502136,0.0475364625453949,1.0151444673538208,37481.1953125,-0.3190805912017822,3.1104896068573,0.0,7.557425022125244,22.440752029418945,-0.23552167415618896,17335.12890625,16650.0,21245.72265625,16650.0,12489,-1.5786514282226562,-0.629635751247406,-0.2699415981769562,5403,3681
174275.824,0.0002489473554305732,-0.00039286279934458435,1.0,0.034371182322502136,0.0475364625453949,1.0151444673538208,37481.1953125,-0.3190805912017822,3.1104896068573,0.0,7.50678825378418,22.415424346923828,-0.1610640287399292,16474.060546875,16650.0,20873.318359375,16650.0,-11966,-1.5702120065689087,-0.6254146099090576,-0.27034997940063477,5164,3260
174277.856,0.0002489473554305732,-0.00039286279934458435,1.0,0.034371182322502136,0.0475364625453949,1.0151444673538208,37481.1953125,-0.3190805912017822,3.1104896068573,0.0,9.034737586975098,23.669830322265625,-1.368958592414856,17364.8046875,16650.0,21471.53515625,16650.0,-11277,-1.824870228767395,-0.8344821333885193,-0.26406845450401306,4735,4387
174279.787,0.0002489473554305732,-0.00039286279934458435,1.0,0.03429253399372101,0.047377415001392365,1.0150046348571777,37481.1953125,-0.3190805912017822,3.1104896068573,0.0,9.034737586975098,23.669830322265625,-0.26916372776031494,16319.396484375,16650.0,20819.62890625,16650.0,18395,-1.824870228767395,-0.8344821333885193,-0.26406845450401306,2142,3625
174281.827,0.0003301102260593325,-0.0005200279993005097,1.0,0.03429253399372101,0.047377415001392365,1.0150046348571777,37445.99609375,-0.25844883918762207,3.106523036956787,0.0,9.355286598205566,23.613338470458984,-0.3828754425048828,16312.169921875,16650.0,21170.576171875,16650.0,-6652,-1.817663311958313,-0.8290334343910217,-0.26343730092048645,3004,4368
174283.74,0.0003301102260593325,-0.0005200279993005097,1.0,0.03429253399372101,0.047377415001392365,1.0150046348571777,37445.99609375,-0.25844883918762207,3.106523036956787,0.0,9.355286598205566,23.613338470458984,-0.27189671993255615,16065.8515625,16650.0,21414.857421875,16650.0,5586,-1.817663311958313,-0.8290334343910217,-0.26343730092048645,3190,5744
174285.724,0.0003301102260593325,-0.0005200279993005097,1.0,0.034082744270563126,0.04725642129778862,1.0150465965270996,37445.99609375,-0.25844883918762207,3.106523036956787,0.0,9.355286598205566,23.613338470458984,-0.2713698148727417,15643.9775390625,16650.0,21027.890625,16650.0,27260,-1.817663311958313,-0.8290334343910217,-0.26343730092048645,2257,3997
174287.744,0.0003301102260593325,-0.0005200279993005097,1.0,0.034082744270563126,0.04725642129778862,1.0150465965270996,37445.99609375,-0.25844883918762207,3.106523036956787,0.0,9.604445457458496,24.582382202148438,-1.1310417652130127,15259.3671875,16650.0,21636.689453125,16650.0,12310,-1.859189748764038,-0.9905405640602112,-0.2586848735809326,1615,3586
174289.682,0.0003301102260593325,-0.0005200279993005097,1.0,0.034082744270563126,0.04725642129778862,1.0150465965270996,37445.99609375,-0.25844883918762207,3.106523036956787,0.0,9.604445457458496,24.582382202148438,-0.2988497018814087,15602.810546875,16650.0,21005.98046875,16650.0,29877,-1.859189748764038,-0.9905405640602112,-0.2586848735809326,-546,5332
174291.724,0.00042937457328662276,-0.000675177841912955,1.0,0.033798329532146454,0.04717142879962921,1.0149919986724854,37412.0234375,-0.20702511072158813,3.1355481147766113,0.0,9.912988662719727,24.75653076171875,-0.2983323335647583,14946.390625,16648.921875,20429.388671875,16650.0,-3036,-1.859189748764038,-0.9905405640602112,-0.2586848735809326,452,3577
174293.635,0.00042937457328662276,-0.000675177841912955,1.0,0.033798329532146454,0.04717142879962921,1.0149919986724854,37412.0234375,-0.20702511072158813,3.1355481147766113,0.0,9.867904663085938,24.72382164001465,-0.45233941078186035,13495.328125,16643.828125,20195.4609375,16650.0,19804,-1.8516758680343628,-0.9850886464118958,-0.2578311562538147,146,3659
174295.615,0.00042937457328662276,-0.000675177841912955,1.0,0.033798329532146454,0.04717142879962921,1.0149919986724854,37412.0234375,-0.20702511072158813,3.1355481147766113,0.0,9.867904663085938,24.72382164001465,-0.30242323875427246,13898.666015625,16635.931640625,20408.439453125,16650.0,6658,-1.8516758680343628,-0.9850886464118958,-0.2578311562538147,-193,5315
174297.661,0.00042937457328662276,-0.000675177841912955,1.0,0.03357871249318123,0.04704459756612778,1.0147356986999512,37412.0234375,-0.20702511072158813,3.1355481147766113,0.0,9.867904663085938,24.72382164001465,-0.3019075393676758,13947.236328125,16625.779296875,20319.880859375,16650.0,5597,-1.8516758680343628,-0.9850886464118958,-0.2578311562538147,-2058,4925
174299.577,0.00042937457328662276,-0.000675177841912955,1.0,0.03357871249318123,0.04704459756612778,1.0147356986999512,37412.0234375,-0.20702511072158813,3.1355481147766113,0.0,9.213584899902344,25.42731285095215,0.15002846717834473,13435.7861328125,16613.083984375,20915.30859375,16650.0,-789,-1.74262273311615,-1.1023372411727905,-0.260325163602829,-1736,4606
174301.618,0.0005490151816047728,-0.0008615457336418331,1.0,0.03337295353412628,0.04693067818880081,1.0147078037261963,37381.421875,-0.12125855684280396,3.1446549892425537,0.0,9.728184700012207,25.481952667236328,-0.28590214252471924,14630.36328125,16599.87890625,20423.2734375,16650.0,32221,-1.74262273311615,-1.1023372411727905,-0.260325163602829,-2924,3516
174303.534,0.0005490151816047728,-0.0008615457336418331,1.0,0.03337295353412628,0.04693067818880081,1.0147078037261963,37381.421875,-0.12125855684280396,3.1446549892425537,0.0,9.686824798583984,25.4527645111084,-0.6370614767074585,13553.716796875,16584.83203125,19375.62890625,16650.0,-25902,-1.7357292175292969,-1.0974725484848022,-0.2583822011947632,-2417,4104
174305.514,0.0005490151816047728,-0.0008615457336418331,1.0,0.03337295353412628,0.04693067818880081,1.0147078037261963,37381.421875,-0.12125855684280396,3.1446549892425537,0.0,9.686824798583984,25.4527645111084,-0.29652631282806396,12668.638671875,16567.095703125,18596.923828125,16650.0,32726,-1.7357292175292969,-1.0974725484848022,-0.2583822011947632,-2755,4343
174307.533,0.0005490151816047728,-0.0008615457336418331,1.0,0.03319007530808449,0.046844806522130966,1.0146551132202148,37381.421875,-0.12125855684280396,3.1446549892425537,0.0,9.686824798583984,25.4527645111084,-0.29600954055786133,12786.166015625,16547.30078125,19008.275390625,16650.0,28634,-1.7357292175292969,-1.0974725484848022,-0.2583822011947632,-3015,4817
174309.472,0.0005490151816047728,-0.0008615457336418331,1.0,0.03319007530808449,0.046844806522130966,1.0146551132202148,37381.421875,-0.12125855684280396,3.1446549892425537,0.0,8.311376571655273,25.866016387939453,0.1870579719543457,12879.521484375,16525.94140625,19268.59765625,16650.0,21160,-1.5064878463745117,-1.1663477420806885,-0.26104819774627686,-1067,3119
174311.511,0.0006916039856150746,-0.0010831268737092614,1.0,0.03319007530808449,0.046844806522130966,1.0146551132202148,37380.2109375,-0.04144567251205444,3.1608846187591553,0.0,8.790252685546875,25.963394165039062,-0.27896928787231445,14548.8955078125,16505.53515625,18586.306640625,16650.0,6828,-1.5064878463745117,-1.1663477420806885,-0.26104819774627686,-2280,3305
174313.426,0.0006916039856150746,-0.0010831268737092614,1.0,0.033107928931713104,0.04668790474534035,1.0145890712738037,37380.2109375,-0.04144567251205444,3.1608846187591553,0.0,8.790252685546875,25.963394165039062,-0.27844715118408203,14441.7216796875,16485.802734375,18510.482421875,16650.0,-19317,-1.5064878463745117,-1.1663477420806885,-0.26104819774627686,-3219,3996
174315.406,0.0006916039856150746,-0.0010831268737092614,1.0,0.033107928931713104,0.04668790474534035,1.0145890712738037,37380.2109375,-0.04144567251205444,3.1608846187591553,0.0,8.790252685546875,25.963394165039062,-0.2779250144958496,14233.2392578125,16466.3828125,17926.03515625,16650.0,23276,-1.5064878463745117,-1.1663477420806885,-0.26104819774627686,-2063,2766
174317.442,0.0006916039856150746,-0.0010831268737092614,1.0,0.033107928931713104,0.04668790474534035,1.0145890712738037,37380.2109375,-0.04144567251205444,3.1608846187591553,0.0,7.050149917602539,25.878999710083008,-1.1333673000335693,12570.6328125,16445.033203125,17816.279296875,16650.0,-10954,-1.216470718383789,-1.1522822380065918,-0.25631916522979736,-2419,474
174319.369,0.0006916039856150746,-0.0010831268737092614,1.0,0.03298773989081383,0.04659058153629303,1.0145772695541382,37380.2109375,-0.04144567251205444,3.1608846187591553,0.0,7.050149917602539,25.878999710083008,-0.30527400970458984,14444.5908203125,16424.6015625,18488.013671875,16650.0,-25872,-1.216470718383789,-1.1522822380065918,-0.25631916522979736,-2707,2168
174321.403,0.0008599223801866174,-0.0013443011557683349,1.0,0.03298773989081383,0.04659058153629303,1.0145772695541382,37379.5625,0.03126871585845947,3.181936740875244,0.0,7.48643684387207,26.005313873291016,-0.3047614097595215,14735.44140625,16405.349609375,18008.25,16650.0,13483,-1.216470718383789,-1.1522822380065918,-0.25631916522979736,-3174,1611
174323.331,0.0008599223801866174,-0.0013443011557683349,1.0,0.03297062963247299,0.04645058140158653,1.0145901441574097,37379.5625,0.03126871585845947,3.181936740875244,0.0,7.48643684387207,26.005313873291016,-0.3042488098144531,14359.619140625,16386.6015625,17150.59765625,16650.0,30663,-1.216470718383789,-1.1522822380065918,-0.25631916522979736,-2605,-148
174325.308,0.0008599223801866174,-0.0013443011557683349,1.0,0.03297062963247299,0.04645058140158653,1.0145901441574097,37379.5625,0.03126871585845947,3.181936740875244,0.0,7.4447431564331055,25.97479248046875,-0.709175705909729,15354.25390625,16369.626953125,16953.453125,16650.0,-17631,-1.209521770477295,-1.1471954584121704,-0.2540791928768158,-1813,528
174327.323,0.0008599223801866174,-0.0013443011557683349,1.0,0.03297062963247299,0.04645058140158653,1.0145901441574097,37379.5625,0.03126871585845947,3.181936740875244,0.0,5.832190990447998,25.41097640991211,-0.9586132168769836,14727.6943359375,16353.3134765625,16535.505859375,16650.0,7180,-0.9407631158828735,-1.0532259941101074,-0.2505325973033905,-1457,-294
174329.265,0.0008599223801866174,-0.0013443011557683349,1.0,0.032693542540073395,0.046370845288038254,1.0144779682159424,37379.5625,0.03126871585845947,3.181936740875244,0.0,5.832190990447998,25.41097640991211,-0.3374580144882202,15723.103515625,16338.8974609375,16655.015625,16650.0,-22672,-0.9407631158828735,-1.0532259941101074,-0.2505325973033905,-2931,718
174331.302,0.0010562174720689654,-0.001648243167437613,1.0,0.032693542540073395,0.046370845288038254,1.0144779682159424,37393.73046875,0.06208387017250061,3.2285540103912354,0.0,6.0170817375183105,25.69068145751953,-0.3369569778442383,15644.419921875,16325.9755859375,16732.1015625,16650.0,23063,-0.9407631158828735,-1.0532259941101074,-0.2505325973033905,-1482,-732
174333.217,0.0010562174720689654,-0.001648243167437613,1.0,0.032693542540073395,0.046370845288038254,1.0144779682159424,37393.73046875,0.06208387017250061,3.2285540103912354,0.0,6.007659912109375,25.654136657714844,-0.5932425260543823,15230.419921875,16313.7626953125,16136.3828125,16650.0,8443,-0.9391927719116211,-1.047135591506958,-0.24911390244960785,-1117,-1207
174335.204,0.0010562174720689654,-0.001648243167437613,1.0,0.03264566883444786,0.04618845880031586,1.0143228769302368,37393.73046875,0.06208387017250061,3.2285540103912354,0.0,6.007659912109375,25.654136657714844,-0.3444727659225464,15928.0703125,16303.0849609375,16500.439453125,16650.0,21942,-0.9391927719116211,-1.047135591506958,-0.24911390244960785,-835,-691
174337.224,0.0010562174720689654,-0.001648243167437613,1.0,0.03264566883444786,0.04618845880031586,1.0143228769302368,37393.73046875,0.06208387017250061,3.2285540103912354,0.0,5.990046501159668,25.61638641357422,-0.6073124408721924,17268.177734375,16295.484375,17390.423828125,16650.0,-31930,-0.9362571835517883,-1.0408436059951782,-0.24765901267528534,-1707,-2359
174339.159,0.0010562174720689654,-0.001648243167437613,1.0,0.03264566883444786,0.04618845880031586,1.0143228769302368,37393.73046875,0.06208387017250061,3.2285540103912354,0.0,4.720307350158691,24.410308837890625,-1.3822221755981445,17609.087890625,16290.9091796875,16764.84765625,16650.0,-1570,-0.7246339917182922,-0.8398306965827942,-0.24196840822696686,-407,-1810
174341.218,0.0012842091964557767,-0.002000658307224512,1.0,0.03251923248171806,0.046106260269880295,1.0143955945968628,37400.2421875,0.11922681331634521,3.2529280185699463,0.0,5.063164710998535,24.55655288696289,-0.3858823776245117,18226.150390625,16289.6767578125,17110.365234375,16650.0,26438,-0.7246339917182922,-0.8398306965827942,-0.24196840822696686,-1175,-2608
174343.122,0.0012842091964557767,-0.002000658307224512,1.0,0.03251923248171806,0.046106260269880295,1.0143955945968628,37400.2421875,0.11922681331634521,3.2529280185699463,0.0,5.069153785705566,24.51751708984375,-0.6637539863586426,16915.78515625,16289.486328125,16225.140625,16650.0,20957,-0.7256321907043457,-0.8333244919776917,-0.240430548787117,416,-2167
174345.094,0.0012842091964557767,-0.002000658307224512,1.0,0.03251923248171806,0.046106260269880295,1.0143955945968628,37400.2421875,0.11922681331634521,3.2529280185699463,0.0,5.069153785705566,24.51751708984375,-0.39414775371551514,17690.642578125,16291.193359375,16358.1611328125,16650.0,-31872,-0.7256321907043457,-0.8333244919776917,-0.240430548787117,-135,-1791
174347.114,0.0012842091964557767,-0.002000658307224512,1.0,0.032447103410959244,0.04594342038035393,1.0143535137176514,37400.2421875,0.11922681331634521,3.2529280185699463,0.0,5.069153785705566,24.51751708984375,-0.3936668634414673,18930.2109375,16296.126953125,16971.912109375,16650.0,25509,-0.7256321907043457,-0.8333244919776917,-0.240430548787117,620,-3364
174349.066,0.0012842091964557767,-0.002000658307224512,1.0,0.032447103410959244,0.04594342038035393,1.0143535137176514,37400.2421875,0.11922681331634521,3.2529280185699463,0.0,4.6621317863464355,23.057287216186523,-2.0840392112731934,19153.6171875,16304.0390625,16571.220703125,16650.0,1834,-0.6577951312065125,-0.5899531245231628,-0.23108892142772675,2059,-2352
174351.088,0.0015449246857315302,-0.0024029803462326527,1.0,0.032351016998291016,0.04591993987560272,1.0140206813812256,37375.81640625,0.1757168173789978,3.268573522567749,0.0,5.001071929931641,23.151161193847656,-0.44879233837127686,20465.353515625,16316.1640625,18192.41015625,16650.0,12886,-0.6577951312065125,-0.5899531245231628,-0.23108892142772675,1456,-3352
174353.011,0.0015449246857315302,-0.0024029803462326527,1.0,0.032351016998291016,0.04591993987560272,1.0140206813812256,37375.81640625,0.1757168173789978,3.268573522567749,0.0,5.027731418609619,23.10220718383789,-0.6377880573272705,21268.349609375,16332.849609375,18693.78125,16650.0,8790,-0.6622384190559387,-0.5817942023277283,-0.2300422042608261,1338,-2340
174354.984,0.0015449246857315302,-0.0024029803462326527,1.0,0.032351016998291016,0.04591993987560272,1.0140206813812256,37375.81640625,0.1757168173789978,3.268573522567749,0.0,5.027731418609619,23.10220718383789,-0.45415258407592773,20846.970703125,16352.7451171875,18735.31640625,16650.0,3855,-0.6622384190559387,-0.5817942023277283,-0.2300422042608261,2171,-1427
174357.009,0.0015449246857315302,-0.0024029803462326527,1.0,0.03225839510560036,0.045733846724033356,1.0142765045166016,37375.81640625,0.1757168173789978,3.268573522567749,0.0,5.027731418609619,23.10220718383789,-0.45369255542755127,20196.2421875,16374.419921875,18377.189453125,16650.0,-28972,-0.6622384190559387,-0.5817942023277283,-0.2300422042608261,4278,-1872
174358.951,0.0015449246857315302,-0.0024029803462326527,1.0,0.03225839510560036,0.045733846724033356,1.0142765045166016,37375.81640625,0.1757168173789978,3.268573522567749,0.0,5.618827819824219,21.965099334716797,-1.9540801048278809,20702.8671875,16398.224609375,17709.400390625,16650.0,4976,-0.7607545256614685,-0.392276406288147,-0.22175031900405884,5241,-1518
174360.985,0.0018434177618473768,-0.0028624441474676132,1.0,0.03225839510560036,0.045733846724033356,1.0142765045166016,37373.6875,0.23142778873443604,3.2702693939208984,0.0,5.953094005584717,21.97527313232422,-0.5025569200515747,21716.078125,16425.11328125,19194.40625,16650.0,3849,-0.7607545256614685,-0.392276406288147,-0.22175031900405884,5379,-1482
174362.902,0.0018434177618473768,-0.0028624441474676132,1.0,0.032046329230070114,0.045548874884843826,1.0140082836151123,37373.6875,0.23142778873443604,3.2702693939208984,0.0,5.953094005584717,21.97527313232422,-0.5021134614944458,22128.5703125,16455.087890625,19912.498046875,16650.0,3329,-0.7607545256614685,-0.392276406288147,-0.22175031900405884,4902,-928
174364.879,0.0018434177618473768,-0.0028624441474676132,1.0,0.032046329230070114,0.045548874884843826,1.0140082836151123,37373.6875,0.23142778873443604,3.2702693939208984,0.0,5.949069023132324,21.93644905090332,-0.6960798501968384,21162.505859375,16486.298828125,19864.00390625,16650.0,-1620,-0.7600837349891663,-0.3858053386211395,-0.2206762433052063,4519,-826
174366.909,0.0018434177618473768,-0.0028624441474676132,1.0,0.032046329230070114,0.045548874884843826,1.0140082836151123,37373.6875,0.23142778873443604,3.2702693939208984,0.0,5.949069023132324,21.93644905090332,-0.507675290107727,21024.884765625,16518.318359375,19961.416015625,16650.0,-31214,-0.7600837349891663,-0.3858053386211395,-0.2206762433052063,5079,-250
174368.844,0.0018434177618473768,-0.0028624441474676132,1.0,0.0319601334631443,0.04550852254033089,1.0141983032226562,37373.6875,0.23142778873443604,3.2702693939208984,0.0,5.949069023132324,21.93644905090332,-0.5072339773178101,21781.8984375,16551.97265625,20470.126953125,16650.0,-11391,-0.7600837349891663,-0.3858053386211395,-0.2206762433052063,7430,887
174370.887,0.002181390067562461,-0.0033814962953329086,1.0,0.0319601334631443,0.04550852254033089,1.0141983032226562,37417.33203125,0.28863784670829773,3.2660510540008545,0.0,7.645318031311035,21.291213989257812,-1.9796870946884155,23419.818359375,16589.12890625,20875.578125,16650.0,-8670,-0.9855818152427673,-0.28248488903045654,-0.21253879368305206,7373,2675
174372.797,0.002181390067562461,-0.0033814962953329086,1.0,0.03173161670565605,0.04540766030550003,1.014264702796936,37417.33203125,0.28863784670829773,3.2660510540008545,0.0,7.645318031311035,21.291213989257812,-0.5552084445953369,22473.654296875,16627.884765625,22148.53125,16650.0,-16498,-0.9855818152427673,-0.28248488903045654,-0.21253879368305206,7488,2891
174374.86,0.002181390067562461,-0.0033814962953329086,1.0,0.03173161670565605,0.04540766030550003,1.014264702796936,37417.33203125,0.28863784670829773,3.2660510540008545,0.0,7.646083831787109,21.251859664916992,-0.7380540370941162,22577.7890625,16650.0,22548.587890625,16650.0,-22891,-0.9857094883918762,-0.27592572569847107,-0.21152625977993011,6430,3189
174376.799,0.002181390067562461,-0.0033814962953329086,1.0,0.03173161670565605,0.04540766030550003,1.014264702796936,37417.33203125,0.28863784670829773,3.2660510540008545,0.0,7.646083831787109,21.251859664916992,-0.5604375600814819,22313.984375,16650.0,22281.845703125,16650.0,28660,-0.9857094883918762,-0.27592572569847107,-0.21152625977993011,7410,1597
174378.737,0.002181390067562461,-0.0033814962953329086,1.0,0.03163272887468338,0.04527078568935394,1.0143299102783203,37417.33203125,0.28863784670829773,3.2660510540008545,0.0,7.646083831787109,21.251859664916992,-0.5600144863128662,21965.625,16650.0,22145.22265625,16650.0,155,-0.9857094883918762,-0.27592572569847107,-0.21152625977993011,8276,2812
174380.778,0.002562927547842264,-0.0039662751369178295,1.0,0.03163272887468338,0.04527078568935394,1.0143299102783203,37480.08203125,0.3501034379005432,3.2611985206604004,0.0,9.844725608825684,21.378786087036133,-2.2382912635803223,23362.09375,16650.0,22822.015625,16650.0,-17938,-1.2906841039657593,-0.30193260312080383,-0.20225177705287933,6653,3080
174382.76,0.002562927547842264,-0.0039662751369178295,1.0,0.03163272887468338,0.04527078568935394,1.0143299102783203,37480.08203125,0.3501034379005432,3.2611985206604004,0.0,9.844725608825684,21.378786087036133,-0.6148524284362793,21425.939453125,16650.0,23058.3984375,16650.0,26502,-1.2906841039657593,-0.30193260312080383,-0.20225177705287933,7907,4610
174384.67,0.002562927547842264,-0.0039662751369178295,1.0,0.03151872009038925,0.04514918848872185,1.0142290592193604,37480.08203125,0.3501034379005432,3.2611985206604004,0.0,9.844725608825684,21.378786087036133,-0.6144479513168335,21569.033203125,16650.0,23403.189453125,16650.0,-4140,-1.2906841039657593,-0.30193260312080383,-0.20225177705287933,6875,4087
174386.697,0.002562927547842264,-0.0039662751369178295,1.0,0.03151872009038925,0.04514918848872185,1.0142290592193604,37480.08203125,0.3501034379005432,3.2611985206604004,0.0,9.826702117919922,21.343124389648438,-0.8002809286117554,22336.986328125,16650.0,23766.5234375,16650.0,-23846,-1.2876803874969482,-0.29598915576934814,-0.20122285187244415,6428,5131
174388.634,0.002562927547842264,-0.0039662751369178295,1.0,0.03151872009038925,0.04514918848872185,1.0142290592193604,37480.08203125,0.3501034379005432,3.2611985206604004,0.0,11.805338859558105,22.35654067993164,-1.8970659971237183,23229.796875,16650.0,24521.796875,16650.0,-23946,-1.6174529790878296,-0.46489161252975464,-0.19416630268096924,6606,5410
174390.672,0.0029902574606239796,-0.004619365558028221,1.0,0.03142733499407768,0.04505022615194321,1.0139973163604736,37492.63671875,0.3857369124889374,3.2868282794952393,0.0,12.01913833618164,22.510318756103516,-0.6617815494537354,21004.61328125,16650.0,23792.88671875,16650.0,7008,-1.6174529790878296,-0.46489161252975464,-0.19416630268096924,6051,3914
174392.587,0.0029902574606239796,-0.004619365558028221,1.0,0.03142733499407768,0.04505022615194321,1.0139973163604736,37492.63671875,0.3857369124889374,3.2868282794952393,0.0,12.018117904663086,22.469932556152344,-0.9407628774642944,20314.880859375,16650.0,23524.83984375,16650.0,17880,-1.6172826290130615,-0.45816051959991455,-0.1926228404045105,6510,5769
174394.565,0.0029902574606239796,-0.004619365558028221,1.0,0.03137930855154991,0.04493233188986778,1.0142185688018799,37492.63671875,0.3857369124889374,3.2868282794952393,0.0,12.018117904663086,22.469932556152344,-0.6702717542648315,19848.37109375,16650.0,23622.4609375,16650.0,28646,-1.6172826290130615,-0.45816051959991455,-0.1926228404045105,7242,6068
174396.597,0.0029902574606239796,-0.004619365558028221,1.0,0.03137930855154991,0.04493233188986778,1.0142185688018799,37492.63671875,0.3857369124889374,3.2868282794952393,0.0,12.018117904663086,22.469932556152344,-0.6698864698410034,20033.94140625,16650.0,24245.11328125,16650.0,-3770,-1.6172826290130615,-0.45816051959991455,-0.1926228404045105,6510,5769
174398.526,0.0029902574606239796,-0.004619365558028221,1.0,0.03137930855154991,0.04493233188986778,1.0142185688018799,37492.63671875,0.3857369124889374,3.2868282794952393,0.0,13.745461463928223,24.087806701660156,-2.2003331184387207,21270.638671875,16650.0,26205.013671875,16650.0,18692,-1.905173420906067,-0.7278063297271729,-0.18416529893875122,6476,7433
174400.572,0.003467631060630083,-0.005347559228539467,1.0,0.03130360692739487,0.04480867460370064,1.0143041610717773,37512.12890625,0.46587496995925903,3.2982804775238037,0.0,14.226290702819824,24.15652084350586,-0.7198950052261353,19784.19140625,16650.0,24494.9453125,16650.0,11218,-1.905173420906067,-0.7278063297271729,-0.18416529893875122,6903,6873
174402.484,0.003467631060630083,-0.005347559228539467,1.0,0.03130360692739487,0.04480867460370064,1.0143041610717773,37512.12890625,0.46587496995925903,3.2982804775238037,0.0,14.226290702819824,24.15652084350586,-0.7195266485214233,19332.658203125,16650.0,24072.28125,16650.0,-16048,-1.905173420906067,-0.7278063297271729,-0.18416529893875122,6261,6858
174404.46,0.003467631060630083,-0.005347559228539467,1.0,0.03130360692739487,0.04480867460370064,1.0143041610717773,37512.12890625,0.46587496995925903,3.2982804775238037,0.0,14.226290702819824,24.15652084350586,-0.7191582918167114,19316.029296875,16650.0,24441.765625,16650.0,1029,-1.905173420906067,-0.7278063297271729,-0.18416529893875122,6050,7703
174406.49,0.003467631060630083,-0.005347559228539467,1.0,0.0313202403485775,0.044688958674669266,1.0142719745635986,37512.12890625,0.46587496995925903,3.2982804775238037,0.0,14.226290702819824,24.15652084350586,-0.7187899351119995,18558.5078125,16650.0,24600.3046875,16650.0,24759,-1.905173420906067,-0.7278063297271729,-0.18416529893875122,5057,9007
174408.426,0.003467631060630083,-0.005347559228539467,1.0,0.0313202403485775,0.044688958674669266,1.0142719745635986,37512.12890625,0.46587496995925903,3.2982804775238037,0.0,15.347837448120117,26.170406341552734,-1.9968363046646118,18469.392578125,16650.0,25415.822265625,16650.0,4935,-2.0920979976654053,-1.0634539127349854,-0.17710231244564056,5838,9414
174410.482,0.003997298888862133,-0.006152929272502661,1.0,0.0313202403485775,0.044688958674669266,1.0142719745635986,37561.32421875,0.5495657324790955,3.3267970085144043,0.0,15.849983215332031,26.341506958007812,-0.7604595422744751,17757.125,16650.0,23331.431640625,16650.0,-30824,-2.0920979976654053,-1.0634539127349854,-0.17710231244564056,4986,9069
174412.394,0.003997298888862133,-0.006152929272502661,1.0,0.031251370906829834,0.04463416710495949,1.0139976739883423,37561.32421875,0.5495657324790955,3.3267970085144043,0.0,15.83823013305664,26.30224609375,-0.9722244739532471,17439.890625,16650.0,22746.607421875,16650.0,-7614,-2.090139150619507,-1.056910514831543,-0.17593039572238922,3546,7438
174414.375,0.003997298888862133,-0.006152929272502661,1.0,0.031251370906829834,0.04463416710495949,1.0139976739883423,37561.32421875,0.5495657324790955,3.3267970085144043,0.0,15.83823013305664,26.30224609375,-0.7667871713638306,17412.82421875,16650.0,23383.166015625,16650.0,3173,-2.090139150619507,-1.056910514831543,-0.17593039572238922,3817,8427
174416.396,0.003997298888862133,-0.006152929272502661,1.0,0.0312693826854229,0.04443912208080292,1.0141806602478027,37561.32421875,0.5495657324790955,3.3267970085144043,0.0,15.83823013305664,26.30224609375,-0.7664352655410767,16834.76953125,16650.0,23440.1640625,16650.0,27922,-2.090139150619507,-1.056910514831543,-0.17593039572238922,4619,7888
174418.323,0.003997298888862133,-0.006152929272502661,1.0,0.0312693826854229,0.04443912208080292,1.0141806602478027,37561.32421875,0.5495657324790955,3.3267970085144043,0.0,16.143033981323242,28.438343048095703,-2.051785945892334,16602.73828125,16650.0,24043.833984375,16650.0,31044,-2.140939950942993,-1.4129266738891602,-0.1688271462917328,3279,7709
174420.37,0.004583845846354961,-0.00704282708466053,1.0,0.0312693826854229,0.04443912208080292,1.0141806602478027,37588.48046875,0.6521818041801453,3.3782613277435303,0.0,16.758731842041016,28.747129440307617,-0.8083796501159668,16725.87109375,16650.0,22014.966796875,16650.0,22046,-2.140939950942993,-1.4129266738891602,-0.1688271462917328,3201,7295
174422.283,0.004583845846354961,-0.00704282708466053,1.0,0.0313260480761528,0.04434899240732193,1.0141921043395996,37588.48046875,0.6521818041801453,3.3782613277435303,0.0,16.758731842041016,28.747129440307617,-0.808042049407959,16607.84765625,16650.0,21688.703125,16650.0,-23004,-2.140939950942993,-1.4129266738891602,-0.1688271462917328,3053,7463
174424.256,0.004583845846354961,-0.00704282708466053,1.0,0.0313260480761528,0.04434899240732193,1.0141921043395996,37588.48046875,0.6521818041801453,3.3782613277435303,0.0,16.758731842041016,28.747129440307617,-0.8077044486999512,15817.796875,16650.0,21576.412109375,16650.0,11511,-2.140939950942993,-1.4129266738891602,-0.1688271462917328,2198,6657
174426.28,0.004583845846354961,-0.00704282708466053,1.0,0.0313260480761528,0.04434899240732193,1.0141921043395996,37588.48046875,0.6521818041801453,3.3782613277435303,0.0,16.758731842041016,28.747129440307617,-0.8073668479919434,14915.1826171875,16650.0,21634.6171875,16650.0,13529,-2.140939950942993,-1.4129266738891602,-0.1688271462917328,799,6800
174428.213,0.004583845846354961,-0.00704282708466053,1.0,0.031316474080085754,0.04432566091418266,1.0138609409332275,37588.48046875,0.6521818041801453,3.3782613277435303,0.0,16.758731842041016,28.747129440307617,-0.8070292472839355,14560.591796875,16649.552734375,20622.92578125,16650.0,19327,-2.140939950942993,-1.4129266738891602,-0.1688271462917328,1427,5697
174430.268,0.005227313842624426,-0.008020109497010708,1.0,0.031316474080085754,0.04432566091418266,1.0138609409332275,37609.7734375,0.757264256477356,3.4508183002471924,0.0,16.72607421875,30.64658546447754,-4.393742084503174,14508.275390625,16646.330078125,21324.51953125,16650.0,2382,-2.0304148197174072,-1.656946063041687,-0.14900940656661987,584,5596
174432.179,0.005227313842624426,-0.008020109497010708,1.0,0.031316474080085754,0.04432566091418266,1.0138609409332275,37609.7734375,0.757264256477356,3.4508183002471924,0.0,16.72607421875,30.64658546447754,-0.9253395795822144,14655.16796875,16640.99609375,20255.970703125,16650.0,-20370,-2.0304148197174072,-1.656946063041687,-0.14900940656661987,79,5524
174434.152,0.005227313842624426,-0.008020109497010708,1.0,0.031366802752017975,0.04414632171392441,1.014054298400879,37609.7734375,0.757264256477356,3.4508183002471924,0.0,16.72607421875,30.64658546447754,-0.9250415563583374,13890.365234375,16632.89453125,19412.205078125,16650.0,3396,-2.0304148197174072,-1.656946063041687,-0.14900940656661987,-195,5329
174436.185,0.005227313842624426,-0.008020109497010708,1.0,0.031366802752017975,0.04414632171392441,1.014054298400879,37609.7734375,0.757264256477356,3.4508183002471924,0.0,16.72607421875,30.64658546447754,-0.9247435331344604,13139.970703125,16621.501953125,18459.255859375,16650.0,22182,-2.0304148197174072,-1.656946063041687,-0.14900940656661987,-2135,4252
174438.106,0.005227313842624426,-0.008020109497010708,1.0,0.0315115861594677,0.04397574067115784,1.013970136642456,37609.7734375,0.757264256477356,3.4508183002471924,0.0,16.72607421875,30.64658546447754,-0.9244455099105835,13837.3046875,16608.3125,18165.453125,16650.0,-24362,-2.0304148197174072,-1.656946063041687,-0.14900940656661987,-1355,3077
174440.163,0.005937083624303341,-0.009089795872569084,1.0,0.0315115861594677,0.04397574067115784,1.013970136642456,37601.80078125,0.7732446789741516,3.459395170211792,0.0,16.780824661254883,30.669462203979492,-1.3019574880599976,14456.3828125,16594.470703125,18100.41015625,16650.0,-26640,-2.0235595703125,-1.6521817445755005,-0.14692208170890808,-573,3678
174442.068,0.005937083624303341,-0.009089795872569084,1.0,0.0315115861594677,0.04397574067115784,1.013970136642456,37601.80078125,0.7732446789741516,3.459395170211792,0.0,15.14087963104248,31.144641876220703,-5.751364231109619,13379.80859375,16578.669921875,18274.11328125,16650.0,-10293,-1.7502351999282837,-1.7313783168792725,-0.12032026052474976,-1401,3630
174444.053,0.005937083624303341,-0.009089795872569084,1.0,0.03162397816777229,0.04389110952615738,1.0138280391693115,37601.80078125,0.7732446789741516,3.459395170211792,0.0,15.14087963104248,31.144641876220703,-1.0958051681518555,14567.796875,16562.84375,17916.791015625,16650.0,31448,-1.7502351999282837,-1.7313783168792725,-0.12032026052474976,-2100,1391
174446.079,0.005937083624303341,-0.009089795872569084,1.0,0.03162397816777229,0.04389110952615738,1.0138280391693115,37601.80078125,0.7732446789741516,3.459395170211792,0.0,15.14087963104248,31.144641876220703,-1.0955644845962524,14003.1796875,16546.263671875,16944.248046875,16650.0,13455,-1.7502351999282837,-1.7313783168792725,-0.12032026052474976,-2817,-547
174448.011,0.005937083624303341,-0.009089795872569084,1.0,0.03162397816777229,0.04389110952615738,1.0138280391693115,37601.80078125,0.7732446789741516,3.459395170211792,0.0,15.14087963104248,31.144641876220703,-1.0953238010406494,13494.6533203125,16528.40234375,16328.6552734375,16650.0,-28109,-1.7502351999282837,-1.7313783168792725,-0.12032026052474976,-2325,1390
174450.057,0.0067078289575874805,-0.010257440619170666,1.0,0.03171366825699806,0.043785616755485535,1.013829231262207,37602.421875,0.8430839776992798,3.576899528503418,0.0,15.559915542602539,31.849668502807617,-1.0950831174850464,14165.5126953125,16510.390625,17006.72265625,16650.0,-8688,-1.7502351999282837,-1.7313783168792725,-0.12032026052474976,-2802,1475
174451.963,0.0067078289575874805,-0.010257440619170666,1.0,0.03171366825699806,0.043785616755485535,1.013829231262207,37602.421875,0.8430839776992798,3.576899528503418,0.0,13.426875114440918,31.115802764892578,-6.63676643371582,12672.857421875,16490.291015625,15441.8583984375,16650.0,1986,-1.394728422164917,-1.6090675592422485,-0.08970223367214203,-2275,513
174453.942,0.0067078289575874805,-0.010257440619170666,1.0,0.03171366825699806,0.043785616755485535,1.013829231262207,37602.421875,0.8430839776992798,3.576899528503418,0.0,13.426875114440918,31.115802764892578,-1.2784324884414673,14106.0927734375,16470.390625,15351.6279296875,16650.0,-21129,-1.394728422164917,-1.6090675592422485,-0.08970223367214203,-2628,-82
174455.978,0.0067078289575874805,-0.010257440619170666,1.0,0.031715866178274155,0.04371832683682442,1.0138256549835205,37602.421875,0.8430839776992798,3.576899528503418,0.0,13.426875114440918,31.115802764892578,-1.2782530784606934,14503.01171875,16451.208984375,15140.01953125,16650.0,568,-1.394728422164917,-1.6090675592422485,-0.08970223367214203,-1713,-1852
174457.93,0.0067078289575874805,-0.010257440619170666,1.0,0.031715866178274155,0.04371832683682442,1.0138256549835205,37602.421875,0.8430839776992798,3.576899528503418,0.0,13.385644912719727,31.08522605895996,-1.3922934532165527,13751.6396484375,16431.650390625,14483.265625,16649.8046875,-6166,-1.3878569602966309,-1.6039713621139526,-0.08907119184732437,-2359,-1709
174459.956,0.007547762710601091,-0.011529636569321156,1.0,0.031715866178274155,0.04371832683682442,1.0138256549835205,37590.83203125,0.921416163444519,3.6819355487823486,0.0,13.855639457702637,31.71544075012207,-1.281683087348938,13889.5859375,16411.98828125,15414.83203125,16647.998046875,8138,-1.3878569602966309,-1.6039713621139526,-0.08907119184732437,-2335,-1539
174461.858,0.007547762710601091,-0.011529636569321156,1.0,0.03197479620575905,0.043567851185798645,1.0137641429901123,37590.83203125,0.921416163444519,3.6819355487823486,0.0,13.855639457702637,31.71544075012207,-1.2815049886703491,14349.927734375,16392.876953125,15123.818359375,16644.466796875,-13069,-1.3878569602966309,-1.6039713621139526,-0.08907119184732437,-2502,-3051
174463.84,0.007547762710601091,-0.011529636569321156,1.0,0.03197479620575905,0.043567851185798645,1.0137641429901123,37590.83203125,0.921416163444519,3.6819355487823486,0.0,11.82514762878418,30.05939483642578,-5.677043437957764,12891.990234375,16372.3125,13526.1416015625,16637.373046875,-9233,-1.0494418144226074,-1.3279637098312378,-0.06478573381900787,-2444,-2306
174465.877,0.007547762710601091,-0.011529636569321156,1.0,0.0320720337331295,0.04350234195590019,1.0136425495147705,37590.83203125,0.921416163444519,3.6819355487823486,0.0,11.82514762878418,30.05939483642578,-1.4269585609436035,14881.271484375,16353.2119140625,15070.001953125,16629.3828125,28294,-1.0494418144226074,-1.3279637098312378,-0.06478573381900787,-1583,-3963
174467.802,0.007547762710601091,-0.011529636569321156,1.0,0.0320720337331295,0.04350234195590019,1.0136425495147705,37590.83203125,0.921416163444519,3.6819355487823486,0.0,11.806795120239258,30.02373504638672,-1.424695611000061,15990.8173828125,16336.833984375,15138.796875,16620.748046875,1696,-1.046383023262024,-1.3220202922821045,-0.06479752063751221,-2104,-2293
174469.846,0.008459876291453838,-0.012905544601380825,1.0,0.0320720337331295,0.04350234195590019,1.0136425495147705,37555.00390625,0.9845256209373474,3.777707815170288,0.0,12.18545150756836,30.598369598388672,-1.4266287088394165,16426.580078125,16323.32421875,15048.25390625,16611.46875,-4604,-1.046383023262024,-1.3220202922821045,-0.06479752063751221,-2653,-2425
174471.755,0.008459876291453838,-0.012905544601380825,1.0,0.032294828444719315,0.043302979320287704,1.0134546756744385,37555.00390625,0.9845256209373474,3.777707815170288,0.0,12.18545150756836,30.598369598388672,-1.4264991283416748,16531.310546875,16312.357421875,15280.822265625,16601.974609375,18854,-1.046383023262024,-1.3220202922821045,-0.06479752063751221,-2055,-2688
174473.74,0.008459876291453838,-0.012905544601380825,1.0,0.032294828444719315,0.043302979320287704,1.0134546756744385,37555.00390625,0.9845256209373474,3.777707815170288,0.0,10.360328674316406,28.34725570678711,-4.80406379699707,15899.658203125,16302.6806640625,14103.5078125,16590.74609375,-2916,-0.7421958446502686,-0.9468350410461426,-0.04613643139600754,-2104,-4124
174475.785,0.008459876291453838,-0.012905544601380825,1.0,0.032294828444719315,0.043302979320287704,1.0134546756744385,37555.00390625,0.9845256209373474,3.777707815170288,0.0,10.360328674316406,28.34725570678711,-1.5382812023162842,17301.7578125,16295.9580078125,15563.6513671875,16580.03515625,-20245,-0.7421958446502686,-0.9468350410461426,-0.04613643139600754,-2587,-4452
174477.699,0.008459876291453838,-0.012905544601380825,1.0,0.032523263245821,0.04330899566411972,1.013304352760315,37555.00390625,0.9845256209373474,3.777707815170288,0.0,10.360328674316406,28.34725570678711,-1.5381889343261719,17758.73046875,16292.310546875,16049.453125,16570.4140625,-16020,-0.7421958446502686,-0.9468350410461426,-0.04613643139600754,-389,-3387
