timestamp,gyro.x,gyro.y,gyro.z,acc.x,acc.y,acc.z,controller.actuatorThrust,controller.pitch,controller.roll,controller.yaw,pid_attitude.pitch_output,pid_attitude.roll_output,pid_attitude.yaw_output,pid_attitude.pitch_outI,pid_attitude.roll_outI,pid_attitude.yaw_outI,pid_rate.pitch_output,pid_rate.roll_output,pid_rate.yaw_output,pid_rate.pitch_outI,pid_rate.roll_outI,pid_rate.yaw_outI,stateEstimate.pitch,stateEstimate.roll,stateEstimate.yaw,snn_control.torque_pitch,snn_control.torque_roll
16835.953,80.15283203125,-27.914278030395508,-0.9326415061950684,0.0010709635680541396,0.0101172411814332,1.0686851739883423,51350.0,0.6756296157836914,1.0,0.431522399187088,10.442403793334961,15.089447021484375,16.709497451782227,0.0,0.0,0.6336535215377808,-2828.07666015625,-9824.046875,2117,0.0,0.0,0.0,-1.064771056175232,-1.5149078369140625,-2.2477848529815674,-2168.26025390625,-10853.2802734375
16837.866,80.54878234863281,-27.67939567565918,-0.8005548715591431,-0.001454102573916316,0.014252499677240849,1.0668940544128418,51350.0,0.6756296157836914,1.0,0.431522399187088,9.7706298828125,13.134571075439453,16.809968948364258,0.0,0.0,0.6390131711959839,-3013.983642578125,-11875.25390625,2113,0.0,0.0,0.0,-0.952808678150177,-1.1890952587127686,-2.2483103275299072,-2114.120361328125,-10372.3193359375
16839.83,81.125,-27.678791046142578,-0.5044023990631104,-0.0066099329851567745,0.013856993056833744,1.067379355430603,51350.0,0.6756296157836914,1.0,0.431522399187088,9.7706298828125,13.134571075439453,16.723369598388672,0.0,0.0,0.644372820854187,-2685.770751953125,-10630.7275390625,2067,0.0,0.0,0.0,-0.952808678150177,-1.1890952587127686,-2.2483103275299072,-1865.7001953125,-9822.7802734375
16841.808,81.89517211914062,-27.808284759521484,-0.120817631483078,-0.01142380852252245,0.009468251839280128,1.0657991170883179,51350.0,0.6756296157836914,1.0,0.431522399187088,9.102254867553711,11.152739524841309,16.448442459106445,0.0,0.0,0.6497293710708618,-3404.30615234375,-12675.3642578125,1988,0.0,0.0,0.0,-0.8414127826690674,-0.85878986120224,-2.2467617988586426,-7416.31982421875,-11636.140625
16843.78,82.07643127441406,-28.09593963623047,0.2120061069726944,-0.01522477064281702,0.003960247151553631,1.0659728050231934,51350.0,0.6756296157836914,1.0,0.431522399187088,9.102254867553711,11.152739524841309,16.72479248046875,0.0,0.0,0.6550859212875366,-3064.7939453125,-10774.498046875,1981,0.0,0.0,0.0,-0.8414127826690674,-0.85878986120224,-2.2467617988586426,-6826.580078125,-12670.599609375
16845.844,81.5688705444336,-29.070112228393555,0.4393787682056427,-0.018153656274080276,-0.0009250540169887245,1.0676004886627197,51350.0,0.6756296157836914,1.0,0.431522399187088,8.408305168151855,9.187103271484375,16.153175354003906,0.0,0.0,0.6604360938072205,-4350.36376953125,-11950.822265625,1885,0.0,0.0,0.0,-0.7257546186447144,-0.5311840176582336,-2.2435741424560547,-5803.7197265625,-13004.619140625
16847.727,80.93419647216797,-29.88106346130371,0.7402915954589844,-0.016771310940384865,-0.002458942122757435,1.0651963949203491,51350.0,0.6756296157836914,1.0,0.431522399187088,8.408305168151855,9.187103271484375,16.716365814208984,0.0,0.0,0.6657862663269043,-3829.127197265625,-10286.05859375,1917,0.0,0.0,0.0,-0.7257546186447144,-0.5311840176582336,-2.2435741424560547,-5705.0,-13484.51953125
16849.721,80.42534637451172,-29.8957576751709,1.0161793231964111,-0.01070672832429409,-0.0018077687127515674,1.061975121498108,51350.0,0.6756296157836914,1.0,0.431522399187088,7.691938877105713,7.2524261474609375,15.844733238220215,0.0,0.0,0.6711267828941345,-3878.867919921875,-12045.30859375,1779,0.0,0.0,0.0,-0.606360137462616,-0.20873768627643585,-2.2387290000915527,-5532.0595703125,-12881.6796875
16851.677,79.96821594238281,-29.650550842285156,1.0747768878936768,-0.003816796699538827,0.00015190918929874897,1.0580281019210815,51350.0,0.6756296157836914,1.0,0.431522399187088,7.691938877105713,7.2524261474609375,16.697975158691406,0.0,0.0,0.6764672994613647,-3109.88671875,-10564.5205078125,1874,0.0,0.0,0.0,-0.606360137462616,-0.20873768627643585,-2.2387290000915527,-5554.1396484375,-13260.9990234375
16853.667,79.52739715576172,-29.778169631958008,1.013578176498413,0.0034161426592618227,0.0015198368346318603,1.0521432161331177,51350.0,0.6756296157836914,1.0,0.431522399187088,6.97212028503418,5.340764999389648,15.9506196975708,0.0,0.0,0.6817994713783264,-4056.485107421875,-12231.1240234375,1792,0.0,0.0,0.0,-0.48639047145843506,0.10987253487110138,-2.2345705032348633,-5781.6396484375,-12625.2998046875
16855.714,78.98637390136719,-30.030101776123047,1.0269609689712524,0.007683520670980215,0.0038010592106729746,1.0491092205047607,51350.0,0.6756296157836914,1.0,0.431522399187088,6.97212028503418,5.340764999389648,16.68368911743164,0.0,0.0,0.6871316432952881,-3647.646484375,-10641.0732421875,1878,0.0,0.0,0.0,-0.48639047145843506,0.10987253487110138,-2.2345705032348633,-5573.33984375,-12280.0400390625
16857.63,77.84138488769531,-30.374406814575195,1.2710269689559937,0.01064746268093586,0.006952569354325533,1.0479769706726074,51350.0,0.6756296157836914,1.0,0.431522399187088,6.23527193069458,3.469817638397217,15.87094497680664,0.0,0.0,0.6924548149108887,-4431.73583984375,-11700.205078125,1751,0.0,0.0,0.0,-0.36358243227005005,0.42169708013534546,-2.230050802230835,-1600.439697265625,-11637.5185546875
16859.597,76.12896728515625,-31.143997192382812,1.3720272779464722,0.009660338051617146,0.00435109157115221,1.0465182065963745,51350.0,0.6756296157836914,1.0,0.431522399187088,6.23527193069458,3.469817638397217,16.667217254638672,0.0,0.0,0.6977779865264893,-4313.50146484375,-9614.55859375,1835,0.0,0.0,0.0,-0.36358243227005005,0.42169708013534546,-2.230050802230835,-3239.12060546875,-10898.51953125
16861.588,74.1228256225586,-32.017879486083984,1.2772454023361206,0.00681664515286684,-9.291762398788705e-05,1.0442980527877808,51350.0,0.6756296157836914,1.0,0.431522399187088,5.462132453918457,1.6948506832122803,15.979570388793945,0.0,0.0,0.7030934691429138,-5218.62890625,-10690.8193359375,1764,0.0,0.0,0.0,-0.23472581803798676,0.7175248861312866,-2.226222276687622,-3239.12060546875,-10898.51953125
16863.528,71.66690826416016,-32.36106872558594,1.41885244846344,0.002873437013477087,-0.006507534999400377,1.0424731969833374,51350.0,0.6756296157836914,1.0,0.431522399187088,5.462132453918457,1.6948506832122803,16.654876708984375,0.0,0.0,0.7084089517593384,-4292.232421875,-8653.87109375,1828,0.0,0.0,0.0,-0.23472581803798676,0.7175248861312866,-2.226222276687622,-5532.0595703125,-12881.6796875
16865.597,68.89913177490234,-32.42140579223633,1.764363408088684,-0.0005060082767158747,-0.01471466664224863,1.0411105155944824,51350.0,0.6756296157836914,1.0,0.431522399187088,4.6841139793396,0.0557781457901001,15.734793663024902,0.0,0.0,0.7137142419815063,-4789.359375,-9479.9716796875,1676,0.0,0.0,0.0,-0.1050560474395752,0.9907036423683167,-2.221109628677368,-3935.580322265625,-10229.21875
16867.47,66.03490447998047,-32.719970703125,1.9815434217453003,-0.0012129885144531727,-0.014405003748834133,1.0397584438323975,51350.0,0.6756296157836914,1.0,0.431522399187088,4.6841139793396,0.0557781457901001,16.634811401367188,0.0,0.0,0.7190195322036743,-4429.30224609375,-7748.69873046875,1758,0.0,0.0,0.0,-0.1050560474395752,0.9907036423683167,-2.221109628677368,-2376.560302734375,-11198.5400390625
16869.447,63.157527923583984,-33.140724182128906,2.1145880222320557,-0.0008824538090266287,-0.009663364849984646,1.038663387298584,51350.0,0.6756296157836914,1.0,0.431522399187088,3.8900351524353027,-1.4454553127288818,15.577486991882324,0.0,0.0,0.7243130803108215,-5298.7275390625,-8658.3388671875,1615,0.0,0.0,0.0,0.027290387079119682,1.240909218788147,-2.2152388095855713,-5477.15966796875,-12879.458984375
16871.412,60.054927825927734,-33.5442008972168,2.209613561630249,-0.00013150360609870404,-0.003597936360165477,1.0356091260910034,51350.0,0.6756296157836914,1.0,0.431522399187088,3.8900351524353027,-1.4454553127288818,16.61017417907715,0.0,0.0,0.7296066284179688,-4750.732421875,-6898.107421875,1728,0.0,0.0,0.0,0.027290387079119682,1.240909218788147,-2.2152388095855713,-3686.00048828125,-10485.5986328125
16873.395,56.73192596435547,-33.889469146728516,2.2965447902679443,0.00036718862247653306,0.006145995110273361,1.0315698385238647,51350.0,0.6756296157836914,1.0,0.431522399187088,3.0784196853637695,-2.7983322143554688,15.532727241516113,0.0,0.0,0.7348881959915161,-5489.3212890625,-7451.94677734375,1588,0.0,0.0,0.0,0.16255968809127808,1.4663887023925781,-2.209256887435913,-4033.500244140625,-10505.458984375
16875.44,53.27949905395508,-34.167144775390625,2.242849826812744,0.000657944125123322,0.01736358366906643,1.029378890991211,51350.0,0.6756296157836914,1.0,0.431522399187088,3.0784196853637695,-2.7983322143554688,16.5848445892334,0.0,0.0,0.7401697635650635,-4871.56591796875,-5822.3544921875,1721,0.0,0.0,0.0,0.16255968809127808,1.4663887023925781,-2.209256887435913,-6598.73974609375,-12065.5390625
16877.345,49.794891357421875,-34.51585006713867,2.2171106338500977,-0.00021042409935034811,0.024268126115202904,1.0290508270263672,51350.0,0.6756296157836914,1.0,0.431522399187088,2.253349781036377,-3.9921212196350098,15.66822338104248,0.0,0.0,0.7454411387443542,-5719.7060546875,-6349.939453125,1614,0.0,0.0,0.0,0.3000712990760803,1.665353536605835,-2.2041635513305664,-2596.580322265625,-10875.298828125
16879.314,46.38283157348633,-34.83706283569336,2.11854887008667,-0.0022895680740475655,0.026766156777739525,1.0309306383132935,51350.0,0.6756296157836914,1.0,0.431522399187088,2.253349781036377,-3.9921212196350098,16.564828872680664,0.0,0.0,0.750712513923645,-5128.466796875,-4997.1982421875,1733,0.0,0.0,0.0,0.3000712990760803,1.665353536605835,-2.2041635513305664,-2070.039794921875,-11057.8994140625
16881.301,42.861995697021484,-35.00844192504883,1.9708102941513062,-0.004768532235175371,0.01959097757935524,1.034166932106018,51350.0,0.6756296157836914,1.0,0.431522399187088,1.4203014373779297,-5.015070915222168,15.917089462280273,0.0,0.0,0.755976676940918,-5791.54296875,-5308.1455078125,1673,0.0,0.0,0.0,0.4389127194881439,1.8358451128005981,-2.2005558013916016,-2998.980224609375,-10897.37890625
16883.262,39.50749206542969,-34.795555114746094,1.9394574165344238,-0.005993103142827749,0.006585963536053896,1.0392793416976929,51350.0,0.6756296157836914,1.0,0.431522399187088,1.4203014373779297,-5.015070915222168,16.553709030151367,0.0,0.0,0.7612408399581909,-4846.61962890625,-4162.50732421875,1753,0.0,0.0,0.0,0.4389127194881439,1.8358451128005981,-2.2005558013916016,-3260.860107421875,-10037.080078125
16885.323,36.62586212158203,-34.62156295776367,1.9065696001052856,-0.0069267344661056995,-0.00023108813911676407,1.0441007614135742,51350.0,0.6756296157836914,1.0,0.431522399187088,0.5989247560501099,-5.876236915588379,16.009361267089844,0.0,0.0,0.7664989233016968,-5588.93408203125,-4859.9658203125,1692,0.0,0.0,0.0,0.5758088231086731,1.9793728590011597,-2.197519302368164,-3040.260009765625,-10295.7392578125
16887.218,33.075592041015625,-34.78449630737305,1.7406803369522095,-0.007692169398069382,-0.0034637614153325558,1.0469970703125,51350.0,0.6756296157836914,1.0,0.431522399187088,0.5989247560501099,-5.876236915588379,16.54600715637207,0.0,0.0,0.7717570066452026,-5250.03564453125,-3180.07177734375,1776,0.0,0.0,0.0,0.5758088231086731,1.9793728590011597,-2.197519302368164,-6196.33984375,-12043.458984375
16889.194,28.613758087158203,-35.16771697998047,1.6214370727539062,-0.006155000999569893,-0.003825854044407606,1.0508631467819214,51350.0,0.6756296157836914,1.0,0.431522399187088,-0.23441612720489502,-6.541932106018066,16.27555274963379,0.0,0.0,0.777012050151825,-6222.7431640625,-2426.24951171875,1758,0.0,0.0,0.0,0.7146989703178406,2.0903220176696777,-2.195996046066284,-4429.78076171875,-12188.779296875
16891.155,24.21009063720703,-35.62797164916992,1.4645793437957764,-0.0031903067138046026,-0.0005512668285518885,1.0506951808929443,51350.0,0.6756296157836914,1.0,0.431522399187088,-0.23441612720489502,-6.541932106018066,16.54737663269043,0.0,0.0,0.7822670936584473,-5724.54931640625,-1310.052734375,1809,0.0,0.0,0.0,0.7146989703178406,2.0903220176696777,-2.195996046066284,-5343.439453125,-8209.1201171875
16893.138,20.238201141357422,-35.739158630371094,1.3094604015350342,0.00025950625422410667,0.003787712659686804,1.0500233173370361,51350.0,0.6756296157836914,1.0,0.431522399187088,-1.0831468105316162,-7.009614944458008,16.55966567993164,0.0,0.0,0.7875221967697144,-6243.2822265625,-1459.01806640625,1830,0.0,0.0,0.0,0.8561540842056274,2.168269157409668,-2.1960349082946777,-7271.43994140625,-10568.3994140625
16895.2,16.441123962402344,-35.45099639892578,1.2818351984024048,0.0023947700392454863,0.00741287088021636,1.0497252941131592,51350.0,0.6756296157836914,1.0,0.431522399187088,-1.0831468105316162,-7.009614944458008,16.558120727539062,0.0,0.0,0.7927772998809814,-5263.99951171875,-669.80322265625,1833,0.0,0.0,0.0,0.8561540842056274,2.168269157409668,-2.1960349082946777,-7243.6396484375,-11086.16015625
16897.109,12.307859420776367,-35.0107536315918,1.3628867864608765,0.0025907729286700487,0.012027260847389698,1.0492476224899292,51350.0,0.6756296157836914,1.0,0.431522399187088,-1.9143708944320679,-7.290497303009033,16.54007339477539,0.0,0.0,0.7980321645736694,-5832.00634765625,-50.466552734375,1821,0.0,0.0,0.0,0.9946914315223694,2.215082883834839,-2.195906162261963,-7476.8603515625,-10331.2802734375
16899.061,7.982874870300293,-34.74858856201172,1.366751790046692,0.0023471892345696688,0.015811460092663765,1.049109935760498,51350.0,0.6756296157836914,1.0,0.431522399187088,-1.9143708944320679,-7.290497303009033,16.56785774230957,0.0,0.0,0.8032870292663574,-5302.81982421875,952.731689453125,1824,0.0,0.0,0.0,0.9946914315223694,2.215082883834839,-2.195906162261963,-10997.5,-7823.69970703125
16901.043,3.879699945449829,-34.612274169921875,1.056554913520813,0.00025191635359078646,0.014730735681951046,1.0492128133773804,51350.0,0.6756296157836914,1.0,0.431522399187088,-2.733248233795166,-7.370201110839844,16.77313232421875,0.0,0.0,0.8085440993309021,-6113.75146484375,1330.11865234375,1885,0.0,0.0,0.0,1.1311709880828857,2.2283668518066406,-2.1970112323760986,-8143.47998046875,-4475.64013671875
16903.02,-5.39257271157112e-05,-33.99127197265625,0.7540498375892639,-0.003676564898341894,0.011097497306764126,1.0506724119186401,51350.0,0.6756296157836914,1.0,0.431522399187088,-2.733248233795166,-7.370201110839844,16.585002899169922,0.0,0.0,0.8138011693954468,-5042.9267578125,1804.2928466796875,1899,0.0,0.0,0.0,1.1311709880828857,2.2283668518066406,-2.1970112323760986,-7372.21875,-1318.320068359375
16905.069,-4.16641902923584,-32.993133544921875,0.6724824905395508,-0.009026250801980495,0.0057199676521122456,1.0525785684585571,51350.0,0.6756296157836914,1.0,0.431522399187088,-3.5069704055786133,-7.252145290374756,17.01766014099121,0.0,0.0,0.8190629482269287,-5306.70166015625,2750.456787109375,1961,0.0,0.0,0.0,1.260124683380127,2.208690881729126,-2.1993725299835205,-5668.859375,-2555.7998046875
16906.969,-8.886526107788086,-31.808090209960938,0.6931100487709045,-0.014618844725191593,0.00019643893756438047,1.0525782108306885,51350.0,0.6756296157836914,1.0,0.431522399187088,-3.5069704055786133,-7.252145290374756,16.609695434570312,0.0,0.0,0.8243247270584106,-4408.4765625,3785.2373046875,1909,0.0,0.0,0.0,1.260124683380127,2.208690881729126,-2.1993725299835205,-5460.55908203125,-2210.539794921875
16908.965,-13.451385498046875,-30.47783088684082,0.7462398409843445,-0.018732909113168716,0.00034641841193661094,1.0515108108520508,51350.0,0.6756296157836914,1.0,0.431522399187088,-4.2143940925598145,-6.908579349517822,16.900896072387695,0.0,0.0,0.8295896649360657,-4736.708984375,4662.73974609375,1938,0.0,0.0,0.0,1.3780286312103271,2.1514298915863037,-2.2009522914886475,-5460.55908203125,-2210.539794921875
16910.927,-17.6668701171875,-29.599966049194336,0.4748415946960449,-0.021018195897340775,0.0031601320952177048,1.0495753288269043,51350.0,0.6756296157836914,1.0,0.431522399187088,-4.2143940925598145,-6.908579349517822,16.629701614379883,0.0,0.0,0.8348546028137207,-4413.755859375,4775.357421875,1938,0.0,0.0,0.0,1.3780286312103271,2.1514298915863037,-2.2009522914886475,-5010.4794921875,-1802.93994140625
16912.9,-22.002382278442383,-28.946746826171875,-0.17729729413986206,-0.020779045298695564,0.00791289284825325,1.0458946228027344,51350.0,0.6756296157836914,1.0,0.431522399187088,-4.882176399230957,-6.364807605743408,17.52243423461914,0.0,0.0,0.8401293754577637,-5085.2587890625,6005.09912109375,2123,0.0,0.0,0.0,1.4893256425857544,2.0608012676239014,-2.205855369567871,-5635.599609375,-1757.9197998046875
16914.943,-26.294677734375,-27.840909957885742,-0.5709522366523743,-0.016383592039346695,0.011776834726333618,1.041619062423706,51350.0,0.6756296157836914,1.0,0.431522399187088,-4.882176399230957,-6.364807605743408,16.66967010498047,0.0,0.0,0.8454041481018066,-4079.086669921875,6208.7021484375,2068,0.0,0.0,0.0,1.4893256425857544,2.0608012676239014,-2.205855369567871,-8145.45947265625,2487.259521484375
16916.829,-30.15658187866211,-26.490877151489258,-0.6003409028053284,-0.00790955126285553,0.015093324705958366,1.036453127861023,51350.0,0.6756296157836914,1.0,0.431522399187088,-5.496541976928711,-5.630259990692139,17.770286560058594,0.0,0.0,0.850691020488739,-4246.36181640625,7126.2861328125,2204,0.0,0.0,0.0,1.5917199850082397,1.9383766651153564,-2.211906909942627,-7238.79931640625,233.35948181152344
16918.795,-34.151241302490234,-25.57762336730957,-0.5952261686325073,-0.004576245788484812,0.015448766760528088,1.0362329483032227,51350.0,0.6756296157836914,1.0,0.431522399187088,-5.496541976928711,-5.630259990692139,16.716552734375,0.0,0.0,0.8559778928756714,-3976.1845703125,7274.1416015625,2077,0.0,0.0,0.0,1.5917199850082397,1.9383766651153564,-2.211906909942627,-6595.099609375,-810.8401489257812
16920.778,-38.18589782714844,-25.278478622436523,-0.6738715767860413,-0.004842196591198444,0.011925170198082924,1.0370560884475708,51350.0,0.6756296157836914,1.0,0.431522399187088,-6.082587242126465,-4.702550888061523,17.794740676879883,0.0,0.0,0.8612766265869141,-4919.33447265625,8744.275390625,2216,0.0,0.0,0.0,1.6893941164016724,1.783758521080017,-2.21783447265625,-6909.5595703125,4024.759521484375
16922.749,-41.92447280883789,-24.58955955505371,-0.7809561491012573,-0.007648311089724302,0.0059660859405994415,1.041707992553711,51350.0,0.6756296157836914,1.0,0.431522399187088,-6.082587242126465,-4.702550888061523,16.76271629333496,0.0,0.0,0.8665753602981567,-4084.132568359375,8387.22265625,2105,0.0,0.0,0.0,1.6893941164016724,1.783758521080017,-2.21783447265625,-8120.9794921875,3746.27978515625
16924.804,-45.50095748901367,-23.44207763671875,-0.9832137823104858,-0.010893500410020351,-0.0005060877883806825,1.0472183227539062,51350.0,0.6756296157836914,1.0,0.431522399187088,-6.6205596923828125,-3.5944039821624756,17.966711044311523,0.0,0.0,0.8718873262405396,-4052.26416015625,9799.45703125,2273,0.0,0.0,0.0,1.779056191444397,1.5990673303604126,-2.224457025527954,-6778.23974609375,6363.0205078125
16926.695,-49.23418045043945,-22.411067962646484,-1.2003324031829834,-0.012244208715856075,-0.002711355686187744,1.0455081462860107,51350.0,0.6756296157836914,1.0,0.431522399187088,-6.6205596923828125,-3.5944039821624756,16.81307601928711,0.0,0.0,0.8771992921829224,-3581.48681640625,9645.8837890625,2161,0.0,0.0,0.0,1.779056191444397,1.5990673303604126,-2.224457025527954,-6764.83935546875,8471.240234375
16928.681,-52.91620635986328,-20.74290657043457,-1.5200567245483398,-0.014599954709410667,-0.004919718950986862,1.0409142971038818,51350.0,0.6756296157836914,1.0,0.431522399187088,-7.090969562530518,-2.3080952167510986,18.294910430908203,0.0,0.0,0.8825275897979736,-3276.767578125,11317.466796875,2377,0.0,0.0,0.0,1.8574578762054443,1.384682536125183,-2.232614517211914,-4292.919921875,9945.599609375
16930.641,-55.995208740234375,-18.3360652923584,-1.6100298166275024,-0.01784178614616394,-0.006837851833552122,1.0322093963623047,51350.0,0.6756296157836914,1.0,0.431522399187088,-7.090969562530518,-2.3080952167510986,16.872676849365234,0.0,0.0,0.8878558874130249,-2008.92431640625,10362.3193359375,2217,0.0,0.0,0.0,1.8574578762054443,1.384682536125183,-2.232614517211914,-4731.7392578125,5600.080078125
16932.624,-58.8309326171875,-16.161956787109375,-1.5003373622894287,-0.02029792219400406,-0.0028111455030739307,1.0256034135818481,51350.0,0.6756296157836914,1.0,0.431522399187088,-7.448158264160156,-0.882875919342041,18.210651397705078,0.0,0.0,0.8931989073753357,-2178.827880859375,11887.9130859375,2365,0.0,0.0,0.0,1.9169893264770508,1.1471459865570068,-2.2399771213531494,-2004.340087890625,8208.7216796875
16934.663,-61.94622039794922,-13.90634536743164,-1.4712086915969849,-0.020029762759804726,0.006034846883267164,1.0211431980133057,51350.0,0.6756296157836914,1.0,0.431522399187088,-7.448158264160156,-0.882875919342041,16.927539825439453,0.0,0.0,0.8985419273376465,-1511.467041015625,11495.966796875,2207,0.0,0.0,0.0,1.9169893264770508,1.1471459865570068,-2.2399771213531494,-2334.7001953125,9345.240234375
16936.574,-64.74742126464844,-11.461485862731934,-1.6743948459625244,-0.01741735450923443,0.013886603526771069,1.016916036605835,51350.0,0.6756296157836914,1.0,0.431522399187088,-7.693933010101318,0.6730606555938721,18.29142189025879,0.0,0.0,0.9038999676704407,-1223.998779296875,13080.923828125,2395,0.0,0.0,0.0,1.9579517841339111,0.887823224067688,-2.2474827766418457,-3218.3603515625,8549.0009765625
16938.539,-66.81961822509766,-9.89819049835205,-1.9869458675384521,-0.014987438917160034,0.019030345603823662,1.015860915184021,51350.0,0.6756296157836914,1.0,0.431522399187088,-7.693933010101318,0.6730606555938721,16.98328971862793,0.0,0.0,0.9092580080032349,-1466.346923828125,11678.048828125,2276,0.0,0.0,0.0,1.9579517841339111,0.887823224067688,-2.2474827766418457,-1776.97998046875,8683.4208984375
16940.532,-68.38246154785156,-8.584646224975586,-2.0629937648773193,-0.015359609387814999,0.01654401607811451,1.016585350036621,51350.0,0.6756296157836914,1.0,0.431522399187088,-7.8716912269592285,2.3120522499084473,18.567012786865234,0.0,0.0,0.9146334528923035,-1616.6109619140625,13005.552734375,2475,0.0,0.0,0.0,1.9875781536102295,0.6146579384803772,-2.2562029361724854,-1090.7401123046875,6681.880859375
16942.501,-69.6380615234375,-6.765509605407715,-2.024475336074829,-0.013083932921290398,0.010861719027161598,1.0165947675704956,51350.0,0.6756296157836914,1.0,0.431522399187088,-7.8716912269592285,2.3120522499084473,17.046361923217773,0.0,0.0,0.9200088977813721,-831.2283935546875,11734.216796875,2288,0.0,0.0,0.0,1.9875781536102295,0.6146579384803772,-2.2562029361724854,-3999.27978515625,8894.060546875
16944.549,-70.74609375,-4.881713390350342,-2.1112682819366455,-0.008836491033434868,0.006112934555858374,1.0159976482391357,51350.0,0.6756296157836914,1.0,0.431522399187088,-7.964321136474609,4.010758399963379,18.60938835144043,0.0,0.0,0.9254015684127808,-583.530517578125,13318.58203125,2486,0.0,0.0,0.0,2.003016471862793,0.33154022693634033,-2.2648086547851562,-1004.9199829101562,7535.140625
16946.47,-71.61227416992188,-2.895693302154541,-2.3378334045410156,-0.005149707663804293,0.0021726232953369617,1.0150606632232666,51350.0,0.6756296157836914,1.0,0.431522399187088,-7.964321136474609,4.010758399963379,17.108779907226562,0.0,0.0,0.9307942390441895,-139.486328125,11993.08984375,2333,0.0,0.0,0.0,2.003016471862793,0.33154022693634033,-2.2648086547851562,-681.0399780273438,7144.640625
16948.433,-72.24862670898438,-0.6079996824264526,-2.447420597076416,-0.000897186400834471,-0.0009597449097782373,1.0124489068984985,51350.0,0.6756296157836914,1.0,0.431522399187088,-7.959059715270996,5.746364116668701,18.886259078979492,0.0,0.0,0.9362064599990845,434.6568603515625,13478.21484375,2560,0.0,0.0,0.0,2.0021395683288574,0.042272619903087616,-2.274599075317383,377.9400939941406,8133.7802734375
16950.405,-72.706298828125,1.356661319732666,-2.529690980911255,0.00375166698358953,-0.002929335692897439,1.0098047256469727,51350.0,0.6756296157836914,1.0,0.431522399187088,-7.959059715270996,5.746364116668701,17.178346633911133,0.0,0.0,0.9416186809539795,483.135986328125,12111.1533203125,2364,0.0,0.0,0.0,2.0021395683288574,0.042272619903087616,-2.274599075317383,377.9400939941406,8133.7802734375
16952.38,-72.91093444824219,3.183424711227417,-2.7998762130737305,0.0023047931026667356,-0.0020998604595661163,1.0121710300445557,51350.0,0.6756296157836914,1.0,0.431522399187088,-7.865152359008789,7.495423793792725,19.216064453125,0.0,0.0,0.9470533728599548,738.2440795898438,13526.2255859375,2641,0.0,0.0,0.0,1.9864883422851562,-0.2492373287677765,-2.285827159881592,288.9399719238281,8372.8994140625
16954.423,-72.73748016357422,5.675074577331543,-3.1275534629821777,-0.002144683850929141,-0.0012798435054719448,1.0190314054489136,51350.0,0.6756296157836914,1.0,0.431522399187088,-7.865152359008789,7.495423793792725,17.25658416748047,0.0,0.0,0.9524880647659302,1540.225341796875,11904.8447265625,2446,0.0,0.0,0.0,1.9864883422851562,-0.2492373287677765,-2.285827159881592,-110.06014251708984,8843.2607421875
16956.32,-72.73976135253906,7.852080345153809,-3.3730907440185547,-0.006795793306082487,0.0006192044238559902,1.027696132659912,51350.0,0.6756296157836914,1.0,0.431522399187088,-7.655320644378662,9.235641479492188,19.749258041381836,0.0,0.0,0.957950234413147,1819.6419677734375,13603.185546875,2774,0.0,0.0,0.0,1.9515163898468018,-0.5392735004425049,-2.2995686531066895,2735.6201171875,8163.66015625
16958.282,-73.15604400634766,9.210800170898438,-3.460575580596924,-0.011454744264483452,0.0009134105057455599,1.038072943687439,51350.0,0.35374948382377625,1.0,0.431522399187088,-9.586601257324219,9.235641479492188,17.349960327148438,0.0,0.0,0.9634124040603638,-485.79071044921875,12670.96484375,2497,0.0,0.0,0.0,1.9515163898468018,-0.5392735004425049,-2.2995686531066895,3088.84033203125,10522.439453125
16960.266,-73.01736450195312,10.795251846313477,-3.7528462409973145,-0.015643909573554993,-0.001254927716217935,1.0460695028305054,51350.0,0.35374948382377625,1.0,0.431522399187088,-9.302693367004395,10.980419158935547,20.17399787902832,0.0,0.0,0.9689057469367981,1625.1534423828125,13804.244140625,2871,0.0,0.0,0.0,1.904198408126831,-0.8300698399543762,-2.315140724182129,2097.56005859375,9039.3994140625
16962.23,-71.98545837402344,12.791775703430176,-4.042823791503906,-0.01851518265902996,-0.002479255897924304,1.0487804412841797,51350.0,0.35374948382377625,1.0,0.431522399187088,-9.302693367004395,10.980419158935547,17.454378128051758,0.0,0.0,0.9743990898132324,2020.755126953125,11670.9521484375,2579,0.0,0.0,0.0,1.904198408126831,-0.8300698399543762,-2.315140724182129,3290.519775390625,10251.30078125
16964.29,-70.9062728881836,14.888012886047363,-4.273295879364014,-0.02036692388355732,-0.003137222956866026,1.047489047050476,51350.0,0.35374948382377625,1.0,0.431522399187088,-8.919595718383789,12.672313690185547,20.746196746826172,0.0,0.0,0.979928731918335,2754.763671875,12996.3134765625,3002,0.0,0.0,0.0,1.8403488397598267,-1.1120522022247314,-2.33329701423645,1284.93994140625,9895.6806640625
16966.179,-70.24504852294922,17.39156723022461,-4.4972076416015625,-0.019780714064836502,-0.0010803366312757134,1.0458141565322876,51350.0,0.35374948382377625,1.0,0.431522399187088,-8.919595718383789,12.672313690185547,17.57437515258789,0.0,0.0,0.9854583740234375,3148.46142578125,11941.685546875,2648,0.0,0.0,0.0,1.8403488397598267,-1.1120522022247314,-2.33329701423645,2212.380126953125,8707.1611328125
16968.163,-69.4487075805664,19.539838790893555,-4.7901482582092285,-0.019256409257650375,0.0009296661010012031,1.0443356037139893,51350.0,0.35374948382377625,1.0,0.431522399187088,-8.42721939086914,14.324023246765137,21.37044334411621,0.0,0.0,0.9910299181938171,3647.37890625,13207.4365234375,3139,0.0,0.0,0.0,1.7582859992980957,-1.387337327003479,-2.354238986968994,5861.52099609375,8929.8798828125
16970.126,-68.01512908935547,20.578020095825195,-5.142557144165039,-0.019840029999613762,0.0017257118597626686,1.0407246351242065,51350.0,0.35374948382377625,1.0,0.431522399187088,-8.42721939086914,14.324023246765137,17.711170196533203,0.0,0.0,0.9966014623641968,2601.256103515625,11275.6884765625,2742,0.0,0.0,0.0,1.7582859992980957,-1.387337327003479,-2.354238986968994,4841.3798828125,9452.7998046875
16972.114,-66.21817779541016,21.30885887145996,-5.621255397796631,-0.018561014905571938,0.0035807222593575716,1.0360026359558105,51350.0,0.35374948382377625,1.0,0.431522399187088,-7.8947343826293945,15.893661499023438,22.21177101135254,0.0,0.0,1.0022226572036743,2959.611328125,12146.2939453125,3339,0.0,0.0,0.0,1.6695386171340942,-1.6489436626434326,-2.379073143005371,4947.14013671875,8866.9599609375
16974.15,-64.56272888183594,23.04720687866211,-5.9701828956604,-0.01749257743358612,0.007110454607754946,1.0302908420562744,51350.0,0.35374948382377625,1.0,0.431522399187088,-7.8947343826293945,15.893661499023438,17.871416091918945,0.0,0.0,1.0078438520431519,3576.6318359375,10826.8720703125,2860,0.0,0.0,0.0,1.6695386171340942,-1.6489436626434326,-2.379073143005371,4719.97998046875,8853.1396484375
16976.059,-62.85896682739258,25.61427116394043,-5.880280494689941,-0.018266214057803154,0.009280604310333729,1.0248596668243408,51350.0,0.35374948382377625,1.0,0.431522399187088,-7.261081695556641,17.37704849243164,22.727834701538086,0.0,0.0,1.0135186910629272,5153.51611328125,11870.12109375,3432,0.0,0.0,0.0,1.563929796218872,-1.8961749076843262,-2.4058728218078613,4180.740234375,8770.759765625
16978.03,-61.21971130371094,27.748655319213867,-5.784453868865967,-0.016949109733104706,0.013896817341446877,1.0214664936065674,51350.0,0.35374948382377625,1.0,0.431522399187088,-7.261081695556641,17.37704849243164,18.04356575012207,0.0,0.0,1.0191935300827026,4673.923828125,10560.0693359375,2859,0.0,0.0,0.0,1.563929796218872,-1.8961749076843262,-2.4058728218078613,4165.60009765625,9118.5
16980.008,-59.76312255859375,29.034603118896484,-6.066123008728027,-0.014865436591207981,0.01902514323592186,1.02130925655365,51350.0,0.35374948382377625,1.0,0.431522399187088,-6.549295425415039,18.77861213684082,23.203365325927734,0.0,0.0,1.0249252319335938,4871.0966796875,11739.9921875,3512,0.0,0.0,0.0,1.4452987909317017,-2.1297686100006104,-2.4343483448028564,5246.52001953125,8670.5400390625
16981.997,-58.1622200012207,29.870731353759766,-6.422865867614746,-0.012949381954967976,0.023282447829842567,1.0231009721755981,51350.0,0.35374948382377625,1.0,0.431522399187088,-6.549295425415039,18.77861213684082,18.225881576538086,0.0,0.0,1.0306569337844849,4125.3115234375,10340.451171875,2957,0.0,0.0,0.0,1.4452987909317017,-2.1297686100006104,-2.4343483448028564,4126.60009765625,8289.7998046875
16984.042,-56.1951789855957,30.88758659362793,-6.49439001083374,-0.0120704872533679,0.02727459743618965,1.0268279314041138,51350.0,0.35374948382377625,1.0,0.431522399187088,-5.7969560623168945,20.08799171447754,23.83307647705078,0.0,0.0,1.0364506244659424,5090.48974609375,10949.2294921875,3639,0.0,0.0,0.0,1.319908857345581,-2.34799861907959,-2.4652953147888184,6521.8408203125,7704.779296875
16985.961,-53.63676452636719,32.28672409057617,-6.7356061935424805,-0.011804456822574139,0.029014892876148224,1.0326637029647827,51350.0,0.35374948382377625,1.0,0.431522399187088,-5.7969560623168945,20.08799171447754,18.42314910888672,0.0,0.0,1.0422443151474,5022.81982421875,9139.8994140625,3019,0.0,0.0,0.0,1.319908857345581,-2.34799861907959,-2.4652953147888184,8259.7197265625,6291.57958984375
16987.925,-50.76871871948242,33.49020004272461,-6.8331804275512695,-0.013051515445113182,0.027855493128299713,1.03865385055542,51350.0,0.35374948382377625,1.0,0.431522399187088,-4.984188079833984,21.265037536621094,24.43480682373047,0.0,0.0,1.0481042861938477,5788.083984375,9536.8115234375,3752,0.0,0.0,0.0,1.1844475269317627,-2.544172763824463,-2.498476505279541,8728.619140625,5910.09912109375
16989.884,-48.596309661865234,34.19522476196289,-6.562683582305908,-0.015267259441316128,0.026649631559848785,1.0444258451461792,51350.0,0.35374948382377625,1.0,0.431522399187088,-4.984188079833984,21.265037536621094,18.63395881652832,0.0,0.0,1.0539642572402954,4910.423828125,8849.89453125,3023,0.0,0.0,0.0,1.1844475269317627,-2.544172763824463,-2.498476505279541,8946.69921875,5502.958984375
16991.885,-46.83068084716797,34.87640380859375,-6.314011096954346,-0.017325259745121002,0.021481500938534737,1.0472739934921265,51350.0,0.35374948382377625,1.0,0.431522399187088,-4.13750696182251,22.349767684936523,24.39128303527832,0.0,0.0,1.0598877668380737,5756.72998046875,9866.3974609375,3684,0.0,0.0,0.0,1.0433340072631836,-2.724961280822754,-2.53025221824646,8946.69921875,5502.958984375
16993.916,-44.91602325439453,35.616455078125,-6.0971784591674805,-0.02052859216928482,0.013524738140404224,1.0491877794265747,51350.0,0.35374948382377625,1.0,0.431522399187088,-4.13750696182251,22.349767684936523,18.836458206176758,0.0,0.0,1.065811276435852,5276.880859375,8653.8759765625,2992,0.0,0.0,0.0,1.0433340072631836,-2.724961280822754,-2.53025221824646,7710.07958984375,6204.35888671875
16995.822,-42.73600387573242,35.9477424621582,-5.892983913421631,-0.024484237655997276,0.005723526235669851,1.0511335134506226,51350.0,0.35374948382377625,1.0,0.431522399187088,-3.26297664642334,23.343305587768555,24.396461486816406,0.0,0.0,1.071796178817749,5807.0771484375,9022.0322265625,3634,0.0,0.0,0.0,0.8975789546966553,-2.8905508518218994,-2.5609374046325684,8553.5791015625,6362.71875
16997.765,-40.160400390625,35.928627014160156,-5.874614715576172,-0.029186459258198738,-0.002223017392680049,1.053025722503662,51350.0,0.35374948382377625,1.0,0.431522399187088,-3.26297664642334,23.343305587768555,19.03253936767578,0.0,0.0,1.077781081199646,4885.51123046875,7593.85693359375,2988,0.0,0.0,0.0,0.8975789546966553,-2.8905508518218994,-2.5609374046325684,8278.4404296875,6140.41845703125
16999.751,-37.43259048461914,35.771095275878906,-5.913312911987305,-0.02790984883904457,-0.004407125525176525,1.05330228805542,51350.0,0.35374948382377625,1.0,0.431522399187088,-2.392833948135376,24.213665008544922,24.66631317138672,0.0,0.0,1.0838282108306885,5541.1982421875,7853.84912109375,3669,0.0,0.0,0.0,0.7525551319122314,-3.0356106758117676,-2.5920298099517822,6288.62060546875,8459.66015625
17001.716,-34.63908004760742,35.39536666870117,-6.0627312660217285,-0.024467699229717255,-0.0038541173562407494,1.0529521703720093,51350.0,0.35374948382377625,1.0,0.431522399187088,-2.392833948135376,24.213665008544922,19.231189727783203,0.0,0.0,1.089875340461731,4668.58349609375,6732.779296875,3035,0.0,0.0,0.0,0.7525551319122314,-3.0356106758117676,-2.5920298099517822,9403.240234375,6005.99951171875
17003.772,-31.605880737304688,34.94655227661133,-6.325738430023193,-0.019590573385357857,-0.0024375433567911386,1.0522096157073975,51350.0,0.35374948382377625,1.0,0.431522399187088,-1.5490217208862305,24.94211196899414,25.188936233520508,0.0,0.0,1.095988154411316,5305.876953125,6753.634765625,3781,0.0,0.0,0.0,0.6119197607040405,-3.1570184230804443,-2.6249117851257324,8556.919921875,4800.298828125
17005.665,-28.519920349121094,34.508270263671875,-6.566144943237305,-0.014638104476034641,-0.0006846989272162318,1.0513752698898315,51350.0,0.35374948382377625,1.0,0.431522399187088,-1.5490217208862305,24.94211196899414,19.440704345703125,0.0,0.0,1.1021009683609009,4615.17578125,5704.83447265625,3120,0.0,0.0,0.0,0.6119197607040405,-3.1570184230804443,-2.6249117851257324,8501.4189453125,4384.298828125
17007.65,-25.823225021362305,34.305110931396484,-6.67622184753418,-0.011272638104856014,0.0021420400589704514,1.053810715675354,51350.0,0.35374948382377625,1.0,0.431522399187088,-0.727027952671051,25.528627395629883,25.67259407043457,0.0,0.0,1.1082826852798462,5500.8388671875,6120.14306640625,3881,0.0,0.0,0.0,0.4749208092689514,-3.2547714710235596,-2.6593079566955566,9032.7607421875,3297.1201171875
17009.613,-23.146991729736328,34.04140090942383,-6.827111721038818,-0.009124521166086197,0.005464254412800074,1.0587931871414185,51350.0,0.35374948382377625,1.0,0.431522399187088,-0.727027952671051,25.528627395629883,19.659446716308594,0.0,0.0,1.1144644021987915,4799.373046875,5294.169921875,3178,0.0,0.0,0.0,0.4749208092689514,-3.2547714710235596,-2.6593079566955566,8784.599609375,4430.91943359375
17011.593,-20.169124603271484,33.21799087524414,-6.938090801239014,-0.00845713634043932,0.005075052846223116,1.0555754899978638,51350.0,0.35374948382377625,1.0,0.431522399187088,0.0655660629272461,25.97744369506836,26.070449829101562,0.0,0.0,1.1207168102264404,4969.42236328125,5025.19580078125,3961,0.0,0.0,0.0,0.34282180666923523,-3.3295741081237793,-2.6946933269500732,8117.60009765625,3363.040283203125
17013.636,-17.048952102661133,32.024635314941406,-6.810659408569336,-0.008208237588405609,0.0030757782515138388,1.050126075744629,51350.0,0.35374948382377625,1.0,0.431522399187088,0.0655660629272461,25.97744369506836,19.884262084960938,0.0,0.0,1.1269692182540894,3918.513671875,4113.83154296875,3203,0.0,0.0,0.0,0.34282180666923523,-3.3295741081237793,-2.6946933269500732,8760.1396484375,3386.260498046875
17015.542,-13.93351936340332,30.8821964263916,-6.78455924987793,-0.008573630824685097,-0.00037437165156006813,1.0438815355300903,51350.0,0.35374948382377625,1.0,0.431522399187088,0.8012181520462036,26.279216766357422,26.10843849182129,0.0,0.0,1.133290410041809,4447.42138671875,3921.666015625,3947,0.0,0.0,0.0,0.2202131301164627,-3.3798694610595703,-2.729046106338501,9298.66015625,3367.95947265625
17017.525,-10.843500137329102,29.844327926635742,-6.754353046417236,-0.010050700046122074,-0.005823094863444567,1.0404534339904785,51350.0,0.35374948382377625,1.0,0.431522399187088,0.8012181520462036,26.279216766357422,20.103023529052734,0.0,0.0,1.1396116018295288,3818.4306640625,3250.8935546875,3222,0.0,0.0,0.0,0.2202131301164627,-3.3798694610595703,-2.729046106338501,9149.4599609375,1569.06005859375
17019.493,-8.005651473999023,28.62698745727539,-6.545557022094727,-0.009573553688824177,-0.008712163195014,1.0364503860473633,51350.0,0.35374948382377625,1.0,0.431522399187088,1.4826076030731201,26.443084716796875,26.070152282714844,0.0,0.0,1.1459985971450806,4114.47509765625,3161.8251953125,3913,0.0,0.0,0.0,0.10664819926023483,-3.4071805477142334,-2.7619783878326416,9744.060546875,1796.5401611328125
17021.461,-5.4810099601745605,27.226835250854492,-6.4720025062561035,-0.007459190674126148,-0.009361142292618752,1.0321848392486572,51350.0,0.35374948382377625,1.0,0.431522399187088,1.4826076030731201,26.443084716796875,20.313390731811523,0.0,0.0,1.1523855924606323,3256.302490234375,2895.132080078125,3214,0.0,0.0,0.0,0.10664819926023483,-3.4071805477142334,-2.7619783878326416,9744.060546875,1796.5401611328125
17023.534,-2.804823875427246,25.715103149414062,-6.2691779136657715,-0.004721248522400856,-0.01001494750380516,1.0296361446380615,51350.0,0.35374948382377625,1.0,0.431522399187088,2.0911896228790283,26.482973098754883,25.959819793701172,0.0,0.0,1.1588349342346191,3493.58251953125,2415.945068359375,3867,0.0,0.0,0.0,0.005217874888330698,-3.4138286113739014,-2.7931385040283203,9414.3203125,3288.72021484375
17025.428,0.09354449808597565,24.106231689453125,-6.003130912780762,-0.0021826839074492455,-0.010738711804151535,1.0270720720291138,51350.0,0.35374948382377625,1.0,0.431522399187088,2.0911896228790283,26.482973098754883,20.51325035095215,0.0,0.0,1.165284276008606,2722.959716796875,1784.639404296875,3181,0.0,0.0,0.0,0.005217874888330698,-3.4138286113739014,-2.7931385040283203,7543.240234375,82.16008758544922
17027.4,2.7232236862182617,21.94947052001953,-5.902466297149658,-0.0005548263434320688,-0.007750954013317823,1.0270503759384155,51350.0,0.35374948382377625,1.0,0.431522399187088,2.6072263717651367,26.389236450195312,25.72966766357422,0.0,0.0,1.1717911958694458,2452.96142578125,1507.3388671875,3795,0.0,0.0,0.0,-0.080788254737854,-3.3982062339782715,-2.821922540664673,8347.1396484375,493.3999328613281
17029.369,5.025578022003174,18.788238525390625,-5.769058704376221,-0.00016983407840598375,-0.004252840299159288,1.0266188383102417,50697.0,0.35374948382377625,2.4018168449401855,0.431522399187088,2.6072263717651367,34.800140380859375,20.6989688873291,0.0,0.0,1.1782981157302856,838.39599609375,9047.59765625,3176,0.0,0.0,0.0,-0.080788254737854,-3.3982062339782715,-2.821922540664673,8904.16015625,-2049.599609375
17031.367,7.586181640625,15.570642471313477,-5.503205299377441,-0.0004146542923990637,-0.0006854791427031159,1.025849461555481,50697.0,0.35374948382377625,2.4018168449401855,0.431522399187088,2.970698356628418,34.58627700805664,25.346323013305664,0.0,0.0,1.1848562955856323,640.606689453125,1969.163818359375,3701,0.0,0.0,0.0,-0.14136694371700287,-3.362562656402588,-2.847562313079834,8904.16015625,-2049.599609375
17033.395,10.626697540283203,12.797205924987793,-5.25728702545166,-0.003113866550847888,-0.0017415635520592332,1.0276987552642822,50697.0,0.35374948382377625,2.4018168449401855,0.431522399187088,2.970698356628418,34.58627700805664,20.865921020507812,0.0,0.0,1.191414475440979,285.10888671875,1313.550048828125,3134,0.0,0.0,0.0,-0.14136694371700287,-3.362562656402588,-2.847562313079834,8011.43994140625,460.29998779296875
17035.296,13.382689476013184,10.420878410339355,-4.914882183074951,-0.007344620302319527,-0.00648289592936635,1.0301624536514282,50697.0,0.35374948382377625,2.4018168449401855,0.431522399187088,3.2152256965637207,34.236778259277344,24.861356735229492,0.0,0.0,1.1980167627334595,446.5660400390625,798.99462890625,3573,0.0,0.0,0.0,-0.18212148547172546,-3.3043131828308105,-2.8696000576019287,5536.72021484375,1639.4996337890625
17037.252,15.446420669555664,7.823134422302246,-4.31109094619751,-0.010892386548221111,-0.006455022841691971,1.0291701555252075,50697.0,0.35374948382377625,2.4018168449401855,0.431522399187088,3.2152256965637207,34.236778259277344,21.0113525390625,0.0,0.0,1.20461905002594,-292.5537109375,1270.756103515625,3038,0.0,0.0,0.0,-0.18212148547172546,-3.3043131828308105,-2.8696000576019287,6014.92041015625,-1088.3599853515625
17039.234,17.56610679626465,4.771526336669922,-3.752410411834717,-0.0136497737839818,-0.0032774657011032104,1.0263721942901611,50697.0,0.35374948382377625,3.2884328365325928,0.431522399187088,3.3295505046844482,39.10539245605469,23.924135208129883,0.0,0.0,1.2112534046173096,-987.801025390625,5292.5888671875,3321,0.0,0.0,0.0,-0.20117561519145966,-3.229133129119873,-2.8856561183929443,4043.159423828125,-3182.719970703125
17041.202,19.86945343017578,1.3402364253997803,-3.4648871421813965,-0.016582954674959183,0.00041164440335705876,1.0218696594238281,50697.0,0.35374948382377625,3.2884328365325928,0.431522399187088,3.3295505046844482,39.10539245605469,21.12095832824707,0.0,0.0,1.2178877592086792,-1872.99951171875,1157.881103515625,2950,0.0,0.0,0.0,-0.20117561519145966,-3.229133129119873,-2.8856561183929443,1411.9599609375,-2905.47998046875
17043.257,22.19106674194336,-1.950646996498108,-3.2349746227264404,-0.01852344162762165,0.004031509626656771,1.016120195388794,50697.0,0.35374948382377625,3.2884328365325928,0.431522399187088,3.2866621017456055,38.540077209472656,23.383955001831055,0.0,0.0,1.224547028541565,-2299.92626953125,287.1552734375,3194,0.0,0.0,0.0,-0.19402751326560974,-3.134913444519043,-2.8981220722198486,2882.699951171875,-3005.0595703125
17045.149,24.30493927001953,-4.392709255218506,-2.8923096656799316,-0.018384035676717758,0.008604010567069054,1.0134098529815674,50697.0,0.35374948382377625,3.2884328365325928,0.431522399187088,3.2866621017456055,38.540077209472656,21.209074020385742,0.0,0.0,1.2312062978744507,-1997.4537353515625,549.866455078125,2892,0.0,0.0,0.0,-0.19402751326560974,-3.134913444519043,-2.8981220722198486,-50.279666900634766,-1573.1201171875
17047.133,25.91604995727539,-6.431847095489502,-2.526285171508789,-0.017473701387643814,0.011668602004647255,1.011737585067749,50697.0,0.35374948382377625,3.2884328365325928,0.431522399187088,3.137331962585449,37.882049560546875,22.787927627563477,0.0,0.0,1.2378829717636108,-2135.528076171875,93.0462646484375,3037,0.0,0.0,0.0,-0.16913916170597076,-3.0252420902252197,-2.9068081378936768,389.2200012207031,-2759.77978515625
17049.097,27.532867431640625,-9.23050308227539,-2.2117130756378174,-0.01635787822306156,0.013851874507963657,1.0131049156188965,48960.0,0.35374948382377625,3.8425679206848145,0.431522399187088,3.137331962585449,41.20686340332031,21.27454376220703,0.0,0.0,1.244559645652771,-3012.96728515625,3332.0966796875,2818,0.0,0.0,0.0,-0.16913916170597076,-3.0252420902252197,-2.9068081378936768,1488.5396728515625,-5237.5
17051.08,29.702791213989258,-13.0172119140625,-1.9127552509307861,-0.018223213031888008,0.010547717101871967,1.017325758934021,48960.0,0.35374948382377625,3.8425679206848145,0.431522399187088,2.8321502208709717,40.45953369140625,22.173648834228516,0.0,0.0,1.2512462139129639,-4596.6767578125,-574.4285888671875,2890,0.0,0.0,0.0,-0.11827553808689117,-2.9006876945495605,-2.911738634109497,262.520263671875,-2419.43994140625
17053.119,32.199623107910156,-16.736215591430664,-1.7116386890411377,-0.02225489541888237,0.003648401005193591,1.0209243297576904,48960.0,0.35374948382377625,3.8425679206848145,0.431522399187088,2.8321502208709717,40.45953369140625,21.3174991607666,0.0,0.0,1.2579327821731567,-4874.8623046875,-633.63720703125,2763,0.0,0.0,0.0,-0.11827553808689117,-2.9006876945495605,-2.911738634109497,1274.3402099609375,-5137.701171875
17055.027,34.51197052001953,-19.8922119140625,-1.5819734334945679,-0.02710827626287937,-0.0034017423167824745,1.0255861282348633,48960.0,0.35374948382377625,3.8425679206848145,0.431522399187088,2.36830472946167,39.605377197265625,21.75507926940918,0.0,0.0,1.2646241188049316,-5343.466796875,-1610.86669921875,2800,0.0,0.0,0.0,-0.04096795618534088,-2.758328437805176,-2.914119243621826,1551.3199462890625,-548.7400512695312
17056.996,36.48695373535156,-22.75263023376465,-1.397689938545227,-0.031061379238963127,-0.010037057101726532,1.031143307685852,48960.0,0.35374948382377625,3.8425679206848145,0.431522399187088,2.36830472946167,39.605377197265625,21.345163345336914,0.0,0.0,1.2713154554367065,-5202.96240234375,-1013.4737548828125,2729,0.0,0.0,0.0,-0.04096795618534088,-2.758328437805176,-2.914119243621826,1587.420166015625,-3506.99951171875
17058.982,38.188167572021484,-25.883638381958008,-1.2443755865097046,-0.032541126012802124,-0.010302474722266197,1.033339023590088,48960.0,0.35374948382377625,5.3951096534729,0.431522399187088,1.7652134895324707,47.98320770263672,21.374210357666016,0.0,0.0,1.2780070304870605,-6418.3388671875,6476.7177734375,2714,0.0,0.0,0.0,0.05954725667834282,-2.602091073989868,-2.914242744445801,-2879.040283203125,-7511.47998046875
17060.942,39.75969314575195,-28.90719985961914,-1.103821039199829,-0.03245370090007782,-0.007728332653641701,1.0330235958099365,48960.0,0.35374948382377625,5.3951096534729,0.431522399187088,1.7652134895324707,47.98320770263672,21.359289169311523,0.0,0.0,1.2846986055374146,-6338.96875,54.883056640625,2695,0.0,0.0,0.0,0.05954725667834282,-2.602091073989868,-2.914242744445801,-3577.47998046875,-8043.1806640625
17063.0,41.411991119384766,-31.559534072875977,-1.0138274431228638,-0.03040654957294464,-0.005032170098274946,1.0319206714630127,48960.0,0.35374948382377625,5.3951096534729,0.431522399187088,1.0265980958938599,46.967140197753906,21.095491409301758,0.0,0.0,1.2913872003555298,-7123.15234375,-1168.0015869140625,2653,0.0,0.0,0.0,0.18264980614185333,-2.4327476024627686,-2.912748336791992,-2203.679931640625,-3008.159912109375
17064.895,43.06832504272461,-33.97563171386719,-0.7484278678894043,-0.028209788724780083,-0.0030312801245599985,1.0284717082977295,48960.0,0.35374948382377625,5.3951096534729,0.431522399187088,1.0265980958938599,46.967140197753906,21.36370086669922,0.0,0.0,1.298075795173645,-6754.4267578125,-657.4281005859375,2653,0.0,0.0,0.0,0.18264980614185333,-2.4327476024627686,-2.912748336791992,-2645.5400390625,-5937.62060546875
17066.873,44.8530387878418,-36.35140609741211,-0.48971885442733765,-0.02454015426337719,0.0021151688415557146,1.0238182544708252,48960.0,0.35374948382377625,5.3951096534729,0.431522399187088,0.17213433980941772,45.866416931152344,20.65113639831543,0.0,0.0,1.3047564029693604,-7849.5703125,-2012.0709228515625,2536,0.0,0.0,0.0,0.3250604271888733,-2.249293327331543,-2.9087746143341064,-6061.8193359375,-8008.720703125
17068.843,46.345516204833984,-39.293270111083984,-0.3507446348667145,-0.020023692399263382,0.00804706197232008,1.019418716430664,50047.0,0.35374948382377625,5.839381217956543,0.431522399187088,0.17213433980941772,48.532047271728516,21.353219985961914,0.0,0.0,1.3114370107650757,-8074.568359375,1207.84423828125,2604,0.0,0.0,0.0,0.3250604271888733,-2.249293327331543,-2.9087746143341064,-6709.259765625,-6802.5205078125
17070.833,47.44059753417969,-41.95654296875,-0.44692322611808777,-0.016429658979177475,0.005469080526381731,1.0165557861328125,50047.0,0.35374948382377625,5.839381217956543,0.431522399187088,-0.8192258477210999,47.36925506591797,20.54583740234375,0.0,0.0,1.3181085586547852,-9157.33984375,-1704.1065673828125,2519,0.0,0.0,0.0,0.4902871251106262,-2.055494785308838,-2.9042770862579346,-7214.4599609375,-7629.9609375
17072.869,48.39204406738281,-44.052913665771484,-0.6758487224578857,-0.014257347211241722,-0.0013801694149151444,1.0153663158416748,50047.0,0.35374948382377625,5.839381217956543,0.431522399187088,-0.8192258477210999,47.36925506591797,21.339576721191406,0.0,0.0,1.3247801065444946,-8303.0986328125,-867.003173828125,2641,0.0,0.0,0.0,0.4902871251106262,-2.055494785308838,-2.9042770862579346,-9328.8203125,-3933.059814453125
17074.778,49.266868591308594,-46.38562774658203,-0.6784048080444336,-0.013473879545927048,-0.012178498320281506,1.0157334804534912,50047.0,0.35374948382377625,5.839381217956543,0.431522399187088,-1.916734218597412,46.173980712890625,20.693626403808594,0.0,0.0,1.331444501876831,-9818.01953125,-2016.50732421875,2564,0.0,0.0,0.0,0.6732051968574524,-1.8562824726104736,-2.9006714820861816,-9343.9599609375,-3585.31982421875
17076.764,49.935882568359375,-48.958457946777344,-0.4501129984855652,-0.01375577226281166,-0.02544501982629299,1.017401933670044,50047.0,0.35374948382377625,5.839381217956543,0.431522399187088,-1.916734218597412,46.173980712890625,21.33127212524414,0.0,0.0,1.3381088972091675,-9560.9013671875,-1066.045654296875,2613,0.0,0.0,0.0,0.6732051968574524,-1.8562824726104736,-2.9006714820861816,-9168.9208984375,-4037.93994140625
17078.739,50.58740997314453,-51.20177459716797,-0.1453831046819687,-0.014715314842760563,-0.029176631942391396,1.018218755722046,50047.0,0.35374948382377625,6.1718621253967285,0.431522399187088,-3.12667179107666,46.9531364440918,20.30767059326172,0.0,0.0,1.344761848449707,-10739.20703125,-449.4197998046875,2454,0.0,0.0,0.0,0.874861478805542,-1.6536606550216675,-2.894979476928711,-8323.5,-7175.7998046875
17080.708,51.24637985229492,-53.09586715698242,-0.14917418360710144,-0.015188497491180897,-0.026794027537107468,1.018448829650879,50047.0,0.35374948382377625,6.1718621253967285,0.431522399187088,-3.12667179107666,46.9531364440918,21.310426712036133,0.0,0.0,1.3514147996902466,-9853.9501953125,-1138.2138671875,2575,0.0,0.0,0.0,0.874861478805542,-1.6536606550216675,-2.894979476928711,-8999.7392578125,-9929.359375
17082.758,51.86970520019531,-54.597320556640625,-0.23628245294094086,-0.01565425843000412,-0.021670162677764893,1.0192639827728271,50047.0,0.35374948382377625,6.1718621253967285,0.431522399187088,-4.4155473709106445,45.70458221435547,20.419944763183594,0.0,0.0,1.3580578565597534,-10944.67578125,-2328.67822265625,2478,0.0,0.0,0.0,1.0896741151809692,-1.445568561553955,-2.8900229930877686,-8999.7392578125,-9929.359375
17084.646,52.440189361572266,-56.098243713378906,-0.11684317141771317,-0.013882184401154518,-0.015628116205334663,1.019235372543335,50047.0,0.35374948382377625,6.1718621253967285,0.431522399187088,-4.4155473709106445,45.70458221435547,21.29397201538086,0.0,0.0,1.3647009134292603,-10202.7607421875,-1438.2041015625,2569,0.0,0.0,0.0,1.0896741151809692,-1.445568561553955,-2.8900229930877686,-10294.2001953125,-11523.6982421875
17086.627,52.977108001708984,-57.60566329956055,0.0034295504447072744,-0.011598833836615086,-0.007016000337898731,1.019411563873291,50047.0,0.35374948382377625,6.1718621253967285,0.431522399187088,-5.776435852050781,44.42376708984375,20.328222274780273,0.0,0.0,1.3713332414627075,-11658.5458984375,-2646.30126953125,2438,0.0,0.0,0.0,1.3164888620376587,-1.2320988178253174,-2.884650707244873,-9618.33984375,-10674.1591796875
17088.586,53.830753326416016,-58.524227142333984,-0.11715660989284515,-0.00960145890712738,0.0008104541921056807,1.0179945230484009,50047.0,0.35374948382377625,6.1718621253967285,0.431522399187088,-5.776435852050781,44.42376708984375,21.27500343322754,0.0,0.0,1.3779655694961548,-10334.0185546875,-2051.281982421875,2567,0.0,0.0,0.0,1.3164888620376587,-1.2320988178253174,-2.884650707244873,-10803.720703125,-8781.7001953125
17090.571,54.84693908691406,-59.01980972290039,-0.3309580087661743,-0.008049174211919308,0.007992935366928577,1.0161575078964233,50047.0,0.03090563230216503,6.504343032836914,0.431522399187088,-9.108192443847656,45.086761474609375,20.695171356201172,0.0,0.0,1.3845914602279663,-13089.7109375,-1728.920166015625,2523,0.0,0.0,0.0,1.5489376783370972,-1.0101174116134644,-2.881410598754883,-9089.5595703125,-5290.74072265625
17092.608,55.689735412597656,-59.883140563964844,-0.3560464680194855,-0.010189052671194077,0.004222336690872908,1.0175888538360596,50047.0,0.03090563230216503,6.504343032836914,0.431522399187088,-9.108192443847656,45.086761474609375,21.268815994262695,0.0,0.0,1.3912173509597778,-10996.1953125,-2222.543212890625,2594,0.0,0.0,0.0,1.5489376783370972,-1.0101174116134644,-2.881410598754883,-10771.6806640625,-8574.919921875
17094.512,56.16505813598633,-60.95450210571289,-0.27877524495124817,-0.012309819459915161,-0.005990003701299429,1.0171188116073608,50047.0,0.03090563230216503,6.504343032836914,0.431522399187088,-10.544702529907227,43.73284912109375,20.789871215820312,0.0,0.0,1.3978378772735596,-12605.7861328125,-3236.757568359375,2528,0.0,0.0,0.0,1.788356065750122,-0.7844645977020264,-2.878727912902832,-9380.7001953125,-5711.2802734375
17096.478,56.057315826416016,-61.47574996948242,-0.34843283891677856,-0.01295369490981102,-0.014932750724256039,1.015600562095642,50047.0,0.03090563230216503,6.504343032836914,0.431522399187088,-10.544702529907227,43.73284912109375,21.265960693359375,0.0,0.0,1.4044584035873413,-11194.00390625,-1767.86328125,2593,0.0,0.0,0.0,1.788356065750122,-0.7844645977020264,-2.878727912902832,-10399.2197265625,-10385.439453125
17098.461,55.705322265625,-61.676937103271484,-0.4207553267478943,-0.014774422161281109,-0.02308681420981884,1.0165882110595703,50047.0,0.03090563230216503,6.504343032836914,0.431522399187088,-11.994979858398438,42.40107345581055,21.046062469482422,0.0,0.0,1.4110764265060425,-12289.3876953125,-2730.473876953125,2576,0.0,0.0,0.0,2.030068874359131,-0.5625023245811462,-2.877476453781128,-11062.6015625,-10263.140625
17100.427,55.10783386230469,-62.121910095214844,-0.36321181058883667,-0.016703439876437187,-0.022678317502141,1.0172290802001953,50047.0,0.03090563230216503,6.948614597320557,0.431522399187088,-11.994979858398438,45.06670379638672,21.271686553955078,0.0,0.0,1.4176944494247437,-11451.259765625,941.1693115234375,2596,0.0,0.0,0.0,2.030068874359131,-0.5625023245811462,-2.877476453781128,-12158.341796875,-10132.5205078125
17102.484,54.43675994873047,-62.56497573852539,-0.3187583088874817,-0.016994284465909004,-0.015488031320273876,1.015936255455017,50047.0,0.03090563230216503,6.948614597320557,0.431522399187088,-13.462987899780273,43.76333999633789,21.145259857177734,0.0,0.0,1.4243109226226807,-12837.498046875,-2075.23046875,2575,0.0,0.0,0.0,2.2747371196746826,-0.3452751934528351,-2.876741409301758,-9989.240234375,-11660.5185546875
17104.377,54.15703582763672,-62.555389404296875,-0.18799401819705963,-0.018690798431634903,-0.007982580922544003,1.0178611278533936,50047.0,0.03090563230216503,6.948614597320557,0.431522399187088,-13.462987899780273,43.76333999633789,21.28050994873047,0.0,0.0,1.4309273958206177,-11395.5703125,-1349.26123046875,2576,0.0,0.0,0.0,2.2747371196746826,-0.3452751934528351,-2.876741409301758,-11741.521484375,-11411.3994140625
17106.367,53.78425979614258,-61.98472595214844,-0.03397833928465843,-0.021258989349007607,-0.0009000486461445689,1.0187455415725708,50047.0,0.03090563230216503,6.948614597320557,0.431522399187088,-14.912511825561523,42.469932556152344,21.127111434936523,0.0,0.0,1.437542200088501,-12193.7314453125,-2387.62255859375,2539,0.0,0.0,0.0,2.516324281692505,-0.12970797717571259,-2.875857353210449,-10411.3603515625,-13064.51953125
17108.325,53.07535171508789,-61.20084762573242,-0.06341898441314697,-0.02358563058078289,0.0069297379814088345,1.0194011926651,50047.0,0.03090563230216503,6.948614597320557,0.431522399187088,-14.912511825561523,42.469932556152344,21.288434982299805,0.0,0.0,1.4441570043563843,-10829.0927734375,-1059.1318359375,2562,0.0,0.0,0.0,2.516324281692505,-0.12970797717571259,-2.875857353210449,-12340.1201171875,-11577.779296875
17110.306,52.423851013183594,-60.458961486816406,-0.2718185782432556,-0.02700657770037651,0.0129026398062706,1.0211622714996338,50047.0,0.03090563230216503,6.948614597320557,0.431522399187088,-16.32021713256836,41.20336151123047,21.48225212097168,0.0,0.0,1.45077383518219,-12016.2392578125,-2144.376220703125,2610,0.0,0.0,0.0,2.750941753387451,0.0813874825835228,-2.876891613006592,-10622.3603515625,-11912.2998046875
17112.346,51.952117919921875,-59.5754508972168,-0.3201107084751129,-0.02863939478993416,0.013712042942643166,1.019533634185791,50047.0,0.03090563230216503,6.948614597320557,0.431522399187088,-16.32021713256836,41.20336151123047,21.307872772216797,0.0,0.0,1.4573906660079956,-10721.720703125,-1258.513671875,2595,0.0,0.0,0.0,2.750941753387451,0.0813874825835228,-2.876891613006592,-12852.439453125,-9462.8408203125
17114.272,51.377235412597656,-58.385345458984375,-0.1892852485179901,-0.02892175316810608,0.011186300776898861,1.0172516107559204,50047.0,0.03090563230216503,6.948614597320557,0.431522399187088,-17.674991607666016,39.96464157104492,21.593482971191406,0.0,0.0,1.4640105962753296,-11532.548828125,-2209.76708984375,2613,0.0,0.0,0.0,2.9767374992370605,0.2878410220146179,-2.8784329891204834,-12773.080078125,-10673.5
17116.226,50.68132400512695,-57.12968444824219,-0.26670950651168823,-0.029185272753238678,0.006276425439864397,1.0152336359024048,50047.0,0.03090563230216503,6.948614597320557,0.431522399187088,-17.674991607666016,39.96464157104492,21.33036231994629,0.0,0.0,1.4706305265426636,-10278.955078125,-1085.56884765625,2591,0.0,0.0,0.0,2.9767374992370605,0.2878410220146179,-2.8784329891204834,-12795.16015625,-11052.8193359375
17118.22,49.79335021972656,-56.26018524169922,-0.3001435697078705,-0.02607942931354046,0.0046176607720553875,1.0144991874694824,50047.0,0.03090563230216503,6.948614597320557,0.431522399187088,-18.978199005126953,38.76900100708008,21.827861785888672,0.0,0.0,1.4772558212280273,-11611.044921875,-1884.4024658203125,2655,0.0,0.0,0.0,3.193938970565796,0.4871146082878113,-2.8811450004577637,-10030.640625,-11400.33984375
17120.174,48.68446731567383,-55.31565475463867,-0.40326738357543945,-0.021390993148088455,0.005546338390558958,1.0152196884155273,50047.0,0.03090563230216503,7.280132293701172,0.431522399187088,-18.978199005126953,40.75810623168945,21.35988426208496,0.0,0.0,1.4838811159133911,-10435.677734375,1134.536865234375,2611,0.0,0.0,0.0,3.193938970565796,0.4871146082878113,-2.8811450004577637,-11169.78125,-11588.5595703125
