timestamp,gyro.x,gyro.y,gyro.z,acc.x,acc.y,acc.z,controller.actuatorThrust,controller.pitch,controller.roll,controller.yaw,pid_attitude.pitch_output,pid_attitude.roll_output,pid_attitude.yaw_output,pid_attitude.pitch_outI,pid_attitude.roll_outI,pid_attitude.yaw_outI,pid_rate.pitch_output,pid_rate.roll_output,pid_rate.yaw_output,pid_rate.pitch_outI,pid_rate.roll_outI,pid_rate.yaw_outI,stateEstimate.pitch,stateEstimate.roll,stateEstimate.yaw,snn_control.torque_pitch,snn_control.torque_roll
174141.031,-29.852781295776367,52.778865814208984,-2.2559094429016113,0.009478063322603703,0.01309233345091343,0.9284058213233948,47006.0,-1.8311805725097656,2.290989875793457,-173.9534912109375,-15.876211166381836,17.757631301879883,19.740942001342773,-0.0,0.0,3.5642917156219482,6596.28271484375,4542.8837890625,2639,-0.0,0.0,0.0,0.8148545026779175,-0.6686154007911682,-176.32070922851562,8508.0205078125,6908.97998046875
174142.996,-26.22909927368164,53.144248962402344,-2.364609479904175,0.0075678532011806965,0.012125659734010696,0.9275099039077759,47006.0,-1.8311805725097656,2.290989875793457,-173.9534912109375,-15.876211166381836,17.757631301879883,17.772335052490234,-0.0,0.0,3.569026231765747,5864.240234375,3880.249755859375,2416,-0.0,0.0,0.0,0.8148545026779175,-0.6686154007911682,-176.32070922851562,5950.5810546875,7216.69970703125
174145.053,-23.468585968017578,53.3737678527832,-2.267656087875366,0.007846907712519169,0.01292507816106081,0.9223809838294983,46353.0,-1.8311805725097656,2.290989875793457,-173.9534912109375,-14.596572875976562,18.306194305419922,19.90094757080078,-0.0,0.0,3.573784112930298,6948.4482421875,4607.2529296875,2660,-0.0,0.0,0.0,0.6015816926956177,-0.7600424289703369,-176.3324432373047,7850.70068359375,7786.2001953125
174146.937,-20.840707778930664,53.350345611572266,-2.1371262073516846,0.0091514578089118,0.01531829871237278,0.9176672697067261,46353.0,-1.8311805725097656,2.290989875793457,-173.9534912109375,-14.596572875976562,18.306194305419922,17.85225486755371,-0.0,0.0,3.5785419940948486,5795.4990234375,3901.12841796875,2398,-0.0,0.0,0.0,0.6015816926956177,-0.7600424289703369,-176.3324432373047,6337.4404296875,5573.3603515625
174148.934,-17.094873428344727,53.298927307128906,-2.3178975582122803,0.009545739740133286,0.017343785613775253,0.9187892079353333,46353.0,-1.8311805725097656,2.290989875793457,-173.9534912109375,-13.321905136108398,18.69849395751953,20.072032928466797,-0.0,0.0,3.583324432373047,6913.98876953125,2853.85107421875,2686,-0.0,0.0,0.0,0.38913694024086,-0.825425922870636,-176.3446807861328,9789.30078125,3318.3203125
174150.888,-12.637686729431152,53.011417388916016,-2.4351892471313477,0.00830111838877201,0.019286591559648514,0.9227712154388428,46353.0,-1.8311805725097656,2.290989875793457,-173.9534912109375,-13.321905136108398,18.69849395751953,17.935243606567383,-0.0,0.0,3.588106870651245,5737.7978515625,1357.53955078125,2444,-0.0,0.0,0.0,0.38913694024086,-0.825425922870636,-176.3446807861328,5833.3994140625,2536.300537109375
174152.869,-8.338099479675293,52.48650360107422,-2.430666446685791,0.0057213082909584045,0.020009808242321014,0.9314485192298889,46353.0,-1.8311805725097656,2.290989875793457,-173.9534912109375,-12.066486358642578,18.87883949279785,20.254474639892578,-0.0,0.0,3.5929148197174072,6610.8798828125,993.108154296875,2722,-0.0,0.0,0.0,0.1799004226922989,-0.8554832339286804,-176.3574676513672,7864.4814453125,2935.900390625
174154.914,-4.909142971038818,51.888877868652344,-2.507009744644165,0.0015469237696379423,0.019986649975180626,0.9368964433670044,46353.0,-1.8311805725097656,1.957545280456543,-173.9534912109375,-12.066486358642578,16.878171920776367,18.021581649780273,-0.0,0.0,3.5977227687835693,5525.1396484375,-804.119384765625,2463,-0.0,0.0,0.0,0.1799004226922989,-0.8554832339286804,-176.3574676513672,9727.1806640625,4300.08056640625
174156.817,-1.9045932292938232,51.3062858581543,-2.6754343509674072,-0.002319053979590535,0.01918119192123413,0.9408244490623474,46353.0,-1.8311805725097656,1.957545280456543,-173.9534912109375,-10.83672046661377,16.904695510864258,20.514835357666016,-0.0,0.0,3.602558135986328,6555.81640625,587.873046875,2782,-0.0,0.0,0.0,-0.025060487911105156,-0.8599039912223816,-176.3712158203125,11166.55859375,467.3999938964844
174158.792,1.6549608707427979,50.494712829589844,-2.7569375038146973,-0.006316951476037502,0.01961064152419567,0.9442291855812073,46353.0,-1.8311805725097656,1.957545280456543,-173.9534912109375,-10.83672046661377,16.904695510864258,18.113740921020508,-0.0,0.0,3.607393503189087,5340.01953125,-382.20458984375,2504,-0.0,0.0,0.0,-0.025060487911105156,-0.8599039912223816,-176.3712158203125,10385.060546875,-288.8998107910156
174160.764,5.6344380378723145,49.11057662963867,-2.657133102416992,-0.009219312109053135,0.02116645686328411,0.9413889646530151,46353.0,-1.8311805725097656,1.957545280456543,-173.9534912109375,-9.657418251037598,16.749385833740234,20.56283187866211,-0.0,0.0,3.6122560501098633,5764.3486328125,-1433.84765625,2786,-0.0,0.0,0.0,-0.2216108739376068,-0.8340190649032593,-176.3847198486328,9013.2607421875,-4886.8798828125
174162.731,9.305169105529785,47.60378646850586,-2.488358736038208,-0.008143504150211811,0.02128804847598076,0.9408718347549438,46353.0,-1.8311805725097656,1.957545280456543,-173.9534912109375,-9.657418251037598,16.749385833740234,18.204490661621094,-0.0,0.0,3.6171185970306396,4561.86328125,-1636.416015625,2483,-0.0,0.0,0.0,-0.2216108739376068,-0.8340190649032593,-176.3847198486328,10768.19921875,-1590.319580078125
174164.795,12.65975284576416,46.11606216430664,-2.3625662326812744,-0.003485332243144512,0.021248238161206245,0.9393836259841919,46353.0,-1.8311805725097656,1.957545280456543,-173.9534912109375,-8.554767608642578,16.425861358642578,20.382946014404297,-0.0,0.0,3.622004985809326,5345.38818359375,-2193.664794921875,2729,-0.0,0.0,0.0,-0.40538594126701355,-0.7800981402397156,-176.396728515625,8573.0400390625,-3914.739990234375
174166.678,15.781380653381348,44.65334701538086,-2.416571617126465,0.0038947504945099354,0.01799638569355011,0.9383116364479065,46353.0,-1.8311805725097656,1.957545280456543,-173.9534912109375,-8.554767608642578,16.425861358642578,18.28631591796875,-0.0,0.0,3.6268913745880127,4317.7509765625,-2244.548583984375,2484,-0.0,0.0,0.0,-0.40538594126701355,-0.7800981402397156,-176.396728515625,10297.4404296875,1886.5999755859375
174168.671,18.739866256713867,43.539852142333984,-2.4679183959960938,0.011798976920545101,0.013733572326600552,0.9379031658172607,46353.0,-1.8311805725097656,1.957545280456543,-173.9534912109375,-7.524308204650879,15.961507797241211,20.47860336303711,-0.0,0.0,3.6318020820617676,5340.0556640625,-2983.88330078125,2753,-0.0,0.0,0.0,-0.5771292448043823,-0.7027060985565186,-176.4088134765625,11004.23828125,-870.3400268554688
174170.627,21.606740951538086,42.200767517089844,-2.4124560356140137,0.015910625457763672,0.014669233933091164,0.9397620558738708,46353.0,-1.8311805725097656,1.957545280456543,-173.9534912109375,-7.524308204650879,15.961507797241211,18.3686466217041,-0.0,0.0,3.6367127895355225,4197.15576171875,-2996.940673828125,2493,-0.0,0.0,0.0,-0.5771292448043823,-0.7027060985565186,-176.4088134765625,5794.5205078125,-219.560302734375
174172.613,24.352720260620117,40.419559478759766,-2.2379512786865234,0.015645677223801613,0.01683131605386734,0.9439249038696289,46353.0,-1.8311805725097656,1.957545280456543,-173.9534912109375,-6.572114944458008,15.361570358276367,20.315153121948242,-0.0,0.0,3.6416449546813965,4455.35302734375,-3858.10986328125,2706,-0.0,0.0,0.0,-0.7358280420303345,-0.6027163863182068,-176.41954040527344,5870.62060546875,-1078.3402099609375
174174.657,26.86433219909668,38.4367561340332,-2.0484554767608643,0.01058983150869608,0.023583605885505676,0.9474081993103027,46353.0,-2.154024362564087,1.4034103155136108,-173.9534912109375,-8.509178161621094,12.036760330200195,18.442873001098633,-0.0,0.0,3.6465771198272705,1549.23828125,-6601.4521484375,2458,-0.0,0.0,0.0,-0.7358280420303345,-0.6027163863182068,-176.41954040527344,5960.5400390625,-1128.040283203125
174176.559,29.53857421875,36.329872131347656,-1.9793548583984375,0.004543568938970566,0.03158215060830116,0.9521569609642029,46353.0,-2.154024362564087,1.4034103155136108,-173.9534912109375,-7.649710178375244,11.305001258850098,20.11321258544922,-0.0,0.0,3.6515276432037354,3366.462890625,-5289.53759765625,2651,-0.0,0.0,0.0,-0.8790727257728577,-0.480756551027298,-176.42874145507812,6080.04052734375,-187.9600067138672
174178.533,32.37061309814453,34.03784942626953,-1.898643970489502,-0.003969291225075722,0.028207719326019287,0.9559007883071899,46353.0,-2.154024362564087,1.4034103155136108,-173.9534912109375,-7.649710178375244,11.305001258850098,18.507980346679688,-0.0,0.0,3.6564781665802,2239.203857421875,-5283.87109375,2448,-0.0,0.0,0.0,-0.8790727257728577,-0.480756551027298,-176.42874145507812,8918.1201171875,-5075.84033203125
174180.509,34.82571792602539,31.590579986572266,-1.8970972299575806,-0.01231317687779665,0.022057639434933662,0.956826388835907,46353.0,-2.154024362564087,1.4034103155136108,-173.9534912109375,-6.895236968994141,10.453086853027344,20.040245056152344,-0.0,0.0,3.6614456176757812,2434.7041015625,-6136.158203125,2632,-0.0,0.0,0.0,-1.0048182010650635,-0.33877089619636536,-176.4371795654297,8104.30029296875,-6286.69970703125
174182.472,36.72221374511719,28.71021842956543,-2.054103136062622,-0.016427485272288322,0.01429667230695486,0.9552531242370605,46353.0,-2.154024362564087,1.4034103155136108,-173.9534912109375,-6.895236968994141,10.453086853027344,18.56854248046875,-0.0,0.0,3.6664130687713623,1111.976318359375,-5362.7412109375,2474,-0.0,0.0,0.0,-1.0048182010650635,-0.33877089619636536,-176.4371795654297,5381.1806640625,-5643.41943359375
174184.542,38.41511154174805,25.853307723999023,-1.896894931793213,-0.017256278544664383,0.01592087745666504,0.9526861906051636,46353.0,-2.154024362564087,1.0709292888641357,-173.9534912109375,-6.27621603012085,7.525007247924805,20.017969131469727,-0.0,0.0,3.671396493911743,1258.1461181640625,-8099.24853515625,2629,-0.0,0.0,0.0,-1.1079883575439453,-0.1832386553287506,-176.44515991210938,4368.900390625,-4449.958984375
174186.421,39.93574905395508,23.217439651489258,-1.456749439239502,-0.016927551478147507,0.0257341917604208,0.9497021436691284,46353.0,-2.154024362564087,1.0709292888641357,-173.9534912109375,-6.27621603012085,7.525007247924805,18.626392364501953,-0.0,0.0,3.676379919052124,564.28271484375,-6002.0908203125,2409,-0.0,0.0,0.0,-1.1079883575439453,-0.1832386553287506,-176.44515991210938,4900.560546875,-4005.4794921875
174188.409,41.523712158203125,20.390230178833008,-1.2059115171432495,-0.011276151053607464,0.026158250868320465,0.9476490020751953,46353.0,-2.154024362564087,1.0709292888641357,-173.9534912109375,-5.792070388793945,6.512452125549316,19.51793670654297,-0.0,0.0,3.681373119354248,432.426513671875,-7202.07666015625,2486,-0.0,0.0,0.0,-1.1886793375015259,-0.014479351229965687,-176.45005798339844,4340.39990234375,-4831.8193359375
174190.369,42.98805618286133,17.70687484741211,-1.1880059242248535,-0.004459369461983442,0.02236340567469597,0.9485704302787781,46353.0,-2.154024362564087,1.0709292888641357,-173.9534912109375,-5.792070388793945,6.512452125549316,18.665767669677734,-0.0,0.0,3.686366319656372,-225.295654296875,-6569.5986328125,2382,-0.0,0.0,0.0,-1.1886793375015259,-0.014479351229965687,-176.45005798339844,1682.2799072265625,-6288.35986328125
174192.361,44.28630447387695,14.855466842651367,-1.2134058475494385,0.0028152000159025192,0.015649667009711266,0.9528195261955261,46353.0,-2.154024362564087,1.0709292888641357,-173.9534912109375,-5.449071884155273,5.441320419311523,19.526939392089844,-0.0,0.0,3.691368818283081,-470.347900390625,-7603.78369140625,2488,-0.0,0.0,0.0,-1.2458456754684448,0.1640426069498062,-176.4547882080078,3157.740234375,-3951.080078125
174194.405,45.672889709472656,11.466238021850586,-1.139739751815796,0.008390088565647602,0.0044917878694832325,0.9572951197624207,46353.0,-2.154024362564087,1.0709292888641357,-173.9534912109375,-5.449071884155273,5.441320419311523,18.704153060913086,-0.0,0.0,3.69637131690979,-1639.3466796875,-7074.67138671875,2381,-0.0,0.0,0.0,-1.2458456754684448,0.1640426069498062,-176.4547882080078,4503.1005859375,-6056.8203125
174196.308,46.86478042602539,8.295944213867188,-0.9677358269691467,0.00952114351093769,0.0031911085825413465,0.959196150302887,46353.0,-2.4768683910369873,1.0709292888641357,-173.9534912109375,-7.204305648803711,4.317044734954834,19.374767303466797,-0.0,0.0,3.701381206512451,-3530.399658203125,-8119.2880859375,2441,-0.0,0.0,0.0,-1.2761508226394653,0.35142186284065247,-176.45846557617188,3900.50048828125,-6918.99951171875
174198.271,47.7331428527832,4.965805530548096,-0.9118108749389648,0.008935444056987762,0.00815283041447401,0.96217942237854,46353.0,-2.4768683910369873,1.0709292888641357,-173.9534912109375,-7.204305648803711,4.317044734954834,18.736236572265625,-0.0,0.0,3.7063910961151123,-2833.37890625,-7163.68701171875,2357,-0.0,0.0,0.0,-1.2761508226394653,0.35142186284065247,-176.45846557617188,1602.9599609375,-7750.39892578125
174200.257,48.102989196777344,1.7249674797058105,-0.7718754410743713,0.007070508785545826,0.015204077586531639,0.9653487801551819,46353.0,-2.4768683910369873,1.0709292888641357,-173.9534912109375,-7.178469657897949,3.1579806804656982,19.285335540771484,-0.0,0.0,3.711406946182251,-3229.27685546875,-7888.431640625,2406,-0.0,0.0,0.0,-1.280456781387329,0.544599175453186,-176.4614715576172,2691.020263671875,-3330.2802734375
174202.216,48.32958221435547,-0.9414855241775513,-0.42968854308128357,0.00793257262557745,0.026215901598334312,0.967235803604126,46353.0,-2.4768683910369873,1.0709292888641357,-173.9534912109375,-7.178469657897949,3.1579806804656982,18.764305114746094,-0.0,0.0,3.7164227962493896,-3217.832763671875,-6945.68505859375,2303,-0.0,0.0,0.0,-1.280456781387329,0.544599175453186,-176.4614715576172,1914.26025390625,-7042.52001953125
174204.28,48.54948425292969,-3.8403499126434326,-0.217019185423851,0.011538962833583355,0.03525277227163315,0.9686279892921448,46353.0,-2.4768683910369873,1.0709292888641357,-173.9534912109375,-7.288358688354492,1.9785257577896118,18.94331932067871,-0.0,0.0,3.7214407920837402,-3925.87158203125,-8035.1611328125,2299,-0.0,0.0,0.0,-1.2621419429779053,0.7411749958992004,-176.46243286132812,1360.31982421875,-8454.8798828125
174206.164,48.652584075927734,-6.84360933303833,-0.28167596459388733,0.015371917746961117,0.03988600894808769,0.969161868095398,46353.0,-2.4768683910369873,1.0709292888641357,-173.9534912109375,-7.288358688354492,1.9785257577896118,18.780109405517578,-0.0,0.0,3.726458787918091,-4372.2392578125,-7078.43310546875,2287,-0.0,0.0,0.0,-1.2621419429779053,0.7411749958992004,-176.46243286132812,1045.7000732421875,-5990.1396484375
174208.149,48.725669860839844,-9.689117431640625,-0.3607441484928131,0.018216310068964958,0.04140729457139969,0.9694632291793823,46353.0,-2.4768683910369873,1.0709292888641357,-173.9534912109375,-7.5416107177734375,0.7934060096740723,19.133121490478516,-0.0,0.0,3.731480598449707,-4908.6796875,-8133.4931640625,2339,-0.0,0.0,0.0,-1.219933271408081,0.938694953918457,-176.46435546875,1591.0799560546875,-7342.39990234375
174210.113,48.46053695678711,-12.713238716125488,-0.32055363059043884,0.0162891186773777,0.03085171803832054,0.9705368280410767,46353.0,-2.4768683910369873,1.0709292888641357,-173.9534912109375,-7.5416107177734375,0.7934060096740723,18.801687240600586,-0.0,0.0,3.7365024089813232,-5306.3173828125,-6951.2197265625,2294,-0.0,0.0,0.0,-1.219933271408081,0.938694953918457,-176.46435546875,782.7801513671875,-5505.18017578125
174212.095,47.97224044799805,-15.699417114257812,-0.22978954017162323,0.01082884706556797,0.016262641176581383,0.9697797894477844,46353.0,-2.4768683910369873,1.0709292888641357,-173.9534912109375,-7.934085845947266,-0.3576178550720215,19.17403793334961,-0.0,0.0,3.741528272628784,-6079.01611328125,-7746.52392578125,2328,-0.0,0.0,0.0,-1.1545207500457764,1.1305322647094727,-176.4663848876953,-180.4000701904297,-8867.83984375
174214.143,47.57201385498047,-18.58275604248047,-0.27627915143966675,0.005201574414968491,0.012948216870427132,0.9701734185218811,46353.0,-2.4768683910369873,1.0709292888641357,-173.9534912109375,-7.934085845947266,-0.3576178550720215,18.823915481567383,-0.0,0.0,3.746554136276245,-6140.0302734375,-6889.2744140625,2292,-0.0,0.0,0.0,-1.1545207500457764,1.1305322647094727,-176.4663848876953,-2283.7001953125,-8819.740234375
174216.043,47.07061004638672,-21.54543685913086,-0.4022625684738159,0.0004515755863394588,0.01352817751467228,0.9708018898963928,46353.0,-2.4768683910369873,1.0709292888641357,-173.9534912109375,-8.45979118347168,-1.483478307723999,19.447601318359375,-0.0,0.0,3.751586675643921,-7117.07373046875,-7751.45703125,2381,-0.0,0.0,0.0,-1.0669031143188477,1.3181756734848022,-176.4698028564453,-2024.719970703125,-9490.9794921875
174218.015,46.54656982421875,-24.614484786987305,-0.2668980062007904,-0.0029185006860643625,0.020166311413049698,0.9710264801979065,46353.0,-2.4768683910369873,1.0709292888641357,-173.9534912109375,-8.45979118347168,-1.483478307723999,18.854488372802734,-0.0,0.0,3.7566192150115967,-7262.927734375,-6811.47705078125,2294,-0.0,0.0,0.0,-1.0669031143188477,1.3181756734848022,-176.4698028564453,-2997.15966796875,-8779.16015625
174219.991,46.147682189941406,-27.746652603149414,-0.05354626849293709,-0.004506091587245464,0.030120929703116417,0.9725542068481445,46353.0,-2.4768683910369873,1.0709292888641357,-173.9534912109375,-9.13031005859375,-2.5947725772857666,19.387039184570312,-0.0,0.0,3.76165771484375,-8383.5576171875,-7845.6728515625,2332,-0.0,0.0,0.0,-0.9551501870155334,1.5033913850784302,-176.47271728515625,-4133.1796875,-8485.8798828125
174221.958,45.427921295166016,-30.33453941345215,0.15159721672534943,-0.004169966094195843,0.025871051475405693,0.969716489315033,46353.0,-2.4768683910369873,1.0709292888641357,-173.9534912109375,-9.13031005859375,-2.5947725772857666,18.88205337524414,-0.0,0.0,3.7666962146759033,-7860.6455078125,-6663.5830078125,2247,-0.0,0.0,0.0,-0.9551501870155334,1.5033913850784302,-176.47271728515625,-3553.279541015625,-8015.61962890625
174224.017,44.23460388183594,-32.33363342285156,0.2919890880584717,-0.0028885093051940203,0.0166704710572958,0.9643487334251404,46353.0,-2.4768683910369873,1.0709292888641357,-173.9534912109375,-9.910494804382324,-3.6510086059570312,19.323467254638672,-0.0,0.0,3.7717394828796387,-8421.0771484375,-7080.03076171875,2283,-0.0,0.0,0.0,-0.8251192569732666,1.6794307231903076,-176.47512817382812,-3194.35986328125,-9043.6201171875
174225.905,42.98644256591797,-34.66950607299805,0.43500787019729614,-0.0010384953347966075,0.0029432266019284725,0.9580103754997253,46353.0,-2.4768683910369873,1.0,-173.9534912109375,-9.910494804382324,-4.076584339141846,18.906604766845703,-0.0,0.0,3.776782751083374,-8438.9052734375,-6442.5146484375,2216,-0.0,0.0,0.0,-0.8251192569732666,1.6794307231903076,-176.47512817382812,-3532.51953125,-9190.740234375
174227.889,41.77449035644531,-37.711524963378906,0.5238304138183594,0.0004897105973213911,-0.013635555282235146,0.9493940472602844,46353.0,-2.4768683910369873,1.0,-173.9534912109375,-10.820045471191406,-5.054844856262207,19.375642776489258,-0.0,0.0,3.7818312644958496,-10243.412109375,-6849.130859375,2262,-0.0,0.0,0.0,-0.6735275387763977,1.842474102973938,-176.47769165039062,-5505.259765625,-10748.8798828125
174229.856,40.01279067993164,-40.82709884643555,0.6824450492858887,-0.0003423532471060753,-0.013968250714242458,0.9447354674339294,46353.0,-2.4768683910369873,1.0,-173.9534912109375,-10.820045471191406,-5.054844856262207,18.932083129882812,-0.0,0.0,3.786879777908325,-10083.751953125,-5438.8701171875,2189,-0.0,0.0,0.0,-0.6735275387763977,1.842474102973938,-176.47769165039062,-4277.25927734375,-8603.3798828125
174231.843,38.058799743652344,-43.24553680419922,0.7669098377227783,-0.0032320688478648663,-0.006664742715656757,0.9433191418647766,46353.0,-2.4768683910369873,1.0,-173.9534912109375,-11.858449935913086,-5.946380615234375,19.43150520324707,-0.0,0.0,3.791933536529541,-10858.232421875,-5803.93603515625,2239,-0.0,0.0,0.0,-0.5004600286483765,1.9910634756088257,-176.4804229736328,-5771.72021484375,-11740.021484375
174233.883,36.28740310668945,-45.131282806396484,0.6111044883728027,-0.008168883621692657,0.0053329491056501865,0.9460450410842896,46353.0,-2.4768683910369873,1.0,-173.9534912109375,-11.858449935913086,-5.946380615234375,18.95857810974121,-0.0,0.0,3.796987295150757,-9962.7666015625,-5006.52001953125,2201,-0.0,0.0,0.0,-0.5004600286483765,1.9910634756088257,-176.4804229736328,-4277.25927734375,-8603.3798828125
174235.79,34.29277801513672,-47.04713821411133,0.5538754463195801,-0.014851324260234833,0.02284052222967148,0.9524593353271484,46353.0,-2.4768683910369873,1.0,-173.9534912109375,-12.979233741760254,-6.763034820556641,19.781145095825195,-0.0,0.0,3.8020501136779785,-11281.435546875,-5274.89404296875,2307,-0.0,0.0,0.0,-0.31366288661956787,2.1271724700927734,-176.4849395751953,-6824.25927734375,-10594.818359375
174237.753,31.845077514648438,-48.96965789794922,0.629425585269928,-0.016318200156092644,0.030474649742245674,0.95830237865448,46353.0,-2.4768683910369873,1.0,-173.9534912109375,-12.979233741760254,-6.763034820556641,18.995803833007812,-0.0,0.0,3.8071129322052,-10734.2236328125,-3955.44140625,2203,-0.0,0.0,0.0,-0.31366288661956787,2.1271724700927734,-176.4849395751953,-6234.3798828125,-10427.19921875
174239.735,29.464689254760742,-50.36180877685547,0.5244172215461731,-0.014031150378286839,0.03096032701432705,0.9632413387298584,46353.0,-2.4768683910369873,1.0,-173.9534912109375,-14.17793083190918,-7.467031002044678,20.006187438964844,-0.0,0.0,3.8121869564056396,-11624.0986328125,-4282.46484375,2337,-0.0,0.0,0.0,-0.11387986689805984,2.2445051670074463,-176.49049377441406,-4536.23974609375,-7932.1396484375
174241.7,27.53103256225586,-51.692142486572266,0.57021164894104,-0.007890583015978336,0.027800148352980614,0.9633755087852478,46353.0,-2.4768683910369873,1.0,-173.9534912109375,-14.17793083190918,-7.467031002044678,19.039276123046875,-0.0,0.0,3.817260980606079,-10878.2578125,-3799.465576171875,2216,-0.0,0.0,0.0,-0.11387986689805984,2.2445051670074463,-176.49049377441406,-7639.599609375,-9200.6591796875
174243.761,25.375598907470703,-53.11845016479492,0.9585593938827515,0.0013778053689748049,0.020608093589544296,0.9567608833312988,46353.0,-2.4768683910369873,1.0,-173.9534912109375,-15.449652671813965,-8.066106796264648,19.88395881652832,-0.0,0.0,3.8223443031311035,-12308.736328125,-3848.98681640625,2271,-0.0,0.0,0.0,0.09807370603084564,2.344351053237915,-176.49513244628906,-7906.3193359375,-11095.9794921875
174245.649,22.559757232666016,-54.37577819824219,1.226387858390808,0.011175671592354774,0.015032119117677212,0.9486384987831116,46353.0,-2.4768683910369873,1.0,-173.9534912109375,-15.449652671813965,-8.066106796264648,19.077274322509766,-0.0,0.0,3.827427625656128,-11416.8134765625,-2481.999755859375,2142,-0.0,0.0,0.0,0.09807370603084564,2.344351053237915,-176.49513244628906,-5770.8603515625,-8261.8798828125
174247.635,19.426902770996094,-55.651885986328125,1.357527732849121,0.016224568709731102,0.015632005408406258,0.9429319500923157,46353.0,-2.4768683910369873,1.0,-173.9534912109375,-16.7888240814209,-8.518835067749023,19.767303466796875,-0.0,0.0,3.8325185775756836,-12827.56640625,-2181.766357421875,2209,-0.0,0.0,0.0,0.32126912474632263,2.4198057651519775,-176.49891662597656,-8454.2392578125,-9627.939453125
174249.597,15.847038269042969,-56.973045349121094,1.4769071340560913,0.016824178397655487,0.01853114552795887,0.9382826089859009,46353.0,-2.4768683910369873,1.0,-173.9534912109375,-16.7888240814209,-8.518835067749023,19.11016273498535,-0.0,0.0,3.8376095294952393,-12055.1494140625,-969.98291015625,2115,-0.0,0.0,0.0,0.32126912474632263,2.4198057651519775,-176.49891662597656,-6109.57958984375,-7976.30029296875
174251.583,12.041360855102539,-58.19454574584961,1.5776256322860718,0.01418329868465662,0.024451524019241333,0.9356335401535034,46353.0,-2.4768683910369873,1.0,-173.9534912109375,-18.185710906982422,-8.798879623413086,19.764293670654297,-0.0,0.0,3.842707633972168,-13420.8271484375,-481.8115234375,2182,-0.0,0.0,0.0,0.5540834665298462,2.466480016708374,-176.50250244140625,-8788.8203125,-10476.0400390625
174253.627,8.483874320983887,-59.392269134521484,1.4670690298080444,0.01209255214780569,0.03147660940885544,0.9349232316017151,46353.0,-2.4768683910369873,1.0,-173.9534912109375,-18.185710906982422,-8.798879623413086,19.14187240600586,-0.0,0.0,3.8478057384490967,-12534.990234375,75.70263671875,2120,-0.0,0.0,0.0,0.5540834665298462,2.466480016708374,-176.50250244140625,-8845.4599609375,-9464.9990234375
174255.529,4.995482444763184,-60.20751190185547,1.460076093673706,0.00782277062535286,0.029681185260415077,0.9357317090034485,46353.0,-2.4768683910369873,1.0,-173.9534912109375,-19.624637603759766,-8.912582397460938,19.96448516845703,-0.0,0.0,3.8529129028320312,-13665.453125,444.806396484375,2220,-0.0,0.0,0.0,0.7939046025276184,2.4854304790496826,-176.50701904296875,-8932.7998046875,-9291.4404296875
174257.495,1.6960738897323608,-60.5911865234375,1.507211446762085,0.002250346587970853,0.024049444124102592,0.938918948173523,46353.0,-2.4768683910369873,1.0,-173.9534912109375,-19.624637603759766,-8.912582397460938,19.179187774658203,-0.0,0.0,3.858020067214966,-12320.123046875,883.25830078125,2120,-0.0,0.0,0.0,0.7939046025276184,2.4854304790496826,-176.50701904296875,-10053.619140625,-7143.0
174259.478,-1.4160743951797485,-60.9803352355957,1.4202481508255005,-0.0016033073188737035,0.016285551711916924,0.9448539018630981,46353.0,-2.4768683910369873,1.0,-173.9534912109375,-21.07422637939453,-8.86446762084961,20.057044982910156,-0.0,0.0,3.8631367683410645,-13687.2431640625,1252.937744140625,2236,-0.0,0.0,0.0,1.0355027914047241,2.4774112701416016,-176.5118408203125,-9978.1201171875,-5026.59912109375
174261.446,-4.760824203491211,-61.113426208496094,1.283660888671875,-0.00221137679181993,0.012053271755576134,0.9510044455528259,46353.0,-2.4768683910369873,1.0,-173.9534912109375,-21.07422637939453,-8.86446762084961,19.218351364135742,-0.0,0.0,3.868253469467163,-12427.962890625,1893.0157470703125,2152,-0.0,0.0,0.0,1.0355027914047241,2.4774112701416016,-176.5118408203125,-10197.138671875,-5290.0595703125
174263.506,-8.445223808288574,-60.64474105834961,1.08905029296875,-0.0001392497943015769,0.011125913821160793,0.95763099193573,46353.0,-2.4768683910369873,1.0,-173.9534912109375,-22.514009475708008,-8.644939422607422,20.306121826171875,-0.0,0.0,3.873382091522217,-13202.1376953125,2897.988525390625,2306,-0.0,0.0,0.0,1.2754664421081543,2.4408233165740967,-176.517822265625,-10041.8994140625,-5676.4794921875
174265.393,-12.48965835571289,-60.22483825683594,0.9861399531364441,0.004702883772552013,0.010898839682340622,0.9619900584220886,46353.0,-2.4768683910369873,1.0,-173.9534912109375,-22.514009475708008,-8.644939422607422,19.264497756958008,-0.0,0.0,3.8785107135772705,-12095.8974609375,3610.033447265625,2193,-0.0,0.0,0.0,1.2754664421081543,2.4408233165740967,-176.517822265625,-9763.1201171875,-6356.53955078125
174267.381,-16.586069107055664,-60.055397033691406,1.0329900979995728,0.009085983037948608,0.010516141541302204,0.9646217226982117,46353.0,-2.4768683910369873,1.0,-173.9534912109375,-23.942596435546875,-8.23013687133789,20.327423095703125,-0.0,0.0,3.8836510181427,-13544.0595703125,4636.7998046875,2315,-0.0,0.0,0.0,1.5135642290115356,2.371689558029175,-176.52366638183594,-10041.8994140625,-5676.4794921875
174269.341,-20.46532440185547,-60.1489143371582,1.1126272678375244,0.009008058346807957,0.006528186146169901,0.9652032256126404,46353.0,-2.4768683910369873,1.0,-173.9534912109375,-23.942596435546875,-8.23013687133789,19.309843063354492,-0.0,0.0,3.88879132270813,-12683.8603515625,4744.7197265625,2183,-0.0,0.0,0.0,1.5135642290115356,2.371689558029175,-176.52366638183594,-10143.6181640625,-4122.33935546875
174271.334,-24.200443267822266,-60.17832946777344,1.2762295007705688,0.006833980791270733,0.0025055871810764074,0.9629096388816833,46353.0,-2.4768683910369873,1.0,-173.9534912109375,-25.370872497558594,-7.628641605377197,20.138019561767578,-0.0,0.0,3.8939406871795654,-13925.6513671875,5738.23095703125,2263,-0.0,0.0,0.0,1.751610517501831,2.271440267562866,-176.52821350097656,-8398.51953125,-1882.619873046875
174273.367,-27.880380630493164,-59.52227020263672,1.2999639511108398,0.0029483160469681025,-0.00018369092140346766,0.9601444005966187,46353.0,-2.4768683910369873,1.0,-173.9534912109375,-25.370872497558594,-7.628641605377197,19.347423553466797,-0.0,0.0,3.899090051651001,-12241.927734375,5797.7138671875,2165,-0.0,0.0,0.0,1.751610517501831,2.271440267562866,-176.52821350097656,-10197.138671875,-5290.0595703125
174275.271,-31.78990936279297,-58.583858489990234,1.0230995416641235,-0.0006379744736477733,-0.00038594508077949286,0.956061840057373,46353.0,-2.4768683910369873,1.0,-173.9534912109375,-26.75436019897461,-6.844472408294678,20.21980094909668,-0.0,0.0,3.9042491912841797,-13134.5390625,7262.087890625,2303,-0.0,0.0,0.0,1.9821916818618774,2.1407454013824463,-176.5330047607422,-10041.8994140625,-5676.4794921875
174277.242,-36.005340576171875,-57.22711181640625,0.6311638951301575,-0.004018957260996103,0.004381029400974512,0.9556947946548462,46353.0,-2.4768683910369873,1.0,-173.9534912109375,-26.75436019897461,-6.844472408294678,19.386489868164062,-0.0,0.0,3.9094083309173584,-11579.6640625,7535.70361328125,2250,-0.0,0.0,0.0,1.9821916818618774,2.1407454013824463,-176.5330047607422,-8334.740234375,-1232.7396240234375
174279.221,-40.16067123413086,-55.40724563598633,0.5017263293266296,-0.005982053000479937,0.011502612382173538,0.954948365688324,46353.0,-2.4768683910369873,1.0,-173.9534912109375,-28.056283950805664,-5.867786407470703,20.449445724487305,-0.0,0.0,3.914579153060913,-12131.0712890625,8992.9453125,2393,-0.0,0.0,0.0,2.199178695678711,1.9779644012451172,-176.53884887695312,-7227.7392578125,954.4003295898438
174281.195,-43.85683059692383,-53.66661071777344,0.6076921820640564,-0.005392870400100946,0.015729548409581184,0.957558810710907,46353.0,-2.4768683910369873,1.0,-173.9534912109375,-28.056283950805664,-5.867786407470703,19.431896209716797,-0.0,0.0,3.9197499752044678,-10952.955078125,8470.4755859375,2258,-0.0,0.0,0.0,2.199178695678711,1.9779644012451172,-176.53884887695312,-7309.359375,396.9002380371094
174283.245,-47.4041633605957,-51.948360443115234,0.7856066226959229,-0.0054701464250683784,0.01724863238632679,0.9631285667419434,46353.0,-2.4768683910369873,1.0,-173.9534912109375,-29.27409553527832,-4.721600532531738,20.091630935668945,-0.0,0.0,3.9249279499053955,-11808.04296875,9922.5244140625,2316,-0.0,0.0,0.0,2.4021477699279785,1.786933422088623,-176.54246520996094,-7053.61962890625,2074.04052734375
174285.135,-51.0303840637207,-50.56418228149414,0.7621321678161621,-0.004586298018693924,0.016647955402731895,0.9663383960723877,46353.0,-2.4768683910369873,1.0,-173.9534912109375,-29.27409553527832,-4.721600532531738,19.46394920349121,-0.0,0.0,3.9301059246063232,-10937.6083984375,9665.9833984375,2244,-0.0,0.0,0.0,2.4021477699279785,1.786933422088623,-176.54246520996094,-8118.859375,826.0405883789062
174287.12,-54.689090728759766,-49.166107177734375,0.6033198833465576,-0.003574528032913804,0.015986397862434387,0.9686914086341858,46353.0,-2.4768683910369873,1.0,-173.9534912109375,-30.424480438232422,-3.401623249053955,20.060169219970703,-0.0,0.0,3.9352903366088867,-11752.822265625,11427.1328125,2334,-0.0,0.0,0.0,2.5938785076141357,1.5669372081756592,-176.5457305908203,-7190.4794921875,2196.960205078125
174289.082,-58.2770881652832,-47.38041687011719,0.604228675365448,-0.004980512894690037,0.013238424435257912,0.9708734750747681,46353.0,-2.4768683910369873,1.0,-173.9534912109375,-30.424480438232422,-3.401623249053955,19.493911743164062,-0.0,0.0,3.94047474861145,-10331.4677734375,10922.3173828125,2266,-0.0,0.0,0.0,2.5938785076141357,1.5669372081756592,-176.5457305908203,-6919.55908203125,4792.39990234375
174291.07,-61.820743560791016,-45.50457763671875,0.6675925254821777,-0.005260413512587547,0.009695177897810936,0.9709920883178711,46353.0,-2.4768683910369873,1.0,-173.9534912109375,-31.48465347290039,-1.9086921215057373,19.8277587890625,-0.0,0.0,3.9456629753112793,-10936.62890625,12764.248046875,2299,-0.0,0.0,0.0,2.770573854446411,1.3181153535842896,-176.54754638671875,-6485.259765625,8256.1591796875
174293.108,-65.23904418945312,-43.568084716796875,0.7465444207191467,-0.005676513072103262,0.004693459253758192,0.971672773361206,46353.0,-2.4768683910369873,1.0,-173.9534912109375,-31.48465347290039,-1.9086921215057373,19.515182495117188,-0.0,0.0,3.9508512020111084,-9805.541015625,12063.2783203125,2252,-0.0,0.0,0.0,2.770573854446411,1.3181153535842896,-176.54754638671875,-6886.18017578125,7029.859375
174295.014,-68.5820083618164,-41.895652770996094,0.7628008127212524,-0.005176441743969917,-0.0025427755899727345,0.9698106050491333,46353.0,-2.4768683910369873,1.0,-173.9534912109375,-32.456966400146484,-0.2485671043395996,19.570083618164062,-0.0,0.0,3.9560399055480957,-10627.8037109375,14002.333984375,2256,-0.0,0.0,0.0,2.932626247406006,1.0414278507232666,-176.54782104492188,-6327.70068359375,8521.87890625
174296.991,-71.78833770751953,-39.9091682434082,0.7561998963356018,-0.0008287686505354941,-0.002121846890076995,0.9680920243263245,46353.0,-2.4768683910369873,1.0,-173.9534912109375,-32.456966400146484,-0.2485671043395996,19.52720832824707,-0.0,0.0,3.961228609085083,-9365.0595703125,13135.712890625,2252,-0.0,0.0,0.0,2.932626247406006,1.0414278507232666,-176.54782104492188,-5240.26025390625,9702.3984375
174298.963,-74.73517608642578,-37.083824157714844,0.5735709071159363,0.00253086443990469,0.002047198824584484,0.9706592559814453,46353.0,-2.4768683910369873,1.0,-173.9534912109375,-33.316898345947266,1.5541205406188965,19.518587112426758,-0.0,0.0,3.966417074203491,-9086.052734375,15005.5390625,2273,-0.0,0.0,0.0,3.0759479999542236,0.7409799098968506,-176.54774475097656,-5136.98046875,10021.658203125
174300.933,-77.29515838623047,-33.9677848815918,0.1688574254512787,0.004566763993352652,0.00831430871039629,0.9723415374755859,46353.0,-2.4768683910369873,1.0,-173.9534912109375,-33.316898345947266,1.5541205406188965,19.537126541137695,-0.0,0.0,3.9716055393218994,-7755.669921875,13747.37890625,2324,-0.0,0.0,0.0,3.0759479999542236,0.7409799098968506,-176.54774475097656,-5828.900390625,9196.640625
174302.989,-79.58930969238281,-31.27425765991211,-0.04589461907744408,0.0025741260033100843,0.012376159429550171,0.976655125617981,46353.0,-2.4768683910369873,1.0,-173.9534912109375,-34.036354064941406,3.46419095993042,19.799169540405273,-0.0,0.0,3.976796865463257,-8316.0341796875,15611.1865234375,2381,-0.0,0.0,0.0,3.195857286453247,0.42263486981391907,-176.54916381835938,-5596.0,7455.83935546875
174304.879,-81.23237609863281,-29.269826889038086,-0.09052079170942307,-0.0012895588297396898,0.015333295799791813,0.9799906611442566,46353.0,-2.4768683910369873,1.0,-173.9534912109375,-34.036354064941406,3.46419095993042,19.5560245513916,-0.0,0.0,3.9819881916046143,-7992.60888671875,13936.7841796875,2357,-0.0,0.0,0.0,3.195857286453247,0.42263486981391907,-176.54916381835938,-4765.5400390625,9470.521484375
174306.869,-82.36898040771484,-27.318357467651367,-0.3006805181503296,-0.003825257532298565,0.01386791467666626,0.9817615151405334,46353.0,-2.4768683910369873,1.0,-173.9534912109375,-34.65650939941406,5.437032222747803,19.873306274414062,-0.0,0.0,3.987183094024658,-8297.7451171875,15502.990234375,2420,-0.0,0.0,0.0,3.2992167472839355,0.09382795542478561,-176.55088806152344,-5597.98046875,7149.18017578125
174308.825,-83.46421813964844,-24.85590171813965,-0.5346325039863586,-0.004596840590238571,0.011366601102054119,0.9843835234642029,46353.0,-2.4768683910369873,1.0,-173.9534912109375,-34.65650939941406,5.437032222747803,19.576759338378906,-0.0,0.0,3.992377996444702,-7080.0205078125,14156.615234375,2413,-0.0,0.0,0.0,3.2992167472839355,0.09382795542478561,-176.55088806152344,-5022.88037109375,7826.240234375
174310.807,-84.3023910522461,-22.25006866455078,-0.7501319646835327,-0.004124382045120001,0.005768577568233013,0.9870796799659729,46353.0,-2.4768683910369873,1.0,-173.9534912109375,-35.15436553955078,7.457217693328857,20.106708526611328,-0.0,0.0,3.9975786209106445,-7029.6806640625,15907.705078125,2502,-0.0,0.0,0.0,3.382192611694336,-0.24286958575248718,-176.5537872314453,-5597.98046875,7149.18017578125
174312.859,-84.84469604492188,-19.316858291625977,-1.001842975616455,-0.004385620355606079,-0.0016132477903738618,0.9888181686401367,46353.0,-2.4768683910369873,1.0,-173.9534912109375,-35.15436553955078,7.457217693328857,19.604555130004883,-0.0,0.0,4.002779006958008,-5970.77392578125,14252.0146484375,2472,-0.0,0.0,0.0,3.382192611694336,-0.24286958575248718,-176.5537872314453,-4395.54052734375,10348.6181640625
174314.755,-85.35762023925781,-15.822339057922363,-1.172261118888855,-0.004444573540240526,0.0012446156470105052,0.9906225204467773,46353.0,-2.4768683910369873,1.0,-173.9534912109375,-35.497684478759766,9.501508712768555,20.38031768798828,-0.0,0.0,4.007987976074219,-5334.60400390625,16146.7841796875,2586,-0.0,0.0,0.0,3.4394123554229736,-0.583584725856781,-176.55804443359375,-5571.7001953125,5433.1796875
174316.722,-85.6726303100586,-12.371318817138672,-1.2175153493881226,-0.005214314442127943,0.006991070695221424,0.9932225942611694,46353.0,-2.046088695526123,1.0,-173.9534912109375,-32.91300964355469,9.501508712768555,19.64051628112793,-0.0,0.0,4.01319694519043,-2265.87890625,14512.37890625,2502,-0.0,0.0,0.0,3.4394123554229736,-0.583584725856781,-176.55804443359375,-5178.12060546875,8212.66015625
174318.709,-85.80635833740234,-9.844154357910156,-1.49554443359375,-0.006313418969511986,0.017238637432456017,0.9945574998855591,46353.0,-2.046088695526123,1.0,-173.9534912109375,-33.11205291748047,11.544057846069336,20.662094116210938,-0.0,0.0,4.0184173583984375,-4697.34033203125,16234.7705078125,2658,-0.0,0.0,0.0,3.4725871086120605,-0.9240095019340515,-176.56365966796875,-3333.19970703125,7963.3994140625
174320.669,-85.57901763916016,-7.509208679199219,-1.7854650020599365,-0.008268488571047783,0.028159093111753464,0.9935014843940735,46353.0,-2.046088695526123,1.0,-173.9534912109375,-33.11205291748047,11.544057846069336,19.684648513793945,-0.0,0.0,4.023637771606445,-4341.98046875,14397.9560546875,2576,-0.0,0.0,0.0,3.4725871086120605,-0.9240095019340515,-176.56365966796875,-2471.080078125,9174.759765625
174322.737,-85.07572937011719,-4.345765113830566,-1.9212225675582886,-0.00576566020026803,0.03111029416322708,0.9908744096755981,46353.0,-2.046088695526123,1.0,-173.9534912109375,-33.17998504638672,13.557437896728516,21.068042755126953,-0.0,0.0,4.028873443603516,-3307.22802734375,15927.5390625,2758,-0.0,0.0,0.0,3.4839091300964355,-1.259572982788086,-176.57127380371094,-3589.15966796875,7491.939453125
174324.617,-84.5247802734375,-0.7828205227851868,-1.875683069229126,0.00017159280832856894,0.0314345508813858,0.9844425320625305,46353.0,-2.046088695526123,1.0,-173.9534912109375,-33.17998504638672,13.557437896728516,19.74080467224121,-0.0,0.0,4.034109115600586,-2422.214111328125,14299.1201171875,2593,-0.0,0.0,0.0,3.4839091300964355,-1.259572982788086,-176.57127380371094,-3036.419677734375,8444.2802734375
174326.605,-83.62841033935547,2.2814877033233643,-1.5130846500396729,0.0048332419246435165,0.028462180867791176,0.9797824025154114,46353.0,-1.6162725687026978,1.0709292888641357,-173.9534912109375,-30.516300201416016,15.960126876831055,20.933645248413086,-0.0,0.0,4.039357662200928,60.7744140625,16068.0244140625,2693,-0.0,0.0,0.0,3.4697773456573486,-1.5890917778015137,-176.5778350830078,-1901.639892578125,8386.6591796875
174328.566,-82.8459243774414,4.552687168121338,-1.2508563995361328,0.00445519108325243,0.025102252140641212,0.9786176085472107,46353.0,-1.6162725687026978,1.0709292888641357,-173.9534912109375,-30.516300201416016,15.960126876831055,19.790668487548828,-0.0,0.0,4.0446062088012695,-2191.143310546875,14234.0439453125,2524,-0.0,0.0,0.0,3.4697773456573486,-1.5890917778015137,-176.5778350830078,-4202.9794921875,6184.66015625
174330.554,-82.17842864990234,7.09456205368042,-1.2127842903137207,-6.879086868138984e-05,0.0205646064132452,0.9783870577812195,46353.0,-1.6162725687026978,1.0709292888641357,-173.9534912109375,-30.3138484954834,17.903886795043945,20.878570556640625,-0.0,0.0,4.049866676330566,-1424.647216796875,15969.5419921875,2650,-0.0,0.0,0.0,3.436035633087158,-1.913051962852478,-176.5838165283203,-1123.1395263671875,9208.619140625
174332.593,-81.41686248779297,10.751907348632812,-1.3138166666030884,-0.008279898203909397,0.01608164981007576,0.9801959991455078,46353.0,-1.6162725687026978,1.0709292888641357,-173.9534912109375,-30.3138484954834,17.903886795043945,19.837078094482422,-0.0,0.0,4.055127143859863,-191.28271484375,14326.9375,2538,-0.0,0.0,0.0,3.436035633087158,-1.913051962852478,-176.5838165283203,-195.6400146484375,9029.0791015625
174334.498,-80.33415985107422,14.605525016784668,-1.5488694906234741,-0.0158812515437603,0.012877806089818478,0.9827374815940857,46353.0,-1.6162725687026978,1.0709292888641357,-173.9534912109375,-29.92394256591797,19.8037166595459,21.394512176513672,-0.0,0.0,4.0604047775268555,884.8798828125,15633.5302734375,2753,-0.0,0.0,0.0,3.37105131149292,-2.2296900749206543,-176.59239196777344,-1268.019775390625,9994.8994140625
174336.466,-78.60958099365234,18.38327407836914,-1.650265097618103,-0.016924578696489334,0.013462947681546211,0.9811528921127319,46353.0,-1.6162725687026978,1.0709292888641357,-173.9534912109375,-29.92394256591797,19.8037166595459,19.899085998535156,-0.0,0.0,4.065682411193848,1102.2113037109375,13468.560546875,2585,-0.0,0.0,0.0,3.37105131149292,-2.2296900749206543,-176.59239196777344,1212.679931640625,8535.69921875
174338.447,-76.57660675048828,21.77529525756836,-1.626260757446289,-0.013105830177664757,0.018047474324703217,0.9788813591003418,46353.0,-1.6162725687026978,1.0709292888641357,-173.9534912109375,-29.36517906188965,21.606868743896484,21.79348373413086,-0.0,0.0,4.070981025695801,1824.6058349609375,14555.1494140625,2810,-0.0,0.0,0.0,3.277924060821533,-2.5302155017852783,-176.6028289794922,207.21998596191406,7728.83935546875
174340.419,-74.82878112792969,24.895034790039062,-1.5914314985275269,-0.0065274364314973354,0.02433512732386589,0.9772250056266785,46353.0,-1.6162725687026978,1.0709292888641357,-173.9534912109375,-29.36517906188965,21.606868743896484,19.972305297851562,-0.0,0.0,4.076279640197754,1669.282958984375,13154.484375,2587,-0.0,0.0,0.0,3.277924060821533,-2.5302155017852783,-176.6028289794922,403.5399169921875,8754.2392578125
174342.488,-72.76483154296875,27.833873748779297,-1.6847130060195923,0.0022581652738153934,0.028469884768128395,0.9754777550697327,46353.0,-1.6162725687026978,1.0709292888641357,-173.9534912109375,-28.67147445678711,23.309316635131836,22.206436157226562,-0.0,0.0,4.081603050231934,2598.767578125,14139.994140625,2866,-0.0,0.0,0.0,3.162306547164917,-2.8139567375183105,-176.61514282226562,-64.97990417480469,9398.419921875
174344.361,-70.23627471923828,30.39068603515625,-2.029075860977173,0.009992741048336029,0.03239757567644119,0.9721887707710266,46353.0,-1.6162725687026978,1.0709292888641357,-173.9534912109375,-28.67147445678711,23.309316635131836,20.056835174560547,-0.0,0.0,4.086926460266113,2175.490966796875,12135.421875,2650,-0.0,0.0,0.0,3.162306547164917,-2.8139567375183105,-176.61514282226562,1212.679931640625,8535.69921875
174346.343,-68.28311157226562,33.12889099121094,-2.3146796226501465,0.017272498458623886,0.03665425255894661,0.9696131944656372,46353.0,-1.1854928731918335,1.6250642538070679,-173.9534912109375,-25.27726936340332,28.220447540283203,23.04774284362793,-0.0,0.0,4.092282772064209,5777.05029296875,16694.00390625,3043,-0.0,0.0,0.0,3.0273852348327637,-3.078343391418457,-176.6316375732422,728.820068359375,8370.7392578125
174348.309,-66.59937286376953,36.563018798828125,-2.213402032852173,0.019619641825556755,0.03249938040971756,0.9677623510360718,46353.0,-1.1854928731918335,1.6250642538070679,-173.9534912109375,-25.27726936340332,28.220447540283203,20.16651725769043,-0.0,0.0,4.097639083862305,4268.4580078125,12960.17578125,2685,-0.0,0.0,0.0,3.0273852348327637,-3.078343391418457,-176.6316375732422,698.4998168945312,7271.83984375
174350.301,-64.72624206542969,39.831565856933594,-2.0746171474456787,0.01776270568370819,0.026114927604794502,0.9628049731254578,46353.0,-1.1854928731918335,1.6250642538070679,-173.9534912109375,-24.309406280517578,29.724586486816406,23.356311798095703,-0.0,0.0,4.103030681610107,5505.6318359375,13890.876953125,3051,-0.0,0.0,0.0,2.866074800491333,-3.329033613204956,-176.64923095703125,758.920166015625,9301.439453125
174352.346,-62.42673110961914,42.410396575927734,-2.123771905899048,0.012927776202559471,0.015851974487304688,0.9595243334770203,46353.0,-1.1854928731918335,1.6250642538070679,-173.9534912109375,-24.309406280517578,29.724586486816406,20.282859802246094,-0.0,0.0,4.10842227935791,4649.271484375,12098.068359375,2688,-0.0,0.0,0.0,2.866074800491333,-3.329033613204956,-176.64923095703125,6002.38037109375,9228.400390625
174354.24,-59.63809585571289,44.7046012878418,-2.2216827869415283,0.0061049070209264755,0.004165629856288433,0.9576163291931152,46353.0,-1.1854928731918335,1.6250642538070679,-173.9534912109375,-23.22077751159668,31.116207122802734,23.889732360839844,-0.0,0.0,4.113853454589844,5759.6982421875,12565.3818359375,3133,-0.0,0.0,0.0,2.6846368312835693,-3.5609703063964844,-176.66912841796875,4214.3203125,7306.83984375
174356.215,-56.56014633178711,46.95581817626953,-2.1966238021850586,0.003580820979550481,0.002016586484387517,0.9581335186958313,46353.0,-1.1854928731918335,1.6250642538070679,-173.9534912109375,-23.22077751159668,31.116207122802734,20.413108825683594,-0.0,0.0,4.119284629821777,5248.6689453125,10842.9912109375,2713,-0.0,0.0,0.0,2.6846368312835693,-3.5609703063964844,-176.66912841796875,3023.93994140625,7973.458984375
174358.193,-53.45589828491211,49.5128059387207,-2.035599708557129,0.003745913039892912,0.004903869703412056,0.9627110958099365,46353.0,-1.1854928731918335,1.6250642538070679,-173.9534912109375,-22.0179443359375,32.35693359375,24.235445022583008,-0.0,0.0,4.124758243560791,6944.0947265625,11474.287109375,3152,-0.0,0.0,0.0,2.484164237976074,-3.7677581310272217,-176.69021606445312,3166.48046875,8102.37939453125
174360.164,-50.556396484375,52.02529525756836,-1.9617266654968262,0.005240336060523987,0.010431412607431412,0.9690830707550049,46353.0,-1.1854928731918335,1.6250642538070679,-173.9534912109375,-22.0179443359375,32.35693359375,20.550580978393555,-0.0,0.0,4.130231857299805,6385.4697265625,10262.37109375,2701,-0.0,0.0,0.0,2.484164237976074,-3.7677581310272217,-176.69021606445312,6419.02099609375,8425.3994140625
174362.216,-47.60112380981445,54.319759368896484,-2.1337485313415527,0.007051762659102678,0.012992664240300655,0.9773833155632019,46353.0,-1.1854928731918335,1.6250642538070679,-173.9534912109375,-20.704715728759766,33.45058822631836,24.798288345336914,-0.0,0.0,4.135752201080322,7748.02587890625,10761.54296875,3231,-0.0,0.0,0.0,2.2652931213378906,-3.9500339031219482,-176.71365356445312,4926.0595703125,6116.400390625
174364.109,-44.370826721191406,56.8524169921875,-2.3796494007110596,0.009635952301323414,0.0131720881909132,0.9841080904006958,46353.0,-1.1854928731918335,1.6250642538070679,-173.9534912109375,-20.704715728759766,33.45058822631836,20.702247619628906,-0.0,0.0,4.14127254486084,7321.6484375,9250.486328125,2769,-0.0,0.0,0.0,2.2652931213378906,-3.9500339031219482,-176.71365356445312,5647.58056640625,5690.8798828125
174366.104,-40.84236145019531,59.79128646850586,-2.436800479888916,0.008846020326018333,0.01003243774175644,0.9879994988441467,46353.0,-0.7556769251823425,2.0683722496032715,-173.9534912109375,-16.685989379882812,37.04166030883789,25.56313705444336,-0.0,0.0,4.146846294403076,11683.9912109375,11729.5576171875,3359,-0.0,0.0,0.0,2.0253212451934814,-4.10523796081543,-176.740478515625,6995.1005859375,8694.1787109375
174368.062,-37.58448791503906,62.4896240234375,-2.310136318206787,0.00425608828663826,0.007298637647181749,0.9914402365684509,46353.0,-0.7556769251823425,2.0683722496032715,-173.9534912109375,-16.685989379882812,37.04166030883789,20.874343872070312,-0.0,0.0,4.1524200439453125,8894.298828125,8750.5166015625,2782,-0.0,0.0,0.0,2.0253212451934814,-4.10523796081543,-176.740478515625,8441.7001953125,4511.240234375
174370.051,-34.339542388916016,64.67208862304688,-2.2063491344451904,-0.001820098957978189,0.005755747202783823,0.9946344494819641,46353.0,-0.7556769251823425,2.0683722496032715,-173.9534912109375,-15.126145362854004,37.818199157714844,25.920333862304688,-0.0,0.0,4.158049583435059,10238.623046875,8972.36328125,3375,-0.0,0.0,0.0,1.7653473615646362,-4.234660625457764,-176.76832580566406,8343.30078125,6152.1201171875
174372.077,-30.931835174560547,66.38886260986328,-2.143251895904541,-0.009279203601181507,0.006770242005586624,1.0000903606414795,46353.0,-0.7556769251823425,2.0683722496032715,-173.9534912109375,-15.126145362854004,37.818199157714844,21.05268669128418,-0.0,0.0,4.163679122924805,8976.98828125,7756.71875,2783,-0.0,0.0,0.0,1.7653473615646362,-4.234660625457764,-176.76832580566406,9022.9208984375,4272.060546875
174374.005,-27.14832878112793,67.43936157226562,-2.1740400791168213,-0.017373567447066307,0.010755077935755253,1.00464928150177,46353.0,-0.7556769251823425,2.0683722496032715,-173.9534912109375,-13.494647979736328,38.41880416870117,26.31968116760254,-0.0,0.0,4.169366836547852,10103.203125,7447.89453125,3419,-0.0,0.0,0.0,1.4934310913085938,-4.334761619567871,-176.79739379882812,7493.1806640625,1671.4801025390625
174375.972,-23.302459716796875,68.13475799560547,-2.207249879837036,-0.022589316591620445,0.016240078955888748,1.0082577466964722,46353.0,-0.4328330457210541,2.4018168449401855,-173.9534912109375,-11.557584762573242,40.419471740722656,21.23847007751465,-0.0,0.0,4.175054550170898,10460.9189453125,8174.390625,2813,-0.0,0.0,0.0,1.4934310913085938,-4.334761619567871,-176.79739379882812,9229.5009765625,4779.62060546875
174377.96,-19.95214080810547,69.24214935302734,-2.19315242767334,-0.026269813999533653,0.022181708365678787,1.0114800930023193,46353.0,-0.4328330457210541,2.4018168449401855,-173.9534912109375,-9.881271362304688,40.84101486206055,26.685043334960938,-0.0,0.0,4.180802345275879,10991.912109375,6922.3916015625,3465,-0.0,0.0,0.0,1.214045524597168,-4.4050188064575195,-176.82745361328125,9377.380859375,2074.920166015625
174379.922,-16.91070556640625,70.51416015625,-2.2294158935546875,-0.028714239597320557,0.027908360585570335,1.0102965831756592,46353.0,-0.4328330457210541,2.4018168449401855,-173.9534912109375,-9.881271362304688,40.84101486206055,21.43032455444336,-0.0,0.0,4.186550140380859,10048.94140625,6381.681640625,2839,-0.0,0.0,0.0,1.214045524597168,-4.4050188064575195,-176.82745361328125,11130.798828125,1895.34033203125
174381.96,-13.695327758789062,71.49310302734375,-2.169376850128174,-0.022400828078389168,0.029430784285068512,1.0061755180358887,46353.0,-0.4328330457210541,2.4018168449401855,-173.9534912109375,-8.156094551086426,41.10854721069336,27.034385681152344,-0.0,0.0,4.192359924316406,11528.642578125,6009.697265625,3504,-0.0,0.0,0.0,0.9265161156654358,-4.449607849121094,-176.85838317871094,11130.798828125,1895.34033203125
174383.88,-10.293548583984375,72.34037780761719,-1.7815648317337036,-0.013418939895927906,0.028919681906700134,0.998250424861908,46353.0,-0.4328330457210541,2.4018168449401855,-173.9534912109375,-8.156094551086426,41.10854721069336,21.627521514892578,-0.0,0.0,4.198169708251953,10263.0947265625,5158.98046875,2809,-0.0,0.0,0.0,0.9265161156654358,-4.449607849121094,-176.85838317871094,11130.798828125,1895.34033203125
174385.869,-6.980289936065674,72.78595733642578,-1.4781538248062134,-0.0026724636554718018,0.026060054078698158,0.987133264541626,46353.0,-0.4328330457210541,2.4018168449401855,-173.9534912109375,-6.412254333496094,41.21717071533203,26.820125579833984,-0.0,0.0,4.204036712646484,11598.123046875,4826.142578125,3395,-0.0,0.0,0.0,0.6358759999275208,-4.467711448669434,-176.8870391845703,11295.5185546875,2652.200439453125
174387.831,-3.649484395980835,72.5918960571289,-1.5034397840499878,0.00826534815132618,0.019781550392508507,0.9737085103988647,46353.0,-0.4328330457210541,2.4018168449401855,-173.9534912109375,-6.412254333496094,41.21717071533203,21.81119155883789,-0.0,0.0,4.209903717041016,9781.400390625,4231.89306640625,2797,-0.0,0.0,0.0,0.6358759999275208,-4.467711448669434,-176.8870391845703,11628.2392578125,2121.84033203125
174389.816,-0.25017592310905457,72.0947265625,-1.5746999979019165,0.01431806106120348,0.021573152393102646,0.966442883014679,46353.0,-0.4328330457210541,2.4018168449401855,-173.9534912109375,-4.697369575500488,41.16716766357422,27.031471252441406,-0.0,0.0,4.2158284187316895,11022.8876953125,3625.619140625,3432,-0.0,0.0,0.0,0.35006195306777954,-4.459377765655518,-176.9158477783203,11190.9384765625,1539.000732421875
174391.822,3.3577611446380615,71.49993133544922,-1.6288236379623413,0.017775222659111023,0.027129773050546646,0.9673779606819153,46353.0,-0.4328330457210541,2.4018168449401855,-173.9534912109375,-4.697369575500488,41.16716766357422,21.995891571044922,-0.0,0.0,4.221753120422363,9574.287109375,2965.45849609375,2834,-0.0,0.0,0.0,0.35006195306777954,-4.459377765655518,-176.9158477783203,11190.9384765625,1539.000732421875
174393.763,6.950582504272461,70.66128540039062,-1.6362051963806152,0.019372103735804558,0.03323806822299957,0.9712429642677307,46353.0,-0.4328330457210541,2.4018168449401855,-173.9534912109375,-3.022217273712158,40.93885040283203,27.149944305419922,-0.0,0.0,4.227734565734863,10773.2421875,2232.384765625,3454,-0.0,0.0,0.0,0.0708698257803917,-4.421325206756592,-176.9442901611328,11028.6201171875,956.5201416015625
174395.729,9.956862449645996,69.45624542236328,-1.5930293798446655,0.018516793847084045,0.03046182356774807,0.9761713147163391,46353.0,-0.4328330457210541,2.4018168449401855,-173.9534912109375,-3.022217273712158,40.93885040283203,22.178508758544922,-0.0,0.0,4.233716011047363,9061.32421875,2392.5888671875,2852,-0.0,0.0,0.0,0.0708698257803917,-4.421325206756592,-176.9442901611328,10809.599609375,693.0601806640625
174397.72,12.904057502746582,68.27368927001953,-1.3330410718917847,0.017050735652446747,0.02008913829922676,0.9825024604797363,46353.0,-0.4328330457210541,2.4018168449401855,-173.9534912109375,-1.4045506715774536,40.57627487182617,26.932147979736328,-0.0,0.0,4.239749908447266,10356.705078125,1668.506103515625,3391,-0.0,0.0,0.0,-0.19874127209186554,-4.36089563369751,-176.97052001953125,16966.48046875,1824.4400634765625
174399.644,16.153894424438477,67.59835052490234,-1.0721852779388428,0.012730074115097523,0.012244053184986115,0.9872152805328369,46353.0,-0.4328330457210541,2.4018168449401855,-173.9534912109375,-1.4045506715774536,40.57627487182617,22.347957611083984,-0.0,0.0,4.245783805847168,9422.56640625,1225.97900390625,2810,-0.0,0.0,0.0,-0.19874127209186554,-4.36089563369751,-176.97052001953125,16414.98046875,1385.3001708984375
174401.708,19.122940063476562,66.44548034667969,-1.1520357131958008,0.006687870714813471,0.006857899483293295,0.9898769855499268,46353.0,-0.4328330457210541,2.4018168449401855,-173.9534912109375,0.1732252836227417,40.07302474975586,26.797842025756836,-0.0,0.0,4.251866817474365,10311.4833984375,538.291015625,3353,-0.0,0.0,0.0,-0.46170392632484436,-4.277020454406738,-176.9950714111328,15389.8798828125,1422.079833984375
174403.591,21.8222599029541,64.36592102050781,-1.3945024013519287,0.0010256909299641848,0.0024511876981705427,0.9878763556480408,46353.0,-0.4328330457210541,2.4018168449401855,-173.9534912109375,0.1732252836227417,40.07302474975586,22.507431030273438,-0.0,0.0,4.2579498291015625,8121.20263671875,713.1248779296875,2868,-0.0,0.0,0.0,-0.46170392632484436,-4.277020454406738,-176.9950714111328,14107.1796875,2675.059814453125
174405.578,24.309249877929688,62.298587799072266,-1.3746564388275146,-0.003726466791704297,0.0015081590972840786,0.9867203235626221,46353.0,-0.4328330457210541,2.4018168449401855,-173.9534912109375,1.655146598815918,39.449649810791016,26.816509246826172,-0.0,0.0,4.26408052444458,9154.001953125,-61.71337890625,3382,-0.0,0.0,0.0,-0.7086908221244812,-4.17312479019165,-177.0188446044922,12182.6005859375,1586.60009765625
174407.54,27.03641128540039,60.491851806640625,-1.3153773546218872,-0.007412241771817207,0.008418140932917595,0.9825722575187683,46353.0,-0.4328330457210541,2.4018168449401855,-173.9534912109375,1.655146598815918,39.449649810791016,22.662330627441406,-0.0,0.0,4.270211219787598,7966.998046875,-183.38525390625,2877,-0.0,0.0,0.0,-0.7086908221244812,-4.17312479019165,-177.0188446044922,7577.62060546875,-1806.639892578125
174409.523,30.261350631713867,58.54754638671875,-1.365743637084961,-0.008641049265861511,0.019325150176882744,0.9771156907081604,46353.0,-0.4328330457210541,2.4018168449401855,-173.9534912109375,3.048288345336914,38.674957275390625,26.667652130126953,-0.0,0.0,4.276386260986328,8826.0,-1737.6826171875,3364,-0.0,0.0,0.0,-0.9408811330795288,-4.044009208679199,-177.0409393310547,7818.10107421875,2470.619873046875
174411.576,33.28811264038086,56.3600959777832,-1.3609271049499512,-0.007682452909648418,0.03395513445138931,0.9712391495704651,46353.0,-0.4328330457210541,2.4018168449401855,-173.9534912109375,3.048288345336914,38.674957275390625,22.8072509765625,-0.0,0.0,4.282561302185059,7270.6728515625,-1462.044921875,2900,-0.0,0.0,0.0,-0.9408811330795288,-4.044009208679199,-177.0409393310547,11088.3603515625,3702.880126953125
174413.471,35.68204116821289,53.851104736328125,-1.3986083269119263,-0.005706525407731533,0.04555899649858475,0.9657254815101624,46353.0,-0.4328330457210541,2.4018168449401855,-173.9534912109375,4.325850486755371,37.75687026977539,26.48947525024414,-0.0,0.0,4.288776874542236,7802.970703125,-2172.787109375,3346,-0.0,0.0,0.0,-1.1538081169128418,-3.8909950256347656,-177.06124877929688,11088.3603515625,3702.880126953125
174415.434,37.62803268432617,50.83866882324219,-1.5179777145385742,-0.0019687165040522814,0.0432051345705986,0.9580408334732056,46353.0,-0.4328330457210541,2.4018168449401855,-173.9534912109375,4.325850486755371,37.75687026977539,22.941537857055664,-0.0,0.0,4.294992446899414,6015.3505859375,-1440.16796875,2935,-0.0,0.0,0.0,-1.1538081169128418,-3.8909950256347656,-177.06124877929688,9640.1591796875,-1697.3994140625
174417.419,39.83082962036133,47.27515411376953,-1.3645497560501099,0.0027589614037424326,0.03572492301464081,0.9515537619590759,46353.0,-0.4328330457210541,2.4018168449401855,-173.9534912109375,5.440032958984375,36.74592208862305,26.165332794189453,-0.0,0.0,4.301243305206299,6070.2783203125,-2873.044677734375,3303,-0.0,0.0,0.0,-1.3395051956176758,-3.722503662109375,-177.0790252685547,5878.47998046875,-410.4798583984375
174419.385,42.16779708862305,43.27079391479492,-1.3328322172164917,0.005613632500171661,0.02377922460436821,0.9511500597000122,46353.0,-0.4328330457210541,2.4018168449401855,-173.9534912109375,5.440032958984375,36.74592208862305,23.060699462890625,-0.0,0.0,4.307494163513184,4303.35400390625,-2566.0068359375,2927,-0.0,0.0,0.0,-1.3395051956176758,-3.722503662109375,-177.0790252685547,7577.35986328125,1092.2200927734375
174421.465,44.167240142822266,39.39878463745117,-1.6517553329467773,0.006865937728434801,0.02303437888622284,0.9550962448120117,46353.0,-0.4328330457210541,2.4018168449401855,-173.9534912109375,6.361974716186523,35.63991165161133,26.030437469482422,-0.0,0.0,4.313777923583984,4651.5615234375,-3608.189453125,3321,-0.0,0.0,0.0,-1.4931621551513672,-3.5381686687469482,-177.09539794921875,7752.84033203125,91.76029205322266
