timestamp,gyro.x,gyro.y,gyro.z,acc.x,acc.y,acc.z,controller.actuatorThrust,controller.pitch,controller.roll,controller.yaw,pid_attitude.pitch_output,pid_attitude.roll_output,pid_attitude.yaw_output,pid_attitude.pitch_outI,pid_attitude.roll_outI,pid_attitude.yaw_outI,pid_rate.pitch_output,pid_rate.roll_output,pid_rate.yaw_output,pid_rate.pitch_outI,pid_rate.roll_outI,pid_rate.yaw_outI,stateEstimate.pitch,stateEstimate.roll,stateEstimate.yaw,snn_control.torque_pitch,snn_control.torque_roll
38638.021,32.78635787963867,-64.91980743408203,5.9177446365356445,0.016616640612483025,0.00511426804587245,0.9918144941329956,46788.0,-3.88916015625,1.0,-111.38511657714844,32.22865676879883,51.26664733886719,24.36648178100586,-2.168581485748291,7.318168640136719,5.091884613037109,-15727.8505859375,16201.681640625,2213,2626.4912109375,15146.3056640625,0.0,-9.62203311920166,-6.324746608734131,-114.59754943847656,-4781.16015625,-2893.1396484375
38640.08,36.2921257019043,-73.73355102539062,5.9293341636657715,0.014850706793367863,0.0012193025322631001,0.9890803694725037,46788.0,-3.88916015625,1.0,-111.38511657714844,30.424915313720703,50.32090759277344,13.85293960571289,-2.1360206604003906,7.361127853393555,5.098193168640137,-21515.83203125,13103.146484375,950,2583.1826171875,15160.3349609375,0.0,-9.315982818603516,-6.1599626541137695,-114.5394287109375,-8050.7001953125,-1670.7001953125
38641.97,39.4600944519043,-81.7301025390625,6.256035327911377,0.013145213946700096,0.0008852625614963472,0.9857439398765564,46788.0,-3.5663163661956787,1.0,-111.38511657714844,32.39647674560547,50.36386489868164,24.03037452697754,-2.101522445678711,7.404088020324707,5.104501724243164,-17330.794921875,13990.9169921875,2132,2533.84912109375,15171.23828125,0.0,-9.315982818603516,-6.1599626541137695,-114.5394287109375,-12120.1220703125,-2767.099853515625
38643.954,42.41225051879883,-88.64857482910156,6.512577533721924,0.012014735490083694,0.0022172117605805397,0.9901435375213623,46788.0,-3.5663163661956787,1.0,-111.38511657714844,30.2425537109375,49.26572799682617,12.123351097106934,-2.069211006164551,7.4459075927734375,5.110678672790527,-23466.5546875,11828.5947265625,673,2475.44287109375,15178.0908203125,0.0,-8.951610565185547,-5.969970226287842,-114.4736099243164,-12583.8408203125,-5637.3203125
38645.926,45.2430534362793,-95.40574645996094,6.757408618927002,0.0103811826556921,3.591534186853096e-05,0.9983606338500977,46788.0,-3.5663163661956787,1.0,-111.38511657714844,30.274864196777344,49.30754852294922,23.647815704345703,-2.0368990898132324,7.487727165222168,5.116855621337891,-22278.484375,12712.05078125,2026,2410.31201171875,15182.1552734375,0.0,-8.951610565185547,-5.969970226287842,-114.4736099243164,-13502.1220703125,-8067.2607421875
38647.901,47.9827880859375,-102.01470184326172,6.987475395202637,0.006842853967100382,-0.0030080394353717566,1.0061908960342407,46788.0,-3.5663163661956787,1.0,-111.38511657714844,27.806461334228516,48.076168060302734,10.66905403137207,-2.0070858001708984,7.5282745361328125,5.122889041900635,-27562.646484375,10241.701171875,441,2336.103759765625,15182.2490234375,0.0,-8.53524112701416,-5.75798225402832,-114.40187072753906,-16953.6796875,-10986.3603515625
38649.942,50.83607864379883,-108.61344146728516,7.002539157867432,0.003051973646506667,-0.010613995604217052,1.010037899017334,46788.0,-3.5663163661956787,1.0,-111.38511657714844,27.836275100708008,48.11671447753906,23.229446411132812,-1.9772722721099854,7.568822860717773,5.128922462463379,-26150.130859375,10983.759765625,1947,2255.326416015625,15179.5302734375,0.0,-8.53524112701416,-5.75798225402832,-114.40187072753906,-17497.259765625,-8655.3798828125
38651.855,53.93967056274414,-115.04938507080078,6.887137413024902,-0.0016378873260691762,-0.01784954033792019,1.011069416999817,46788.0,-3.5663163661956787,1.0,-111.38511657714844,25.061269760131836,46.751644134521484,9.742359161376953,-1.950260877609253,7.607966423034668,5.134807109832764,-31845.373046875,7789.5087890625,342,2165.33837890625,15172.3427734375,0.0,-8.068238258361816,-5.5239458084106445,-114.32732391357422,-19234.1796875,-10407.9599609375
38653.811,56.98957824707031,-120.70332336425781,6.6095967292785645,-0.005497683770954609,-0.020933115854859352,1.0108509063720703,46788.0,-3.5663163661956787,1.0,-111.38511657714844,25.088279724121094,46.79078674316406,22.793935775756836,-1.923249363899231,7.6471099853515625,5.140691757202148,-28867.701171875,8848.990234375,1942,2069.72314453125,15162.1435546875,0.0,-8.068238258361816,-5.5239458084106445,-114.32732391357422,-23660.560546875,-6952.919921875
38655.795,59.60701370239258,-125.5532455444336,6.141651153564453,-0.005969352554529905,-0.021288493648171425,1.0075023174285889,46788.0,-3.5663163661956787,1.0,-111.38511657714844,22.063247680664062,45.29698181152344,9.53040885925293,-1.8992868661880493,7.684722900390625,5.146429538726807,-33749.95703125,6431.275390625,406,1966.233154296875,15147.833984375,0.0,-7.56007194519043,-5.268709659576416,-114.25401306152344,-24200.501953125,-13649.2802734375
38657.763,61.26731872558594,-129.83384704589844,5.7132792472839355,-0.0032488794531673193,-0.011968197301030159,0.9998697638511658,46788.0,-3.5663163661956787,1.0,-111.38511657714844,22.087209701538086,45.3345947265625,22.36554718017578,-1.8753243684768677,7.722334861755371,5.152167320251465,-30398.96875,9120.3544921875,1998,1858.486572265625,15131.900390625,0.0,-7.56007194519043,-5.268709659576416,-114.25401306152344,-21885.0,-16175.419921875
38764.337,-40.4537467956543,108.50103759765625,-2.7646567821502686,-0.0011400340590626001,-0.015585746616125107,0.9904324412345886,46788.0,-1.0934287309646606,2.4018168449401855,-111.38511657714844,-5.714958190917969,32.31390380859375,21.49712371826172,-2.134547472000122,8.923799514770508,5.426048278808594,34716.2109375,36893.21875,2911,-1912.6026611328125,15015.353515625,0.0,-0.49669358134269714,-1.496533751487732,-114.06362915039062,17432.458984375,8866.6796875
38766.313,-43.57710266113281,113.64580535888672,-2.1261584758758545,-0.005070336628705263,-0.015730297192931175,0.99287348985672,46788.0,-1.0934287309646606,2.4018168449401855,-111.38511657714844,-3.001735210418701,33.380088806152344,25.31386375427246,-2.135413885116577,8.948230743408203,5.431447505950928,35681.55078125,39568.52734375,3292,-1801.9586181640625,15092.3095703125,0.0,-0.9490418434143066,-1.6701592206954956,-114.08468627929688,16645.638671875,9208.48046875
38768.354,-46.36157989501953,117.98632049560547,-1.7569292783737183,-0.00938845332711935,-0.017489656805992126,0.9924507737159729,46788.0,-1.0934287309646606,2.4018168449401855,-111.38511657714844,-3.0026016235351562,33.40452194213867,21.634265899658203,-2.1362802982330322,8.972662925720215,5.436846733093262,32483.509765625,38624.734375,2806,-1686.974853515625,15172.076171875,0.0,-0.9490418434143066,-1.6701592206954956,-114.08468627929688,18947.12109375,4178.15966796875
38770.261,-48.40728759765625,122.48274230957031,-1.814078450202942,-0.013163875788450241,-0.020023027434945107,0.9906483888626099,46788.0,-1.0934287309646606,2.4018168449401855,-111.38511657714844,-0.07525086402893066,34.58971405029297,25.68304443359375,-2.134221076965332,8.99825382232666,5.442290782928467,38317.0234375,40042.953125,3299,-1564.5673828125,15255.0732421875,0.0,-1.4365904331207275,-1.863426685333252,-114.10702514648438,21363.880859375,6578.73974609375
38772.23,-50.21626281738281,127.2459716796875,-1.8963885307312012,-0.014878997579216957,-0.02099204808473587,0.9878289103507996,46788.0,-1.0934287309646606,2.4018168449401855,-111.38511657714844,-0.07319188117980957,34.61530685424805,21.779186248779297,-2.132162094116211,9.023845672607422,5.447734832763672,36312.41015625,38841.01171875,2841,-1437.39453125,15339.904296875,0.0,-1.4365904331207275,-1.863426685333252,-114.10702514648438,20716.560546875,7036.6396484375
38774.218,-51.98387908935547,130.94894409179688,-1.6777898073196411,-0.015466348268091679,-0.016667980700731277,0.9933853149414062,46788.0,-1.0934287309646606,2.4018168449401855,-111.38511657714844,3.05586576461792,35.88545608520508,26.247814178466797,-2.126979351043701,9.050680160522461,5.453227996826172,40737.84375,41192.31640625,3351,-1303.3896484375,15427.7744140625,0.0,-1.9572362899780273,-2.070646047592163,-114.13168334960938,20106.720703125,12081.099609375
38776.174,-53.254859924316406,133.77078247070312,-1.1258734464645386,-0.017803024500608444,-0.009464140050113201,1.000180959701538,46788.0,-1.0934287309646606,2.4018168449401855,-111.38511657714844,3.061048746109009,35.91229248046875,21.938121795654297,-2.1217963695526123,9.0775146484375,5.458721160888672,36575.1796875,39431.0,2767,-1166.5577392578125,15516.9423828125,0.0,-1.9572362899780273,-2.070646047592163,-114.13168334960938,20821.900390625,9016.1005859375
38778.235,-54.3033561706543,136.39601135253906,-0.7312424778938293,-0.018609507009387016,-0.00743468152359128,1.0045592784881592,46788.0,-1.0934287309646606,2.4018168449401855,-111.38511657714844,6.320476531982422,37.23344421386719,26.21070671081543,-2.1133625507354736,9.105643272399902,5.464261531829834,42011.10546875,41454.7421875,3233,-1023.8412475585938,15608.478515625,0.0,-2.49906849861145,-2.2861499786376953,-114.15525817871094,20825.87890625,11005.0205078125
38780.12,-54.966041564941406,139.1228485107422,-0.5608882904052734,-0.016375843435525894,-0.01032287534326315,1.0106151103973389,46788.0,-1.0934287309646606,2.4018168449401855,-111.38511657714844,6.328909873962402,37.261573791503906,22.090652465820312,-2.104928731918335,9.133771896362305,5.469801902770996,38903.62109375,39621.125,2718,-878.3894653320312,15700.7060546875,0.0,-2.49906849861145,-2.2861499786376953,-114.15525817871094,20569.98046875,10297.560546875
38782.103,-55.59134292602539,141.5811309814453,-0.43113353848457336,-0.013337651267647743,-0.015386073850095272,1.0130319595336914,46788.0,-1.0934287309646606,2.4018168449401855,-111.38511657714844,9.707250595092773,38.61902618408203,26.67951774597168,-2.093128204345703,9.163227081298828,5.475392818450928,44390.7734375,41825.95703125,3253,-727.10107421875,15794.9169921875,0.0,-3.0601584911346436,-2.5074830055236816,-114.18058013916016,21420.162109375,11032.9599609375
38784.077,-56.61217498779297,143.25076293945312,-0.26997116208076477,-0.009201237931847572,-0.021166188642382622,1.010577917098999,46788.0,-0.7715486288070679,2.7333343029022217,-111.38511657714844,11.652263641357422,40.63957214355469,22.253765106201172,-2.0793967247009277,9.194671630859375,5.480983734130859,42671.875,44006.82421875,2702,-572.1980590820312,15892.1689453125,0.0,-3.0601584911346436,-2.5074830055236816,-114.18058013916016,20825.681640625,10329.62109375
38786.05,-57.36343002319336,144.21542358398438,-0.3777450621128082,-0.0073163509368896484,-0.026507282629609108,1.0138778686523438,46788.0,-0.7715486288070679,2.7333343029022217,-111.38511657714844,15.0897216796875,42.049171447753906,27.301151275634766,-2.0622446537017822,9.227493286132812,5.486630439758301,44916.03515625,43545.79296875,3321,-412.89288330078125,15991.58203125,0.0,-3.6302099227905273,-2.736945390701294,-114.20843505859375,24466.322265625,10837.8603515625
38788.09,-57.509403228759766,144.52117919921875,-0.454459011554718,-0.006891084369271994,-0.028776435181498528,1.0167746543884277,46788.0,-0.7715486288070679,2.7333343029022217,-111.38511657714844,15.106873512268066,42.081993103027344,22.432188034057617,-2.0450925827026367,9.26031494140625,5.492277145385742,40057.37890625,41212.52734375,2746,-253.2648162841797,16091.1728515625,0.0,-3.6302099227905273,-2.736945390701294,-114.20843505859375,23918.158203125,10915.2197265625
38789.998,-57.6513786315918,144.16734313964844,-0.2878102660179138,-0.006422156468033791,-0.030356908217072487,1.0156604051589966,46788.0,-0.7715486288070679,2.7333343029022217,-111.38511657714844,18.540063858032227,43.50220489501953,27.83038902282715,-2.0245280265808105,9.294523239135742,5.497983455657959,44435.49609375,43433.4453125,3374,-90.5573959350586,16192.3271484375,0.0,-4.198980808258057,-2.9679458141326904,-114.23822784423828,23099.83984375,12371.8408203125
38791.966,-57.9891357421875,143.16482543945312,0.1842910200357437,-0.006154388189315796,-0.03184955194592476,1.0157270431518555,46788.0,-0.7715486288070679,2.7333343029022217,-111.38511657714844,18.56062889099121,43.53641128540039,22.622356414794922,-2.0039632320404053,9.328730583190918,5.503689765930176,39275.07421875,42140.1953125,2692,71.16806030273438,16293.853515625,0.0,-4.198980808258057,-2.9679458141326904,-114.23822784423828,24953.259765625,7300.8603515625
38793.954,-58.04205322265625,142.02171325683594,0.5477833151817322,-0.010473467409610748,-0.027060432359576225,1.0162262916564941,46788.0,-0.7715486288070679,2.7333343029022217,-111.38511657714844,21.9429874420166,44.9644660949707,27.745811462402344,-1.9800403118133545,9.364331245422363,5.5094523429870605,44025.3828125,43999.703125,3263,235.1327667236328,16396.859375,0.0,-4.7587199211120605,-3.2000222206115723,-114.2665023803711,22911.44140625,11658.9208984375
38795.908,-57.69416046142578,141.2952117919922,0.5639359354972839,-0.016162503510713577,-0.01985226385295391,1.0139511823654175,46788.0,-0.7715486288070679,2.7333343029022217,-111.38511657714844,21.966909408569336,45.00006866455078,22.803529739379883,-1.9561173915863037,9.399931907653809,5.515214920043945,40335.68359375,41782.75,2668,398.3948974609375,16499.552734375,0.0,-4.7587199211120605,-3.2000222206115723,-114.2665023803711,24329.400390625,12089.51953125
38797.967,-57.38031768798828,140.2027587890625,0.5979651212692261,-0.024825120344758034,-0.009869227185845375,1.0118407011032104,46788.0,-0.7715486288070679,2.7333343029022217,-111.38511657714844,25.31092643737793,46.404701232910156,28.20046615600586,-1.928877592086792,9.436899185180664,5.5210371017456055,44756.796875,43913.078125,3312,563.9085693359375,16603.337890625,0.0,-5.311515808105469,-3.4279658794403076,-114.2962875366211,24164.322265625,11035.2802734375
38799.857,-57.06129837036133,138.2322998046875,0.7834635376930237,-0.034467268735170364,0.0017249409575015306,1.0094144344329834,46788.0,-0.7715486288070679,2.7333343029022217,-111.38511657714844,25.338165283203125,46.44166564941406,22.993885040283203,-1.9016377925872803,9.473867416381836,5.526859283447266,39191.0703125,42173.1640625,2665,727.4790649414062,16650.0,0.0,-5.311515808105469,-3.4279658794403076,-114.2962875366211,22533.62109375,10352.7998046875
38801.84,-56.12724685668945,135.5076904296875,0.8913601636886597,-0.03252029046416283,0.005920664872974157,1.0049961805343628,46788.0,-0.7715486288070679,2.7333343029022217,-111.38511657714844,28.5720272064209,47.80845642089844,28.330120086669922,-1.8711944818496704,9.512164115905762,5.532740592956543,42548.046875,43174.8515625,3292,891.5587768554688,16650.0,0.0,-5.845418930053711,-3.649381160736084,-114.32573699951172,22120.83984375,10916.580078125
39184.715,182.32147216796875,-62.13502883911133,-2.4430222511291504,-0.02368241176009178,-0.02592908777296543,1.0168917179107666,46788.0,4.424020767211914,9.387772560119629,-111.38511657714844,15.220169067382812,80.02855682373047,20.865737915039062,2.0223631858825684,18.69167137145996,6.618613243103027,-9132.5986328125,-14867.0947265625,2797,925.6931762695312,15427.0595703125,0.0,2.22438645362854,-0.8350415229797363,-113.62723541259766,-8347.240234375,-23620.115234375
39186.675,182.23094177246094,-59.06476974487305,-2.9073081016540527,-0.025620225816965103,-0.029679980129003525,1.020294189453125,46788.0,4.424020767211914,9.387772560119629,-111.38511657714844,15.233366012573242,80.08989715576172,20.075809478759766,2.0355608463287354,18.753007888793945,6.6230974197387695,-6221.67236328125,-10020.505859375,2757,881.8617553710938,15324.91796875,0.0,2.22438645362854,-0.8350415229797363,-113.62723541259766,-5349.87939453125,-22185.857421875
39188.658,182.01504516601562,-55.468048095703125,-3.114231586456299,-0.025194333866238594,-0.03171011060476303,1.0179712772369385,46788.0,4.424020767211914,9.387772560119629,-111.38511657714844,13.952886581420898,75.78491973876953,21.98736572265625,2.047466278076172,18.809982299804688,6.627602577209473,-6643.1357421875,-16450.1953125,3012,840.3465576171875,15218.6884765625,0.0,2.439784049987793,-0.1080501526594162,-113.63777160644531,-5777.220703125,-23028.896484375
39190.622,181.00228881835938,-51.691749572753906,-3.095357656478882,-0.026683242991566658,-0.030478261411190033,1.012768030166626,46788.0,4.424020767211914,9.387772560119629,-111.38511657714844,13.964792251586914,75.8418960571289,20.14803695678711,2.0593717098236084,18.86695671081543,6.632107734680176,-3893.87060546875,-9839.404296875,2789,802.61962890625,15113.52734375,0.0,2.439784049987793,-0.1080501526594162,-113.63777160644531,-8261.8994140625,-21234.818359375
39192.686,179.59732055664062,-48.31245422363281,-3.0584681034088135,-0.02940366417169571,-0.02813676744699478,1.0051277875900269,46788.0,4.424020767211914,9.387772560119629,-111.38511657714844,12.859712600708008,71.59498596191406,22.495990753173828,2.0701613426208496,18.919631958007812,6.63663911819458,-5253.2490234375,-15547.4873046875,3066,767.1669311523438,15005.5244140625,0.0,2.6257622241973877,0.6085458397865295,-113.65071868896484,-2910.1201171875,-17578.12109375
39194.571,177.3431396484375,-45.59274673461914,-3.1101603507995605,-0.03045995719730854,-0.023784343153238297,0.9969170093536377,46788.0,4.424020767211914,9.387772560119629,-111.38511657714844,12.870501518249512,71.64766693115234,20.234783172607422,2.080950975418091,18.972309112548828,6.641170501708984,-4032.99267578125,-8640.4638671875,2801,734.4447021484375,14899.8291015625,0.0,2.6257622241973877,0.6085458397865295,-113.65071868896484,-8754.560546875,-26880.9765625
39196.563,174.5030975341797,-43.028831481933594,-3.2061984539031982,-0.0305271428078413,-0.020814677700400352,0.9907558560371399,46788.0,4.424020767211914,9.387772560119629,-111.38511657714844,11.89450454711914,67.52090454101562,23.050899505615234,2.090754747390747,19.020809173583984,6.645732879638672,-5095.37451171875,-13561.1025390625,3150,703.3103637695312,14792.8466796875,0.0,2.790062427520752,1.3044239282608032,-113.66625213623047,-4356.1806640625,-23643.6171875
39198.518,171.63671875,-39.87221145629883,-3.4295341968536377,-0.02918309159576893,-0.01953609101474285,0.9881631731987,46788.0,4.424020767211914,9.387772560119629,-111.38511657714844,11.904308319091797,67.56939697265625,20.337108612060547,2.1005585193634033,19.06930923461914,6.650295257568359,-2358.603515625,-7684.462890625,2851,675.3424682617188,14688.779296875,0.0,2.790062427520752,1.3044239282608032,-113.66625213623047,-193.1802215576172,-25832.572265625
39200.511,168.4830322265625,-36.35110855102539,-3.558173894882202,-0.026870224624872208,-0.018259763717651367,0.9898169636726379,46788.0,4.424020767211914,9.387772560119629,-111.38511657714844,11.088150024414062,63.587276458740234,23.631059646606445,2.109537124633789,19.113780975341797,6.65489387512207,-2284.4794921875,-12675.591796875,3262,650.0794677734375,14583.8828125,0.0,2.9275853633880615,1.9755228757858276,-113.6844253540039,-1362.1400146484375,-23094.3984375
39202.541,165.1116943359375,-33.03666305541992,-3.6175103187561035,-0.02483576536178589,-0.013136843219399452,0.9928401112556458,46788.0,4.424020767211914,9.387772560119629,-111.38511657714844,11.097128868103027,63.631752014160156,20.455345153808594,2.118515729904175,19.158254623413086,6.659492492675781,-702.4620971679688,-6617.8212890625,2888,628.1399536132812,14482.4033203125,0.0,2.9275853633880615,1.9755228757858276,-113.6844253540039,-1199.5201416015625,-24838.998046875
39204.447,161.4790496826172,-29.897052764892578,-3.8353867530822754,-0.02282324992120266,-0.0072533865459263325,0.9957192540168762,46788.0,4.424020767211914,9.387772560119629,-111.38511657714844,10.435142517089844,59.81340789794922,24.061424255371094,2.126823902130127,19.198869705200195,6.664130687713623,-1159.77099609375,-11267.796875,3347,608.6780395507812,14380.73828125,0.0,3.0393009185791016,2.618683338165283,-113.7043228149414,571.9599609375,-18792.181640625
39206.418,157.41571044921875,-26.84278106689453,-3.88332200050354,-0.022795183584094048,0.0025628283619880676,0.9988731741905212,46788.0,4.424020767211914,9.387772560119629,-111.38511657714844,10.443450927734375,59.85401916503906,20.584007263183594,2.135132312774658,19.239484786987305,6.668768882751465,320.67132568359375,-4977.3076171875,2936,592.2787475585938,14283.1767578125,0.0,3.0393009185791016,2.618683338165283,-113.7043228149414,-976.5401000976562,-19029.162109375
39208.398,152.49395751953125,-23.910526275634766,-3.6327879428863525,-0.024060038849711418,0.013374248519539833,1.0014524459838867,46788.0,4.424020767211914,9.387772560119629,-111.38511657714844,9.926732063293457,56.242576599121094,24.068603515625,2.142915964126587,19.276451110839844,6.673445701599121,101.766357421875,-8238.0322265625,3324,578.294921875,14186.9248046875,0.0,3.126718044281006,3.2267518043518066,-113.72354888916016,1511.2197265625,-20867.138671875
39210.365,147.12493896484375,-21.22810935974121,-3.5538156032562256,-0.02409849315881729,0.01062642503529787,1.0027955770492554,46788.0,4.424020767211914,9.387772560119629,-111.38511657714844,9.934515953063965,56.279541015625,20.708717346191406,2.1506998538970947,19.313417434692383,6.678122520446777,1106.3538818359375,-1857.791015625,2911,567.0013427734375,14096.080078125,0.0,3.126718044281006,3.2267518043518066,-113.72354888916016,238.2800750732422,-23558.013671875
39212.418,141.84800720214844,-18.50815200805664,-3.7097249031066895,-0.02586664818227291,-0.0008589177159592509,1.0022902488708496,46788.0,4.424020767211914,9.387772560119629,-111.38511657714844,9.549473762512207,52.93363571166992,24.158828735351562,2.1580913066864014,19.347003936767578,6.68283748626709,1237.016845703125,-5807.638671875,3344,558.0426635742188,14007.166015625,0.0,3.1921236515045166,3.790001153945923,-113.74258422851562,-4000.480224609375,-30166.259765625
39214.312,136.66046142578125,-16.35564422607422,-3.821286916732788,-0.02769261784851551,-0.015124301426112652,0.9966089129447937,46788.0,4.424020767211914,9.387772560119629,-111.38511657714844,9.556865692138672,52.96722412109375,20.832359313964844,2.165482759475708,19.380590438842773,6.687552452087402,1551.423828125,-473.423828125,2958,551.2438354492188,13923.47265625,0.0,3.1921236515045166,3.790001153945923,-113.74258422851562,646.2799682617188,-18721.3828125
39466.924,0.9255176782608032,-21.58536720275879,-1.6347894668579102,0.00653276639059186,-0.002820855239406228,0.9470475316047668,46788.0,2.166041374206543,11.4944486618042,-111.38511657714844,-4.576847553253174,40.24335479736328,22.465654373168945,2.097930431365967,24.62508201599121,7.326448440551758,-6231.2724609375,34266.1796875,2892,524.4708862304688,14359.3662109375,0.0,3.2785043716430664,8.891403198242188,-113.90831756591797,-4407.81982421875,1389.0799560546875
39468.991,-7.201669216156006,-21.944698333740234,-1.706968069076538,0.00856788270175457,-0.005086536519229412,0.9488303661346436,46788.0,2.166041374206543,11.4944486618042,-111.38511657714844,-5.070084571838379,40.512657165527344,25.994848251342773,2.0907697677612305,24.640954971313477,7.331533908843994,-7321.94873046875,36831.2734375,3324,497.4560852050781,14407.0810546875,0.0,3.3595170974731445,8.849164962768555,-113.92778778076172,-4947.85986328125,3376.779541015625
39470.872,-15.252946853637695,-22.793371200561523,-1.901581883430481,0.008914350531995296,-0.007678532972931862,0.9525754451751709,46788.0,2.166041374206543,11.4944486618042,-111.38511657714844,-5.077245235443115,40.52853012084961,22.592647552490234,2.083609104156494,24.656827926635742,7.3366193771362305,-7567.8623046875,38492.17578125,2939,469.58544921875,14462.8623046875,0.0,3.3595170974731445,8.849164962768555,-113.92778778076172,-2886.359619140625,4215.26025390625
39472.856,-23.30631446838379,-24.523326873779297,-1.9270817041397095,0.009435780346393585,-0.013983541168272495,0.9560584425926208,46788.0,2.166041374206543,11.4944486618042,-111.38511657714844,-5.631080150604248,41.188533782958984,26.53201675415039,2.075901985168457,24.673341751098633,7.341748237609863,-9953.9091796875,41542.78125,3415,439.4310302734375,14527.357421875,0.0,3.450538396835327,8.74191665649414,-113.94952392578125,-2261.85986328125,1601.5400390625
39474.82,-31.38930320739746,-26.396278381347656,-1.8749769926071167,0.008845755830407143,-0.022364264354109764,0.9597119688987732,46788.0,2.166041374206543,11.4944486618042,-111.38511657714844,-5.638787269592285,41.205047607421875,22.733322143554688,2.06819486618042,24.689855575561523,7.346877098083496,-9952.19140625,42872.91796875,2952,407.39599609375,14599.9521484375,0.0,3.450538396835327,8.74191665649414,-113.94952392578125,-2201.239990234375,9020.3994140625
39476.801,-38.93414306640625,-27.237863540649414,-1.869888186454773,0.0031226559076458216,-0.027641747146844864,0.9626519680023193,46788.0,2.166041374206543,11.4944486618042,-111.38511657714844,-6.253570556640625,42.24702453613281,26.872970581054688,2.0598814487457275,24.7073974609375,7.352051734924316,-9819.4130859375,45709.94140625,3449,373.904541015625,14681.1328125,0.0,3.551616668701172,8.57117748260498,-113.97236633300781,-2179.679931640625,5919.759765625
39478.844,-45.64249801635742,-26.835847854614258,-1.8056203126907349,-0.002213752130046487,-0.031247129663825035,0.9668034315109253,46788.0,2.166041374206543,11.4944486618042,-111.38511657714844,-6.261883735656738,42.264564514160156,22.880725860595703,2.051568031311035,24.724937438964844,7.357226371765137,-7441.50244140625,45153.16796875,2962,340.80682373046875,14769.0400390625,0.0,3.551616668701172,8.57117748260498,-113.97236633300781,-5060.48046875,5780.1796875
39480.751,-52.125831604003906,-26.09762954711914,-1.825623869895935,-0.006050091236829758,-0.03229407221078873,0.9681447148323059,46788.0,2.166041374206543,11.4944486618042,-111.38511657714844,-6.844826698303223,43.625553131103516,26.792566299438477,2.042680501937866,24.743820190429688,7.362443923950195,-7733.6533203125,48608.05078125,3434,307.8643798828125,14864.7919921875,0.0,3.6472926139831543,8.347493171691895,-113.99394989013672,-3005.580078125,9405.83984375
39482.714,-58.431129455566406,-25.301795959472656,-1.7522536516189575,-0.007080011069774628,-0.028578050434589386,0.9700266718864441,46788.0,2.166041374206543,11.4944486618042,-111.38511657714844,-6.853714466094971,43.64443588256836,23.020660400390625,2.0337929725646973,24.76270294189453,7.367661476135254,-6779.48681640625,48390.97265625,2972,275.7088623046875,14966.8671875,0.0,3.6472926139831543,8.347493171691895,-113.99394989013672,-6429.4599609375,11608.439453125
39484.696,-64.46658325195312,-24.524127960205078,-1.6186350584030151,-0.005165707319974899,-0.023320980370044708,0.970131516456604,46788.0,2.166041374206543,11.4944486618042,-111.38511657714844,-7.4007487297058105,45.2967529296875,26.551406860351562,2.0243678092956543,24.78321647644043,7.372918128967285,-7449.14404296875,52127.1796875,3380,243.7839813232422,15076.630859375,0.0,3.736894130706787,8.075526237487793,-114.013427734375,-9806.0009765625,12996.439453125
39486.663,-70.30384063720703,-23.56871795654297,-1.4509879350662231,-0.003084140829741955,-0.01722826063632965,0.9680399298667908,46788.0,2.166041374206543,11.4944486618042,-111.38511657714844,-7.4101738929748535,45.317264556884766,23.148040771484375,2.0149426460266113,24.803730010986328,7.378174781799316,-6349.43505859375,51419.7421875,2951,212.8050994873047,15192.251953125,0.0,3.736894130706787,8.075526237487793,-114.013427734375,-9161.1806640625,12598.1796875
39488.719,-75.70800018310547,-22.458669662475586,-1.4160746335983276,0.0017478378722444177,-0.01081795059144497,0.9686145782470703,46788.0,2.166041374206543,11.4944486618042,-111.38511657714844,-7.912972450256348,47.23255157470703,26.252117156982422,2.0050246715545654,24.82613754272461,7.383465766906738,-6651.41650390625,55199.6328125,3320,182.43344116210938,15315.193359375,0.0,3.8190410137176514,7.760046005249023,-114.03054809570312,-8220.720703125,15185.359375
39490.613,-80.29850769042969,-21.419445037841797,-1.4922491312026978,0.00709106819704175,-0.004231031518429518,0.9699195623397827,46788.0,2.166041374206543,11.4944486618042,-111.38511657714844,-7.922890663146973,47.25495910644531,23.26134490966797,1.995106816291809,24.84854507446289,7.38875675201416,-5895.85693359375,53097.2578125,2970,153.0911102294922,15442.7470703125,0.0,3.8190410137176514,7.760046005249023,-114.03054809570312,-14397.33984375,20924.318359375
39492.591,-84.38185119628906,-20.852046966552734,-1.521228551864624,0.008457556366920471,-0.00028875679709017277,0.9742540121078491,46788.0,2.166041374206543,11.4944486618042,-111.38511657714844,-8.391212463378906,49.37187957763672,26.210792541503906,1.9847309589385986,24.873043060302734,7.39408016204834,-7063.123046875,56765.25,3327,123.84783935546875,15576.5009765625,0.0,3.8953652381896973,7.411309242248535,-114.04681396484375,-3155.52001953125,17302.28125
39494.556,-88.36194610595703,-21.321287155151367,-1.508648157119751,0.009244120679795742,0.0033568984363228083,0.9789474010467529,46788.0,2.166041374206543,11.4944486618042,-111.38511657714844,-8.401588439941406,49.39637756347656,23.369586944580078,1.9743551015853882,24.89754295349121,7.3994035720825195,-7936.11376953125,55159.6015625,2985,94.12496185302734,15714.2587890625,0.0,3.8953652381896973,7.411309242248535,-114.04681396484375,-4894.30029296875,15490.4208984375
39496.543,-92.28690338134766,-21.443605422973633,-1.2574018239974976,0.00858025811612606,0.006879998836666346,0.9853769540786743,46788.0,2.166041374206543,11.4944486618042,-111.38511657714844,-8.885074615478516,51.69842529296875,26.098115921020508,1.9635064601898193,24.92431640625,7.404757022857666,-8275.6298828125,59638.31640625,3282,63.79627990722656,15858.2451171875,0.0,3.9741382598876953,7.032097339630127,-114.06185913085938,-4180.72021484375,14517.880859375
39498.582,-95.42146301269531,-19.54090690612793,-1.0209074020385742,0.013249972835183144,0.004353317432105541,0.9844459891319275,46788.0,2.166041374206543,11.4944486618042,-111.38511657714844,-8.895923614501953,51.725196838378906,23.470565795898438,1.9526578187942505,24.95108985900879,7.4101104736328125,-4709.0361328125,56743.7421875,2938,35.35945129394531,16005.3916015625,0.0,3.9741382598876953,7.032097339630127,-114.06185913085938,-4318.3203125,15822.1806640625
39500.483,-97.7691879272461,-16.87366485595703,-1.01015305519104,0.02104588970541954,0.0005661611212417483,0.9789567589759827,46788.0,2.166041374206543,11.4944486618042,-111.38511657714844,-9.278776168823242,54.16254425048828,25.522464752197266,1.9414376020431519,24.98027229309082,7.4154863357543945,-3673.41650390625,60121.58984375,3183,9.20700740814209,16157.32421875,0.0,4.03607702255249,6.630736351013184,-114.07316589355469,-3085.6201171875,17568.33984375
39502.454,-99.57777404785156,-14.708126068115234,-1.0016855001449585,0.022943025454878807,0.0009018272976391017,0.9827699065208435,46788.0,2.166041374206543,11.4944486618042,-111.38511657714844,-9.289996147155762,54.19172668457031,23.549158096313477,1.9302173852920532,25.00945472717285,7.420862197875977,-3321.42431640625,57050.6796875,2946,-14.791116714477539,16311.0947265625,0.0,4.03607702255249,6.630736351013184,-114.07316589355469,-971.400146484375,15704.4599609375
39504.436,-100.76563262939453,-12.72877311706543,-0.8123642206192017,0.021655339747667313,0.001619055401533842,0.9898276329040527,46788.0,2.166041374206543,11.4944486618042,-111.38511657714844,-9.57522201538086,56.70034408569336,25.04180145263672,1.9187233448028564,25.041114807128906,7.426254749298096,-3495.434326171875,60455.640625,3102,-37.095115661621094,16468.560546875,0.0,4.081698894500732,6.217910289764404,-114.08138275146484,-5259.5205078125,16002.1015625
39887.317,-9.55516242980957,-62.182193756103516,-3.578218460083008,0.004138405900448561,-0.0041290284134447575,0.9844632744789124,47657.0,-1.7381527423858643,3.5110504627227783,-111.38511657714844,-40.24924087524414,1.534597396850586,35.63084411621094,-0.24545657634735107,29.259334564208984,8.503830909729004,-23754.849609375,25154.79296875,4705,-2650.29736328125,15987.2978515625,0.0,4.929144859313965,8.131839752197266,-114.4914779663086,-21691.48046875,-1243.0999755859375
39889.285,-14.053597450256348,-56.55521774291992,-3.9100401401519775,0.00554280960932374,-0.010249865241348743,0.9788472652435303,47657.0,-1.7381527423858643,3.5110504627227783,-111.38511657714844,-40.28924560546875,1.506875991821289,27.148212432861328,-0.28546035289764404,29.231613159179688,8.51004409790039,-19974.55078125,25481.369140625,3726,-2747.141845703125,16002.859375,0.0,4.929144859313965,8.131839752197266,-114.4914779663086,-23772.359375,-6910.201171875
39891.252,-18.2995662689209,-50.87660217285156,-3.9793808460235596,0.006608929485082626,-0.013357321731746197,0.9761093854904175,47657.0,-2.1689324378967285,3.0667788982391357,-111.38511657714844,-44.06600570678711,-0.6878013610839844,35.00090026855469,-0.3291971683502197,29.201723098754883,8.516343116760254,-24200.41796875,22987.52734375,4677,-2842.08447265625,16020.4716796875,0.0,5.120535373687744,8.04836654663086,-114.53482818603516,-22311.2578125,-3963.961669921875
39893.32,-22.765981674194336,-44.75957107543945,-3.7638213634490967,0.004503184929490089,-0.016110708937048912,0.9761338233947754,47657.0,-2.1689324378967285,3.0667788982391357,-111.38511657714844,-44.1097412109375,-0.7176914215087891,27.42091178894043,-0.3729339838027954,29.171833038330078,8.522642135620117,-17556.650390625,27100.25,3742,-2930.953857421875,16042.5205078125,0.0,5.120535373687744,8.04836654663086,-114.53482818603516,-18534.779296875,-1703.3397216796875
39895.202,-27.33988380432129,-38.14982986450195,-3.6151397228240967,0.003583701327443123,-0.014164012856781483,0.976810872554779,47657.0,-2.1689324378967285,3.0667788982391357,-111.38511657714844,-44.99940872192383,-0.0253143310546875,33.652469635009766,-0.4175158739089966,29.14266586303711,8.529010772705078,-16651.326171875,29481.328125,4472,-3014.10302734375,16069.8359375,0.0,5.261383056640625,7.928109169006348,-114.56922149658203,-12586.0400390625,-4733.1201171875
39897.164,-31.798337936401367,-31.33110237121582,-3.664968252182007,0.000651225564070046,-0.011804050765931606,0.9799338579177856,47657.0,-2.1689324378967285,3.0667788982391357,-111.38511657714844,-45.04399108886719,-0.05448150634765625,27.6400089263916,-0.46209776401519775,29.11349868774414,8.535379409790039,-13716.568359375,29574.15234375,3756,-3090.47802734375,16101.580078125,0.0,5.261383056640625,7.928109169006348,-114.56922149658203,-16408.21875,768.2398681640625
39899.149,-35.980045318603516,-24.305341720581055,-3.802790403366089,-0.005365652497857809,-0.012761976569890976,0.9853253960609436,47657.0,-2.1689324378967285,3.0667788982391357,-111.38511657714844,-45.5997428894043,0.8478145599365234,32.56941223144531,-0.5071902871131897,29.08525848388672,8.541802406311035,-12549.14453125,31700.375,4364,-3160.383056640625,16138.4072265625,0.0,5.346492767333984,7.773019790649414,-114.59642028808594,-15355.3203125,-2753.42041015625
39901.112,-39.8531608581543,-16.889698028564453,-3.810107707977295,-0.007924354635179043,-0.009414223954081535,0.9870043992996216,47657.0,-2.4908125400543213,2.512643814086914,-111.38511657714844,-47.57804489135742,-2.5085601806640625,27.81604766845703,-0.5542141199111938,29.053695678710938,8.548225402832031,-12545.1123046875,26157.830078125,3795,-3224.8505859375,16175.7509765625,0.0,5.346492767333984,7.773019790649414,-114.59642028808594,-14243.720703125,-52.74012756347656
39903.18,-43.539485931396484,-8.819847106933594,-3.6417410373687744,-0.008431433700025082,-0.005662542302161455,0.9874722361564636,47657.0,-2.4908125400543213,2.512643814086914,-111.38511657714844,-47.76726531982422,-1.4274044036865234,31.085620880126953,-0.6013799905776978,29.02324676513672,8.554683685302734,-7577.42919921875,32705.236328125,4167,-3281.43798828125,16217.86328125,0.0,5.370168209075928,7.587752342224121,-114.61444854736328,-14570.7607421875,3096.579345703125
39905.058,-47.13248062133789,-1.0147113800048828,-3.481943130493164,-0.0076543292962014675,-0.0015936024719849229,0.9882850646972656,47657.0,-2.4908125400543213,2.512643814086914,-111.38511657714844,-47.814430236816406,-1.4578533172607422,27.9371337890625,-0.6485458612442017,28.9927978515625,8.561141967773438,-5840.0869140625,32135.37890625,3770,-3330.266845703125,16263.5380859375,0.0,5.370168209075928,7.587752342224121,-114.61444854736328,-13000.0009765625,2760.02001953125
39907.044,-50.91303253173828,6.331851959228516,-3.3861446380615234,-0.008530543185770512,0.007956136018037796,0.9961225986480713,47657.0,-2.4908125400543213,2.512643814086914,-111.38511657714844,-47.64496612548828,-0.20255661010742188,29.59381103515625,-0.6954953670501709,28.96363067626953,8.567619323730469,-4304.8271484375,35286.67578125,3957,-3371.580078125,16314.2490234375,0.0,5.334099292755127,7.3736748695373535,-114.62356567382812,-11131.8798828125,5482.8798828125
39909.016,-55.013832092285156,13.451397895812988,-3.2040746212005615,-0.008774441666901112,0.016944026574492455,1.0044646263122559,47657.0,-2.4908125400543213,2.512643814086914,-111.38511657714844,-47.69191360473633,-0.231719970703125,28.004791259765625,-0.7424448728561401,28.934467315673828,8.5740966796875,-3125.203369140625,35154.10546875,3745,-3405.820556640625,16369.0322265625,0.0,5.334099292755127,7.3736748695373535,-114.62356567382812,-11450.8798828125,5231.77978515625
39910.989,-58.68979263305664,20.32341957092285,-2.792503833770752,-0.009638910181820393,0.022463282570242882,1.0080848932266235,47657.0,-2.9215922355651855,2.0683722496032715,-111.38511657714844,-49.77889633178711,-1.4611644744873047,27.993316650390625,-0.7914323806762695,28.904102325439453,8.580573081970215,-4817.845703125,33791.5625,3694,-3435.276123046875,16426.259765625,0.0,5.242984771728516,7.1292500495910645,-114.62346649169922,-10016.859375,4753.6396484375
39913.043,-61.59859848022461,28.0291748046875,-2.4348182678222656,-0.012816034257411957,0.024091938510537148,1.0073573589324951,47657.0,-2.9215922355651855,2.0683722496032715,-111.38511657714844,-49.827884674072266,-1.4915294647216797,28.017148971557617,-0.8404198884963989,28.873737335205078,8.58704948425293,664.2060546875,35111.1875,3654,-3457.07470703125,16486.3671875,0.0,5.242984771728516,7.1292500495910645,-114.62346649169922,-2103.3603515625,3167.139892578125
39914.935,-63.840087890625,36.76102066040039,-2.222917079925537,-0.013424471952021122,0.021458208560943604,1.0019816160202026,47657.0,-2.9215922355651855,2.0683722496032715,-111.38511657714844,-48.93948745727539,0.07337570190429688,26.217361450195312,-0.8884708881378174,28.844966888427734,8.593505859375,5511.4326171875,37286.63671875,3412,-3469.253173828125,16550.279296875,0.0,5.086910247802734,6.863637447357178,-114.61348724365234,-1478.360595703125,7883.2197265625
40061.065,-2.7197816371917725,-68.22444915771484,3.223559856414795,0.03136121481657028,0.010603142902255058,1.013994812965393,47657.0,-11.953510284423828,1.0,-111.38511657714844,-10.989917755126953,45.384063720703125,19.585948944091797,-1.753259539604187,28.72724151611328,8.992566108703613,-26385.400390625,26929.92578125,1963,3540.061279296875,16650.0,0.0,-10.414067268371582,-1.7761366367340088,-113.80490112304688,-17003.880859375,-1970.60009765625
40062.955,-0.9722946286201477,-74.97013092041016,3.288986921310425,0.03293131664395332,0.0031342185102403164,1.0163719654083252,47657.0,-12.383326530456543,1.0,-111.38511657714844,-13.5806303024292,45.400718688964844,23.51611328125,-1.7650749683380127,28.743900299072266,8.997406005859375,-30356.662109375,26079.71484375,2427,3451.510498046875,16650.0,0.0,-10.414067268371582,-1.7761366367340088,-113.80490112304688,-20454.140625,-6932.8203125
40064.936,1.0716142654418945,-80.86280059814453,3.3444621562957764,0.02626585029065609,0.004856015555560589,1.025377869606018,47657.0,-12.383326530456543,1.0,-111.38511657714844,-15.637402534484863,45.346317291259766,19.113006591796875,-1.7789335250854492,28.76048469543457,9.002197265625,-30706.849609375,25095.7890625,1892,3355.01025390625,16650.0,0.0,-10.07358169555664,-1.7643053531646729,-113.78054809570312,-19787.98046875,-7223.82080078125
40066.892,3.5709803104400635,-85.23939514160156,3.2710723876953125,0.015235465951263905,0.01413622498512268,1.0379382371902466,47657.0,-12.383326530456543,1.0,-111.38511657714844,-15.651260375976562,45.36289978027344,23.37957763671875,-1.7927918434143066,28.777069091796875,9.006988525390625,-27456.607421875,23994.5,2413,3254.11962890625,16650.0,0.0,-10.07358169555664,-1.7643053531646729,-113.78054809570312,-23114.51953125,-7291.0986328125
40068.875,6.098645210266113,-89.4345703125,3.1132349967956543,0.0048795356415212154,0.02473941259086132,1.0513331890106201,47657.0,-12.383326530456543,1.0,-111.38511657714844,-17.90099334716797,45.17827606201172,18.932231903076172,-1.8088841438293457,28.793455123901367,9.011730194091797,-31743.23828125,23029.548828125,1898,3146.7841796875,16650.0,0.0,-9.701308250427246,-1.73080313205719,-113.75595092773438,-22926.27734375,-10282.6015625
40070.92,8.055994033813477,-93.2190933227539,2.9581069946289062,-0.003323527052998543,0.035378605127334595,1.0573009252548218,47657.0,-12.383326530456543,1.0,-111.38511657714844,-17.917085647583008,45.19466018676758,23.241477966308594,-1.8249762058258057,28.80984115600586,9.016471862792969,-29499.1640625,23508.45703125,2434,3035.64794921875,16650.0,0.0,-9.701308250427246,-1.73080313205719,-113.75595092773438,-22712.138671875,-4742.62060546875
40072.834,9.701630592346191,-96.61138153076172,2.8562965393066406,-0.005209931172430515,0.035201091319322586,1.0602169036865234,47657.0,-12.813142776489258,1.0,-111.38511657714844,-22.91391944885254,44.91968536376953,18.860366821289062,-1.8460440635681152,28.8259334564209,9.021164894104004,-37451.60546875,23053.75390625,1920,2916.12255859375,16650.0,0.0,-9.301830291748047,-1.6822913885116577,-113.73171997070312,-23373.279296875,-4253.9404296875
40074.792,11.533886909484863,-99.89889526367188,2.6880056858062744,-0.002895720535889268,0.026219727471470833,1.0585460662841797,47657.0,-12.813142776489258,1.0,-111.38511657714844,-22.934986114501953,44.93577575683594,23.105478286743164,-1.8671119213104248,28.842025756835938,9.025857925415039,-32050.90234375,22730.265625,2450,2793.288818359375,16650.0,0.0,-9.301830291748047,-1.6822913885116577,-113.73171997070312,-23373.279296875,-4253.9404296875
40076.781,13.189370155334473,-102.3814468383789,2.5786378383636475,0.0004909257986582816,0.01750771328806877,1.0533409118652344,47657.0,-12.813142776489258,1.0,-111.38511657714844,-25.49294090270996,44.588199615478516,18.93008041381836,-1.890714168548584,28.857757568359375,9.030505180358887,-35603.82421875,21995.8828125,1962,2665.414306640625,16650.0,0.0,-8.879438400268555,-1.6217403411865234,-113.70862579345703,-20825.080078125,-3903.40087890625
40078.755,14.691740989685059,-103.75088500976562,2.550478219985962,0.0042953588999807835,0.00830364041030407,1.0486154556274414,47657.0,-12.813142776489258,1.0,-111.38511657714844,-25.516542434692383,44.60392761230469,22.976207733154297,-1.9143164157867432,28.873485565185547,9.035152435302734,-31522.001953125,22269.740234375,2451,2536.14697265625,16650.0,0.0,-8.879438400268555,-1.6217403411865234,-113.70862579345703,-22480.099609375,-6577.44091796875
40080.809,15.823410987854004,-104.3722152709961,2.4685420989990234,0.004252534359693527,0.008440523408353329,1.0400235652923584,47657.0,-12.813142776489258,1.0,-111.38511657714844,-28.122892379760742,44.199668884277344,18.963712692260742,-1.9404988288879395,28.888797760009766,9.039754867553711,-34754.71875,21824.15625,1979,2403.651611328125,16650.0,0.0,-8.449410438537598,-1.5518122911453247,-113.68643188476562,-22685.099609375,-4250.580078125
40082.684,17.135780334472656,-104.64114379882812,2.3734540939331055,0.0013817268190905452,0.01718433015048504,1.0308924913406372,47657.0,-12.813142776489258,1.0,-111.38511657714844,-28.14907455444336,44.21498107910156,22.852249145507812,-1.9666812419891357,28.904109954833984,9.044357299804688,-31295.591796875,21798.4765625,2457,2270.861328125,16650.0,0.0,-8.449410438537598,-1.5518122911453247,-113.68643188476562,-22480.099609375,-6577.44091796875
40084.663,18.578807830810547,-105.09173583984375,2.043987989425659,0.001959903398528695,0.014421681873500347,1.026636004447937,47657.0,-12.813142776489258,1.0,-111.38511657714844,-30.770401000976562,43.74443435668945,19.2332763671875,-1.9954562187194824,28.91893768310547,9.048919677734375,-35670.4296875,20549.439453125,2062,2134.999267578125,16650.0,0.0,-8.017318725585938,-1.4709161520004272,-113.66641235351562,-22852.677734375,-5245.18017578125
40086.635,19.34537696838379,-105.47429656982422,1.6191422939300537,0.0034592626616358757,0.00562111334875226,1.025125503540039,47657.0,-12.813142776489258,1.0,-111.38511657714844,-30.799175262451172,43.75925827026367,22.741256713867188,-2.024231195449829,28.933761596679688,9.053482055664062,-32583.8046875,21813.7890625,2534,1998.725830078125,16650.0,0.0,-8.017318725585938,-1.4709161520004272,-113.66641235351562,-24792.66015625,-9116.0205078125
40088.61,20.276763916015625,-105.42195129394531,1.3920249938964844,0.005190074909478426,-0.005176018923521042,1.0275646448135376,47657.0,-12.813142776489258,1.0,-111.38511657714844,-33.429222106933594,43.26227951049805,19.760236740112305,-2.0556046962738037,28.948076248168945,9.058012008666992,-36075.0390625,20610.921875,2204,1859.8746337890625,16650.0,0.0,-7.5842061042785645,-1.3857005834579468,-113.64991760253906,-24903.462890625,-9336.541015625
40090.667,21.686809539794922,-104.61392211914062,1.2238222360610962,0.007705142721533775,-0.019674217328429222,1.0328130722045898,47657.0,-12.813142776489258,1.0,-111.38511657714844,-33.46059799194336,43.27659606933594,22.651348114013672,-2.0869784355163574,28.962390899658203,9.062541961669922,-31826.03125,20302.78515625,2571,1721.800048828125,16650.0,0.0,-7.5842061042785645,-1.3857005834579468,-113.64991760253906,-26339.599609375,-9292.0615234375
40092.563,22.904850006103516,-102.81439208984375,0.8708986639976501,0.007252455689013004,-0.029803236946463585,1.0353246927261353,47657.0,-12.813142776489258,1.0,-111.38511657714844,-36.02826690673828,42.732948303222656,20.27790641784668,-2.1208858489990234,28.976146697998047,9.067045211791992,-34087.8671875,19404.9140625,2328,1582.9573974609375,16650.0,0.0,-7.16191291809082,-1.292799949645996,-113.63677978515625,-24735.8828125,-8341.9404296875
40094.542,23.64635467529297,-100.09449768066406,0.42884790897369385,0.006027983967214823,-0.03480449318885803,1.0346003770828247,47657.0,-12.813142776489258,1.0,-111.38511657714844,-36.062171936035156,42.7467041015625,22.581527709960938,-2.1547932624816895,28.98990249633789,9.071548461914062,-29234.900390625,20515.40234375,2658,1446.8006591796875,16650.0,0.0,-7.16191291809082,-1.292799949645996,-113.63677978515625,-26640.919921875,-12567.2021484375
40096.51,24.033119201660156,-97.29562377929688,-0.08133652061223984,0.004691197071224451,-0.03591696545481682,1.0321028232574463,47657.0,-12.813142776489258,1.0,-111.38511657714844,-38.495574951171875,42.18382263183594,21.12914276123047,-2.1910977363586426,29.003082275390625,9.076035499572754,-32179.943359375,20000.619140625,2545,1311.009521484375,16650.0,0.0,-6.762396335601807,-1.1967897415161133,-113.62873077392578,-24602.138671875,-6061.40087890625
40098.472,24.216747283935547,-94.74679565429688,-0.3689025938510895,0.0028695545624941587,-0.020858068019151688,1.0266199111938477,47657.0,-12.813142776489258,1.0,-111.38511657714844,-38.53187942504883,42.196998596191406,22.542207717895508,-2.2274019718170166,29.01626205444336,9.080522537231445,-29001.27734375,20931.998046875,2749,1177.7308349609375,16650.0,0.0,-6.762396335601807,-1.1967897415161133,-113.62873077392578,-26640.919921875,-12567.2021484375
40100.544,24.54932975769043,-92.01693725585938,-0.42671018838882446,0.0020053242333233356,9.017113188747317e-05,1.0217227935791016,47657.0,-12.813142776489258,1.0,-111.38511657714844,-40.836368560791016,41.60493469238281,21.47509002685547,-2.265972375869751,29.028839111328125,9.08499813079834,-31636.736328125,19758.09375,2628,1044.8775634765625,16650.0,0.0,-6.384743690490723,-1.0960159301757812,-113.62281036376953,-22712.138671875,-4742.62060546875
40102.419,25.361082077026367,-88.56285095214844,-0.5960496068000793,0.0018847015453502536,0.01908848062157631,1.01806640625,47657.0,-12.813142776489258,1.0,-111.38511657714844,-40.87493896484375,41.61751174926758,22.515636444091797,-2.3045427799224854,29.04141616821289,9.089473724365234,-27174.6171875,19715.138671875,2773,915.439697265625,16650.0,0.0,-6.384743690490723,-1.0960159301757812,-113.62281036376953,-26268.33984375,-13899.4609375
40104.406,25.94420051574707,-84.52490997314453,-0.9606432318687439,0.0001988945296034217,0.03439229726791382,1.0187863111495972,47657.0,-12.813142776489258,1.0,-111.38511657714844,-42.99802780151367,40.97623825073242,22.003643035888672,-2.3451955318450928,29.0533390045166,9.09394359588623,-28699.248046875,18877.51953125,2755,787.9168090820312,16650.0,0.0,-6.037671089172363,-0.9871496558189392,-113.61995697021484,-23771.1796875,-11226.759765625
40106.372,26.00916290283203,-80.30563354492188,-1.2998542785644531,-0.000642619386781007,0.03292422369122505,1.0228081941604614,47657.0,-12.813142776489258,1.0,-111.38511657714844,-43.03868103027344,40.9881591796875,22.507455825805664,-2.3858482837677,29.065261840820312,9.098413467407227,-24948.232421875,20328.447265625,2856,664.5724487304688,16650.0,0.0,-6.037671089172363,-0.9871496558189392,-113.61995697021484,-27125.69921875,-13498.4599609375
40108.35,25.723867416381836,-75.6210708618164,-1.5234352350234985,-0.0007217723759822547,0.02262001298367977,1.0278091430664062,47657.0,-12.813142776489258,1.0,-111.38511657714844,-44.947235107421875,40.36125946044922,22.65416145324707,-2.4283671379089355,29.07654571533203,9.102884292602539,-26128.0625,19882.341796875,2901,544.004150390625,16650.0,0.0,-5.726665019989014,-0.8807855248451233,-113.62074279785156,-25742.818359375,-11828.419921875
40110.408,25.38275718688965,-70.21308135986328,-1.6173912286758423,-0.003378896741196513,0.011783488094806671,1.034348964691162,47657.0,-12.813142776489258,1.0,-111.38511657714844,-44.98975372314453,40.37254333496094,22.5211124420166,-2.47088623046875,29.08782958984375,9.107355117797852,-21665.0703125,20837.939453125,2896,428.8013000488281,16650.0,0.0,-5.726665019989014,-0.8807855248451233,-113.62074279785156,-28040.619140625,-16085.1201171875
40112.296,25.0806884765625,-64.73394012451172,-1.8626538515090942,-0.0058266944251954556,0.0013719559647142887,1.0370663404464722,47657.0,-12.813142776489258,1.0,-111.38511657714844,-46.63406753540039,39.77429962158203,23.170480728149414,-2.515005350112915,29.09850311279297,9.111833572387695,-22731.0390625,19953.18359375,3003,317.4332580566406,16650.0,0.0,-5.45996618270874,-0.7792989611625671,-113.62430572509766,-25066.919921875,-6013.7001953125
40114.262,24.359844207763672,-59.17985534667969,-2.3144495487213135,-0.010149236768484116,-0.00402038125321269,1.0379228591918945,47657.0,-12.813142776489258,1.0,-111.38511657714844,-46.678184509277344,39.78497314453125,22.55144691467285,-2.55912446975708,29.109176635742188,9.116312026977539,-19365.470703125,21420.6796875,2983,211.57522583007812,16650.0,0.0,-5.45996618270874,-0.7792989611625671,-113.62430572509766,-24841.2421875,-9625.0810546875
40116.243,23.50019645690918,-53.098426818847656,-2.807767868041992,-0.015790477395057678,-0.0068323807790875435,1.033387541770935,47657.0,-12.813142776489258,1.0,-111.38511657714844,-48.03800964355469,39.23204803466797,24.092906951904297,-2.604557752609253,29.119291305541992,9.120807647705078,-19271.666015625,20966.3671875,3228,110.43878936767578,16650.0,0.0,-5.24090051651001,-0.6854598522186279,-113.63279724121094,-24566.060546875,-4921.2001953125
40118.207,22.715166091918945,-46.89088439941406,-3.1660752296447754,-0.01759759709239006,-0.004542007576674223,1.0284048318862915,47657.0,-12.813142776489258,1.0,-111.38511657714844,-48.08344268798828,39.242164611816406,22.611387252807617,-2.649991273880005,29.129405975341797,9.125303268432617,-16025.48046875,21775.68359375,3093,15.464454650878906,16650.0,0.0,-5.24090051651001,-0.6854598522186279,-113.63279724121094,-20111.3203125,-5369.419921875
40120.281,21.7833309173584,-40.22911834716797,-3.341484308242798,-0.017472989857196808,0.0009412117069587111,1.0248680114746094,47657.0,-12.813142776489258,1.0,-111.38511657714844,-49.13348388671875,38.728179931640625,24.695571899414062,-2.6964282989501953,29.138996124267578,9.12982177734375,-15399.892578125,21408.525390625,3364,-73.89815521240234,16650.0,0.0,-5.073633670806885,-0.5981975197792053,-113.644287109375,-20591.720703125,-8483.1806640625
40122.153,20.692031860351562,-33.0013427734375,-3.5868043899536133,-0.014848178252577782,0.007340408395975828,1.0200095176696777,47657.0,-12.813142776489258,1.0,-111.38511657714844,-49.1799201965332,38.737770080566406,22.689363479614258,-2.7428653240203857,29.14858627319336,9.134340286254883,-11724.71484375,22537.546875,3153,-156.07940673828125,16650.0,0.0,-5.073633670806885,-0.5981975197792053,-113.644287109375,-21267.0390625,-8328.1396484375
40124.143,19.449729919433594,-25.93102264404297,-3.765516519546509,-0.010365788824856281,0.011370417661964893,1.01891028881073,47657.0,-12.813142776489258,1.0,-111.38511657714844,-49.89078140258789,38.27569580078125,25.215469360351562,-2.789966106414795,29.157703399658203,9.138886451721191,-11238.0380859375,22331.77734375,3477,-231.90122985839844,16650.0,0.0,-4.963006973266602,-0.5196651816368103,-113.65821838378906,-17714.80078125,-14878.8623046875
40126.101,17.930423736572266,-18.495471954345703,-3.800039052963257,-0.006429863628000021,0.016276592388749123,1.0127582550048828,47657.0,-12.813142776489258,1.0,-111.38511657714844,-49.93788146972656,38.284812927246094,22.78204345703125,-2.837067127227783,29.166820526123047,9.1434326171875,-8173.10009765625,23649.125,3189,-300.3345642089844,16650.0,0.0,-4.963006973266602,-0.5196651816368103,-113.65821838378906,-16824.798828125,-7747.279296875
40128.082,16.338712692260742,-10.473091125488281,-3.8354902267456055,-0.002756118308752775,0.02184007503092289,1.0062899589538574,47657.0,-12.813142776489258,1.0,-111.38511657714844,-50.28217315673828,37.892356872558594,25.464223861694336,-2.884464740753174,29.175539016723633,9.148008346557617,-5952.2998046875,23537.48046875,3515,-361.0898132324219,16650.0,0.0,-4.913524627685547,-0.45280319452285767,-113.67301177978516,-11584.1806640625,-9735.6787109375
40130.124,15.122488975524902,-2.317049980163574,-4.0684638023376465,-0.00015422393335029483,0.027517937123775482,0.9997016787528992,47657.0,-12.813142776489258,1.0,-111.38511657714844,-50.32957077026367,37.90107727050781,22.879955291748047,-2.9318623542785645,29.18425750732422,9.152584075927734,-3439.5888671875,23875.826171875,3233,-413.7364501953125,16650.0,0.0,-4.913524627685547,-0.45280319452285767,-113.67301177978516,-9048.400390625,-7240.02001953125
40132.029,13.841409683227539,5.472555637359619,-4.210880756378174,0.0003870211949106306,0.03522566333413124,0.9941718578338623,47657.0,-12.813142776489258,1.0,-111.38511657714844,-50.29354476928711,37.56236267089844,25.912921905517578,-2.9791767597198486,29.192625045776367,9.157193183898926,-1881.7625732421875,23758.1953125,3614,-458.5574645996094,16650.0,0.0,-4.927414894104004,-0.3949566185474396,-113.68974304199219,-12697.4609375,-10341.201171875
40133.994,12.495840072631836,13.219345092773438,-4.311042785644531,0.0033993269316852093,0.03461108356714249,0.9914016723632812,47657.0,-12.168418884277344,1.0,-111.38511657714844,-46.46864318847656,37.57073211669922,22.989561080932617,-3.02262282371521,29.200992584228516,9.161802291870117,5660.48046875,24611.146484375,3276,-491.8067321777344,16650.0,0.0,-4.927414894104004,-0.3949566185474396,-113.68974304199219,-12118.7607421875,-900.0198364257812
40135.983,10.848599433898926,21.527973175048828,-4.572739124298096,0.005075268447399139,0.030552448704838753,0.9915992617607117,47657.0,-12.168418884277344,1.0,-111.38511657714844,-46.04694747924805,37.30770492553711,26.362272262573242,-3.0656042098999023,29.20909309387207,9.166448593139648,4266.8349609375,24995.04296875,3712,-516.32568359375,16650.0,0.0,-5.004861831665039,-0.3497685492038727,-113.7083511352539,-11099.4208984375,-6672.42041015625
40137.944,8.984844207763672,29.780197143554688,-4.821342468261719,0.006204412784427404,0.022112926468253136,0.9977983832359314,47657.0,-12.168418884277344,1.0,-111.38511657714844,-46.089927673339844,37.31580352783203,23.110502243041992,-3.108585834503174,29.217193603515625,9.17109489440918,5651.48583984375,26072.5546875,3351,-532.6354370117188,16650.0,0.0,-5.004861831665039,-0.3497685492038727,-113.7083511352539,-11129.400390625,-8239.1201171875
40140.009,6.950651168823242,37.43937683105469,-4.9167022705078125,0.0014963425928726792,0.017971239984035492,1.0064767599105835,47657.0,-12.168418884277344,1.0,-111.38511657714844,-45.28559494018555,37.1547966003418,26.81329345703125,-3.1507208347320557,29.22512435913086,9.175782203674316,8077.353515625,26542.51953125,3807,-540.481689453125,16650.0,0.0,-5.145939826965332,-0.32161182165145874,-113.7287826538086,-6851.48046875,-9980.4599609375
40141.892,4.9207963943481445,45.00663375854492,-4.893914222717285,-0.00750009436160326,0.0175686813890934,1.0134353637695312,47657.0,-12.168418884277344,1.0,-111.38511657714844,-45.327728271484375,37.16272735595703,23.24246597290039,-3.1928558349609375,29.233055114746094,9.180469512939453,8785.328125,27257.71484375,3376,-540.8027954101562,16650.0,0.0,-5.145939826965332,-0.32161182165145874,-113.7287826538086,-3955.160400390625,-12406.0419921875
40143.881,3.3718435764312744,52.28126907348633,-4.71496057510376,-0.015945347025990486,0.014741837047040462,1.015509843826294,47657.0,-11.845574378967285,1.0,-111.38511657714844,-42.220176696777344,37.089691162109375,26.854156494140625,-3.231843948364258,29.240901947021484,9.185196876525879,14962.265625,26924.35546875,3788,-530.74169921875,16650.0,0.0,-5.347519397735596,-0.3081316351890564,-113.74871063232422,606.1796875,-8102.50048828125
40145.839,1.1506832838058472,59.79948043823242,-4.4754815101623535,-0.02209649607539177,0.011852776631712914,1.0146645307540894,47657.0,-11.845574378967285,1.0,-111.38511657714844,-42.25916290283203,37.097537994384766,23.371488571166992,-3.2708323001861572,29.248748779296875,9.189924240112305,13220.91015625,28422.97265625,3341,-513.2013549804688,16650.0,0.0,-5.347519397735596,-0.3081316351890564,-113.74871063232422,2888.839599609375,-9018.2412109375
40147.825,-1.3946518898010254,67.98179626464844,-4.4611382484436035,-0.024439817294478416,0.009432325139641762,1.014324426651001,47657.0,-11.845574378967285,1.0,-111.38511657714844,-40.708900451660156,37.14202117919922,26.865840911865234,-3.3082330226898193,29.256633758544922,9.194689750671387,18498.01953125,29521.4453125,3759,-485.9284362792969,16650.0,0.0,-5.6121296882629395,-0.3142310082912445,-113.76799011230469,1593.799560546875,-2004.02001953125
40149.876,-3.797966480255127,76.56525421142578,-4.452325344085693,-0.0219864659011364,0.0068604606203734875,1.0135562419891357,47657.0,-11.845574378967285,1.0,-111.38511657714844,-40.74630355834961,37.149906158447266,23.49669647216797,-3.3456337451934814,29.26451873779297,9.199455261230469,19187.1953125,29900.96484375,3353,-450.1094970703125,16650.0,0.0,-5.6121296882629395,-0.3142310082912445,-113.76799011230469,5333.7802734375,-7157.580078125
