timestamp,gyro.x,gyro.y,gyro.z,acc.x,acc.y,acc.z,controller.actuatorThrust,controller.pitch,controller.roll,controller.yaw,pid_attitude.pitch_output,pid_attitude.roll_output,pid_attitude.yaw_output,pid_attitude.pitch_outI,pid_attitude.roll_outI,pid_attitude.yaw_outI,pid_rate.pitch_output,pid_rate.roll_output,pid_rate.yaw_output,pid_rate.pitch_outI,pid_rate.roll_outI,pid_rate.yaw_outI,stateEstimate.pitch,stateEstimate.roll,stateEstimate.yaw,snn_control.torque_pitch,snn_control.torque_roll
90527.82,115.50189208984375,5.301119327545166,3.0479559898376465,-0.01217886246740818,0.02113170363008976,1.0648647546768188,47438.0,0.46168532967567444,0.2631450593471527,-30.198102951049805,11.924437522888184,12.238086700439453,3.0709898471832275,0.0,0.0,0.23873725533485413,3231.83642578125,-19928.6875,2,0.0,0.0,0.0,-1.5257209539413452,-1.776536226272583,-30.67014503479004,2213.300048828125,-14743.759765625
90529.839,120.4134292602539,6.498940467834473,3.1775386333465576,-0.005744596477597952,0.024114079773426056,1.0602807998657227,47438.0,0.46168532967567444,0.2631450593471527,-30.198102951049805,12.070155143737793,9.316850662231445,0.8748654127120972,0.0,0.0,0.23965705931186676,3793.01806640625,-22539.064453125,-276,0.0,0.0,0.0,-1.5500072240829468,-1.2896634340286255,-30.65800666809082,2095.340087890625,-14171.6806640625
90531.819,125.26561737060547,7.5877275466918945,3.5774569511413574,-0.0034856474958360195,0.01946004293859005,1.0578166246414185,47438.0,0.46168532967567444,0.2631450593471527,-30.198102951049805,12.070155143737793,9.316850662231445,2.9999990463256836,0.0,0.0,0.2405768632888794,3765.2724609375,-21031.455078125,-69,0.0,0.0,0.0,-1.5500072240829468,-1.2896634340286255,-30.65800666809082,174.3003692626953,-14844.0400390625
90533.753,130.3803253173828,8.92834758758545,4.019296646118164,-0.002421057317405939,0.011661483906209469,1.0544227361679077,47438.0,0.46168532967567444,0.2631450593471527,-30.198102951049805,12.271751403808594,6.166844367980957,0.19347698986530304,0.0,0.0,0.24146564304828644,4336.677734375,-24830.552734375,-459,0.0,0.0,0.0,-1.583606481552124,-0.7646622657775879,-30.64249610900879,868.0203857421875,-14869.958984375
90535.717,135.2590789794922,10.59892463684082,4.481751918792725,-0.002424391685053706,0.004973840434104204,1.0536432266235352,47438.0,0.46168532967567444,0.2631450593471527,-30.198102951049805,12.271751403808594,6.166844367980957,2.9087133407592773,0.0,0.0,0.24235442280769348,4683.533203125,-23022.90625,-188,0.0,0.0,0.0,-1.583606481552124,-0.7646622657775879,-30.64249610900879,4614.9404296875,-15503.3193359375
90537.705,139.69287109375,12.571622848510742,4.957293510437012,-0.005593101028352976,-7.757623825455084e-05,1.0559715032577515,47438.0,0.46168532967567444,0.2631450593471527,-30.198102951049805,12.561092376708984,2.803708076477051,-0.6090219020843506,0.0,0.0,0.24320432543754578,5466.4365234375,-26381.06640625,-667,0.0,0.0,0.0,-1.631830096244812,-0.2041396051645279,-30.623056411743164,3104.100341796875,-15885.6396484375
90539.695,143.56529235839844,14.242921829223633,5.263444423675537,-0.013461478054523468,0.002106978790834546,1.0597001314163208,47438.0,0.46168532967567444,0.2631450593471527,-30.198102951049805,12.561092376708984,2.803708076477051,2.7937750816345215,0.0,0.0,0.24405422806739807,5274.076171875,-24018.552734375,-296,0.0,0.0,0.0,-1.631830096244812,-0.2041396051645279,-30.623056411743164,5256.93994140625,-16894.5
90541.701,147.06349182128906,15.730661392211914,5.425168991088867,-0.025824282318353653,0.008141325786709785,1.0639199018478394,47438.0,0.46168532967567444,0.2631450593471527,-30.198102951049805,12.934663772583008,-0.7357074022293091,-1.1576125621795654,0.0,0.0,0.2448604702949524,5695.7822265625,-27448.087890625,-789,0.0,0.0,0.0,-1.694091796875,0.3857629597187042,-30.601221084594727,5138.97998046875,-16322.419921875
90543.614,149.8100128173828,17.07564353942871,5.798551559448242,-0.03618256747722626,0.011860956437885761,1.065264344215393,47438.0,0.46168532967567444,0.2631450593471527,-30.198102951049805,12.934663772583008,-0.7357074022293091,2.6643755435943604,0.0,0.0,0.2456667125225067,5510.2822265625,-24641.748046875,-376,0.0,0.0,0.0,-1.694091796875,0.3857629597187042,-30.601221084594727,4563.22021484375,-16868.580078125
90545.601,151.974365234375,18.433895111083984,6.204666614532471,-0.04203522950410843,0.01282914076000452,1.0642778873443604,47438.0,0.46168532967567444,0.2631450593471527,-30.198102951049805,13.378959655761719,-4.3906073570251465,-1.9934042692184448,0.0,0.0,0.2464214712381363,6123.8388671875,-27819.19140625,-983,0.0,0.0,0.0,-1.7681413888931274,0.9949129223823547,-30.575483322143555,4026.740478515625,-16657.359375
90547.562,153.531982421875,20.022430419921875,6.258638381958008,-0.04074062034487724,0.010462559759616852,1.059998869895935,47438.0,0.46168532967567444,0.2631450593471527,-30.198102951049805,13.378959655761719,-4.3906073570251465,2.511458396911621,0.0,0.0,0.24717622995376587,6201.60986328125,-24856.6015625,-449,0.0,0.0,0.0,-1.7681413888931274,0.9949129223823547,-30.575483322143555,5689.640625,-16259.7998046875
90549.574,154.4071502685547,21.59973907470703,6.172672271728516,-0.035460736602544785,0.006266000214964151,1.0552951097488403,47438.0,0.46168532967567444,0.2631450593471527,-30.198102951049805,13.893394470214844,-8.095122337341309,-2.3082873821258545,0.0,0.0,0.24787773191928864,6892.77783203125,-27810.1015625,-1017,0.0,0.0,0.0,-1.853880524635315,1.6123321056365967,-30.548851013183594,4026.740478515625,-16657.359375
90551.556,154.95726013183594,22.660274505615234,6.348987579345703,-0.02966303937137127,0.004050738178193569,1.0480834245681763,47438.0,0.46168532967567444,0.2631450593471527,-30.198102951049805,13.893394470214844,-8.095122337341309,2.353067636489868,0.0,0.0,0.2485792338848114,6278.45166015625,-24870.439453125,-479,0.0,-0.0,0.0,-1.853880524635315,1.6123321056365967,-30.548851013183594,5494.16064453125,-17267.359375
90553.494,155.1978759765625,23.62575912475586,6.484128475189209,-0.02421468496322632,0.0035826910752803087,1.0395902395248413,47438.0,0.46168532967567444,0.2631450593471527,-30.198102951049805,14.447847366333008,-11.81208324432373,-2.9003453254699707,0.0,0.0,0.24922268092632294,6850.99560546875,-28019.6796875,-1126,0.0,-0.0,0.0,-1.9462890625,2.231825590133667,-30.51982307434082,5818.0810546875,-19479.458984375
90555.456,155.61119079589844,24.751506805419922,6.520561218261719,-0.018451903015375137,0.00394169008359313,1.0289368629455566,47438.0,0.46168532967567444,0.2631450593471527,-30.198102951049805,14.447847366333008,-11.81208324432373,2.1801867485046387,0.0,0.0,0.24986612796783447,6724.2138671875,-25423.478515625,-520,0.0,-0.0,0.0,-1.9462890625,2.231825590133667,-30.51982307434082,2894.699462890625,-20293.48046875
90557.449,155.90609741210938,26.153650283813477,6.667657852172852,-0.01293573621660471,0.00430508004501462,1.0223039388656616,47438.0,0.46168532967567444,0.2631450593471527,-30.198102951049805,15.053927421569824,-15.54129409790039,-3.4637436866760254,0.0,0.0,0.25044718384742737,7687.30224609375,-28735.189453125,-1215,0.0,-0.0,0.0,-2.047302484512329,2.853360652923584,-30.488637924194336,6635.201171875,-19071.21875
90559.432,155.48057556152344,27.64979362487793,7.008652210235596,-0.011488070711493492,0.004613975994288921,1.0177313089370728,47438.0,0.46168532967567444,0.2631450593471527,-30.198102951049805,15.053927421569824,-15.54129409790039,1.9942381381988525,0.0,0.0,0.25102823972702026,7527.66552734375,-25334.138671875,-601,0.0,-0.0,0.0,-2.047302484512329,2.853360652923584,-30.488637924194336,5675.02001953125,-19390.919921875
90561.435,154.587158203125,28.771671295166016,7.105258464813232,-0.012077941559255123,0.005650440696626902,1.0162556171417236,47438.0,0.46168532967567444,0.2631450593471527,-30.198102951049805,15.718526840209961,-19.234756469726562,-4.266343116760254,0.0,0.0,0.2515401244163513,8013.38623046875,-28173.32421875,-1364,0.0,-0.0,0.0,-2.158069133758545,3.468937873840332,-30.45404624938965,5818.0810546875,-19479.458984375
90563.359,153.7743377685547,30.302814483642578,7.0508646965026855,-0.014955196529626846,0.006787403952330351,1.016526222229004,47438.0,0.46168532967567444,0.2631450593471527,-30.198102951049805,15.718526840209961,-19.234756469726562,1.7877118587493896,0.0,0.0,0.2520520091056824,8051.55810546875,-25341.748046875,-631,0.0,-0.0,0.0,-2.158069133758545,3.468937873840332,-30.45404624938965,5675.02001953125,-19390.919921875
90565.335,152.3455810546875,32.3393669128418,7.282602787017822,-0.020587066188454628,0.008285150863230228,1.0183155536651611,47438.0,0.46168532967567444,0.2631450593471527,-30.198102951049805,16.469226837158203,-22.87104606628418,-4.983194351196289,0.0,0.0,0.2524890601634979,9411.7294921875,-27938.14453125,-1471,0.0,-0.0,0.0,-2.2831857204437256,4.074985980987549,-30.416635513305664,5818.0810546875,-19479.458984375
90567.299,150.22720336914062,33.717132568359375,7.401472568511963,-0.02188972197473049,0.010740949772298336,1.0191611051559448,47438.0,0.46168532967567444,0.2631450593471527,-30.198102951049805,16.469226837158203,-22.87104606628418,1.5641214847564697,0.0,0.0,0.2529261112213135,8561.2783203125,-24375.955078125,-700,0.0,-0.0,0.0,-2.2831857204437256,4.074985980987549,-30.416635513305664,5675.02001953125,-19390.919921875
90569.312,148.28016662597656,34.330421447753906,7.004140377044678,-0.020056812092661858,0.012242799624800682,1.0196226835250854,47438.0,0.46168532967567444,0.2631450593471527,-30.198102951049805,17.26405143737793,-26.406795501708984,-5.349786281585693,0.0,0.0,0.25328677892684937,8795.2578125,-27394.580078125,-1482,0.0,-0.0,0.0,-2.415656566619873,4.66427755355835,-30.378435134887695,7328.92041015625,-19097.138671875
90571.302,146.25198364257812,34.49208068847656,6.602097034454346,-0.015998026356101036,0.012456810101866722,1.0188491344451904,47438.0,0.46168532967567444,0.2631450593471527,-30.198102951049805,17.26405143737793,-26.406795501708984,1.335640549659729,0.0,0.0,0.25364744663238525,7884.66455078125,-24377.681640625,-631,0.0,-0.0,0.0,-2.415656566619873,4.66427755355835,-30.378435134887695,8137.7197265625,-18759.71875
90573.235,143.46229553222656,35.24275207519531,6.538477897644043,-0.011629047803580761,0.012101538479328156,1.0156768560409546,47438.0,0.46168532967567444,0.2631450593471527,-30.198102951049805,18.073497772216797,-29.821739196777344,-5.5369157791137695,0.0,0.0,0.2539321780204773,9167.5244140625,-26461.537109375,-1449,0.0,-0.0,0.0,-2.5505640506744385,5.233434677124023,-30.340463638305664,4972.97998046875,-19435.8203125
90575.211,140.0234375,36.67435836791992,6.636160373687744,-0.007628550287336111,0.011461717076599598,1.0123759508132935,47438.0,0.46168532967567444,0.2631450593471527,-30.198102951049805,18.073497772216797,-29.821739196777344,1.1083810329437256,0.0,0.0,0.25421690940856934,9285.8828125,-22897.64453125,-663,0.0,-0.0,0.0,-2.5505640506744385,5.233434677124023,-30.340463638305664,8137.7197265625,-18759.71875
90577.194,136.3732452392578,37.813045501708984,6.68480920791626,-0.0039022653363645077,0.010278415866196156,1.0082095861434937,47438.0,0.46168532967567444,0.2631450593471527,-30.198102951049805,18.936180114746094,-33.06153869628906,-6.27933931350708,0.0,0.0,0.2544199824333191,10013.4111328125,-25107.416015625,-1555,0.0,-0.0,0.0,-2.6943445205688477,5.773401260375977,-30.299646377563477,8137.7197265625,-18759.71875
90579.186,132.41293334960938,38.32309341430664,6.7033257484436035,-0.002152967033907771,0.00844170618802309,1.006542444229126,47438.0,0.46168532967567444,0.2631450593471527,-30.198102951049805,18.936180114746094,-33.06153869628906,0.8638836145401001,0.0,0.0,0.25462305545806885,8971.4267578125,-21850.935546875,-700,0.0,-0.0,0.0,-2.6943445205688477,5.773401260375977,-30.299646377563477,8137.7197265625,-18759.71875
90581.173,127.9458236694336,38.6328239440918,6.796402454376221,-0.0038711181841790676,0.002513024490326643,1.0026384592056274,47438.0,0.46168532967567444,0.2631450593471527,-30.198102951049805,19.81447982788086,-36.09101867675781,-6.894699573516846,0.0,0.0,0.2547404170036316,9658.1181640625,-23527.296875,-1642,0.0,-0.0,0.0,-2.8407278060913086,6.278314590454102,-30.25678062438965,8137.7197265625,-18759.71875
90583.108,123.16654205322266,39.15961837768555,6.734481334686279,-0.005844312720000744,-0.00581655977293849,0.9964219927787781,47438.0,0.46168532967567444,0.2631450593471527,-30.198102951049805,19.81447982788086,-36.09101867675781,0.6069238185882568,0.0,0.0,0.25485777854919434,9241.2099609375,-20304.185546875,-735,0.0,-0.0,0.0,-2.8407278060913086,6.278314590454102,-30.25678062438965,8137.7197265625,-18759.71875
90585.1,118.23951721191406,39.51197052001953,6.583103656768799,-0.0056673637591302395,-0.008690106682479382,0.9939676523208618,47438.0,0.46168532967567444,0.2631450593471527,-30.198102951049805,20.71169662475586,-38.877567291259766,-7.282243251800537,0.0,0.0,0.25488796830177307,9970.7265625,-21962.197265625,-1663,0.0,-0.0,0.0,-2.9902639389038086,6.742739677429199,-30.213193893432617,8137.7197265625,-18759.71875
90587.058,112.6637954711914,39.463863372802734,6.647494792938232,-0.004674496594816446,-0.007993477396667004,0.9896209836006165,47438.0,0.46168532967567444,0.2631450593471527,-30.198102951049805,20.71169662475586,-38.877567291259766,0.3454638123512268,0.0,0.0,0.2549181580543518,8990.25390625,-18549.419921875,-756,0.0,-0.0,0.0,-2.9902639389038086,6.742739677429199,-30.213193893432617,8137.7197265625,-18759.71875
90589.081,105.78030395507812,38.94440841674805,7.021732807159424,-0.0021141658071428537,-0.005537621211260557,0.9867643117904663,48091.0,0.46168532967567444,0.2631450593471527,-30.198102951049805,21.58879280090332,-41.363922119140625,-8.016070365905762,0.0,0.0,0.2548559606075287,9348.212890625,-18773.779296875,-1804,0.0,-0.0,0.0,-3.136446714401245,7.157131671905518,-30.1669979095459,8137.7197265625,-18759.71875
90591.033,98.61578369140625,38.093055725097656,7.190334796905518,3.591445420170203e-05,-0.0023504227865487337,0.9870188236236572,48091.0,0.46168532967567444,0.2631450593471527,-30.198102951049805,21.58879280090332,-41.363922119140625,0.06816351413726807,0.0,0.0,0.25479376316070557,8313.759765625,-15623.564453125,-854,0.0,-0.0,0.0,-3.136446714401245,7.157131671905518,-30.1669979095459,8137.7197265625,-18759.71875
90593.01,92.42535400390625,37.36083984375,6.922290802001953,-0.00022129123681224883,-0.0003719292872119695,0.9896478652954102,48091.0,0.46168532967567444,0.2631450593471527,-30.198102951049805,22.424291610717773,-43.52928161621094,-8.253761291503906,0.0,0.0,0.254639595746994,9045.234375,-17374.392578125,-1821,0.0,-0.0,0.0,-3.2756965160369873,7.5180253982543945,-30.121021270751953,8137.7197265625,-18759.71875
90594.965,86.60403442382812,37.03241729736328,6.613966941833496,-0.00161899218801409,0.00034438606235198677,0.9957065582275391,48091.0,0.46168532967567444,0.2631450593471527,-30.198102951049805,22.424291610717773,-43.52928161621094,-0.2080046534538269,0.0,0.0,0.25448542833328247,8672.189453125,-15154.0087890625,-818,0.0,-0.0,0.0,-3.2756965160369873,7.5180253982543945,-30.121021270751953,8137.7197265625,-18759.71875
90596.957,79.95401000976562,36.83991622924805,6.62952184677124,-0.003618660382926464,0.0009467832860536873,1.001307725906372,48091.0,0.46168532967567444,0.2631450593471527,-30.198102951049805,23.247272491455078,-45.393104553222656,-8.414712905883789,0.0,0.0,0.25424057245254517,9485.9365234375,-15212.416015625,-1805,0.0,-0.0,0.0,-3.4128599166870117,7.828662395477295,-30.075681686401367,8137.7197265625,-18759.71875
90598.951,72.95684051513672,36.29574966430664,6.725326061248779,-0.005499155260622501,0.0008277086308225989,1.0046101808547974,48091.0,0.46168532967567444,0.2631450593471527,-30.198102951049805,23.247272491455078,-45.393104553222656,-0.48053187131881714,0.0,0.0,0.25399571657180786,8523.328125,-12504.615234375,-864,0.0,-0.0,0.0,-3.4128599166870117,7.828662395477295,-30.075681686401367,8333.2001953125,-17752.158203125
90600.911,65.92058563232422,35.53541564941406,6.401216506958008,-0.00721261091530323,-0.0018643944058567286,1.0066275596618652,48091.0,0.46168532967567444,0.2631450593471527,-30.198102951049805,24.039405822753906,-46.915931701660156,-8.508500099182129,0.0,0.0,0.2536621689796448,8960.0732421875,-12790.408203125,-1789,0.0,-0.0,0.0,-3.54488205909729,8.082467079162598,-30.031330108642578,8152.33935546875,-15628.6005859375
90602.879,58.53500747680664,34.63817596435547,6.049684524536133,-0.007006632164120674,-0.003062437754124403,1.0068122148513794,48091.0,0.46168532967567444,0.2631450593471527,-30.198102951049805,24.039405822753906,-46.915931701660156,-0.7473084330558777,0.0,0.0,0.2533286213874817,8128.7080078125,-10278.4609375,-815,0.0,-0.0,0.0,-3.54488205909729,8.082467079162598,-30.031330108642578,8152.33935546875,-15628.6005859375
90604.859,50.74891662597656,33.713409423828125,5.897967338562012,-0.005532935727387667,-0.002124965889379382,1.0036600828170776,48091.0,0.46168532967567444,0.2631450593471527,-30.198102951049805,24.786935806274414,-48.07176208496094,-8.31344223022461,0.0,0.0,0.2529114782810211,8642.123046875,-9850.4033203125,-1705,0.0,-0.0,0.0,-3.6694705486297607,8.275105476379395,-29.989530563354492,8777.3994140625,-14139.900390625
90606.79,42.854225158691406,32.97016906738281,5.896219730377197,-0.007154379040002823,0.0011175086256116629,1.0026142597198486,48091.0,0.46168532967567444,0.2631450593471527,-30.198102951049805,24.786935806274414,-48.07176208496094,-0.9989399909973145,0.0,0.0,0.25249433517456055,8106.13525390625,-7717.88037109375,-827,0.0,-0.0,0.0,-3.6694705486297607,8.275105476379395,-29.989530563354492,8502.6796875,-11860.259765625
90608.796,34.961387634277344,32.16355514526367,6.042412281036377,-0.006581078749150038,0.003761824918910861,0.9982854127883911,50047.0,0.46168532967567444,-0.0693359375,-30.198102951049805,25.495967864990234,-50.84551239013672,-8.571717262268066,0.0,0.0,0.2519935071468353,8575.744140625,-9031.7197265625,-1753,0.0,-0.0,0.0,-3.78764271736145,8.404915809631348,-29.947694778442383,8502.6796875,-11860.259765625
90610.779,26.827545166015625,30.830671310424805,5.93643045425415,-0.0052857184782624245,0.004701606463640928,0.993250846862793,50047.0,0.46168532967567444,-0.0693359375,-30.198102951049805,25.495967864990234,-50.84551239013672,-1.2509562969207764,0.0,-0.0,0.2514926791191101,7449.3310546875,-5550.5771484375,-862,0.0,-0.0,0.0,-3.78764271736145,8.404915809631348,-29.947694778442383,6991.83935546875,-12242.5791015625
90612.719,18.53346824645996,29.243030548095703,5.562644004821777,-0.005938888527452946,0.00467640720307827,0.9904764294624329,50047.0,0.46168532967567444,-0.0693359375,-30.198102951049805,26.135719299316406,-51.22850036621094,-8.202051162719727,0.0,-0.0,0.2509150505065918,7595.89697265625,-4530.98095703125,-1651,0.0,-0.0,0.0,-3.8942677974700928,8.46874713897705,-29.90929412841797,8502.6796875,-11860.259765625
90614.674,10.629575729370117,27.611631393432617,5.104409217834473,-0.012215210124850273,0.0006998832104727626,0.9879958629608154,50047.0,0.46168532967567444,-0.0693359375,-30.198102951049805,26.135719299316406,-51.22850036621094,-1.482515573501587,0.0,-0.0,0.2503374218940735,6838.55517578125,-3350.79296875,-790,0.0,-0.0,0.0,-3.8942677974700928,8.46874713897705,-29.90929412841797,8526.259765625,-11310.7001953125
90616.661,2.9487063884735107,26.214330673217773,4.6847028732299805,-0.021793272346258163,-0.00553493807092309,0.9885876178741455,50047.0,0.46168532967567444,-0.0693359375,-30.198102951049805,26.71453857421875,-51.22953414916992,-7.474282741546631,0.0,-0.0,0.2496936023235321,7325.4697265625,-2366.859375,-1459,0.0,-0.0,0.0,-3.9907376766204834,8.46891975402832,-29.87619400024414,7451.29931640625,-11689.458984375
90618.653,-5.21522855758667,25.02616310119629,4.284878730773926,-0.0300118550658226,-0.011929040774703026,0.9918280243873596,50916.0,0.46168532967567444,-0.0693359375,-30.198102951049805,26.71453857421875,-51.22953414916992,-1.6824039220809937,0.0,-0.0,0.24904978275299072,6869.9765625,-779.19384765625,-716,0.0,-0.0,0.0,-3.9907376766204834,8.46891975402832,-29.87619400024414,10334.2998046875,-8027.66015625
90620.675,-13.349929809570312,23.70885467529297,3.9077703952789307,-0.036682065576314926,-0.016797829419374466,0.9949591159820557,50916.0,0.46168532967567444,-0.0693359375,-30.198102951049805,27.24411964416504,-50.83172607421875,-6.823925495147705,0.0,-0.0,0.2483491599559784,7052.150390625,777.1123046875,-1287,0.0,-0.0,0.0,-4.079001426696777,8.402618408203125,-29.84779167175293,8823.4599609375,-8409.9794921875
90622.578,-21.498872756958008,22.305408477783203,3.8630359172821045,-0.040298111736774445,-0.010869232937693596,0.9987820982933044,50916.0,0.46168532967567444,-0.0693359375,-30.198102951049805,27.24411964416504,-50.83172607421875,-1.8542191982269287,0.0,-0.0,0.24764853715896606,6379.84814453125,1711.77880859375,-686,0.0,-0.0,0.0,-4.079001426696777,8.402618408203125,-29.84779167175293,9133.580078125,-7838.28076171875
90624.557,-29.723039627075195,20.425704956054688,3.7433691024780273,-0.041115544736385345,-0.001143832691013813,0.9984937906265259,50916.0,0.46168532967567444,-0.0693359375,-30.198102951049805,27.698278427124023,-50.049171447753906,-6.51902961730957,0.0,-0.0,0.24689637124538422,6149.439453125,3706.120849609375,-1231,0.0,-0.0,0.0,-4.154694557189941,8.27219295501709,-29.822023391723633,7943.69921875,-4682.85986328125
90626.528,-37.9317626953125,18.67851448059082,3.2703006267547607,-0.04054025560617447,0.0067544239573180676,0.9989052414894104,50916.0,0.46168532967567444,-0.0693359375,-30.198102951049805,27.698278427124023,-50.049171447753906,-2.0103330612182617,0.0,-0.0,0.24614420533180237,5646.125,4338.9306640625,-633,0.0,-0.0,0.0,-4.154694557189941,8.27219295501709,-29.822023391723633,8252.2197265625,-4057.699462890625
90628.543,-45.89018630981445,16.721511840820312,2.927950143814087,-0.038284093141555786,0.010811815969645977,0.9979932308197021,50916.0,0.46168532967567444,-0.5136076211929321,-30.198102951049805,28.065628051757812,-51.54967498779297,-5.681957244873047,0.0,-0.0,0.24535147845745087,5525.8310546875,3994.5166015625,-1033,0.0,-0.0,0.0,-4.215919494628906,8.078004837036133,-29.801742553710938,8145.78076171875,-3575.999755859375
90630.541,-53.214481353759766,14.375386238098145,2.6705853939056396,-0.0349913015961647,0.010819538496434689,0.9932348132133484,50916.0,0.46168532967567444,-0.5136076211929321,-30.198102951049805,28.065628051757812,-51.54967498779297,-2.133603572845459,0.0,-0.0,0.24455875158309937,4606.55712890625,5742.9423828125,-576,0.0,-0.0,0.0,-4.215919494628906,8.078004837036133,-29.801742553710938,7693.04052734375,-3011.919921875
90632.451,-60.43326950073242,12.36590576171875,2.084749698638916,-0.0323881059885025,0.006812351290136576,0.9875305891036987,50916.0,0.46168532967567444,-0.5136076211929321,-30.198102951049805,28.329483032226562,-50.03263854980469,-4.7122578620910645,0.0,-0.0,0.24373754858970642,4795.08984375,8111.962890625,-815,0.0,-0.0,0.0,-4.259895324707031,7.825165271759033,-29.787500381469727,8234.1005859375,-1820.8797607421875
90634.415,-68.03668212890625,10.326193809509277,1.4206595420837402,-0.03126652166247368,-0.00043291019392199814,0.98265141248703,50916.0,0.46168532967567444,-0.5136076211929321,-30.198102951049805,28.329483032226562,-50.03263854980469,-2.2206990718841553,0.0,-0.0,0.24291634559631348,4268.568359375,8403.166015625,-436,0.0,-0.0,0.0,-4.259895324707031,7.825165271759033,-29.787500381469727,5447.42041015625,101.46070098876953
90636.403,-75.65177917480469,7.608405113220215,1.007698655128479,-0.02994905225932598,-0.006984665524214506,0.9802337884902954,50916.0,0.46168532967567444,-0.5136076211929321,-30.198102951049805,28.48286247253418,-48.14205551147461,-3.508552312850952,0.0,-0.0,0.2420809119939804,3490.381591796875,11255.71875,-541,0.0,-0.0,0.0,-4.285458564758301,7.510068416595459,-29.7803897857666,8673.8017578125,2365.119873046875
90638.393,-83.26116180419922,4.712998390197754,0.7314382195472717,-0.029491201043128967,-0.012029367499053478,0.980603039264679,50916.0,0.46168532967567444,-0.5136076211929321,-30.198102951049805,28.48286247253418,-48.14205551147461,-2.265033483505249,0.0,-0.0,0.24124547839164734,2807.82568359375,10974.90234375,-359,0.0,-0.0,0.0,-4.285458564758301,7.510068416595459,-29.7803897857666,5187.44091796875,2289.059814453125
90640.395,-90.64970397949219,1.9881341457366943,0.4181844890117645,-0.02779332734644413,-0.013830875046551228,0.9840074181556702,50916.0,0.46168532967567444,-0.8451249003410339,-30.198102951049805,28.503501892089844,-47.87744140625,-2.572436571121216,0.0,-0.0,0.24040666222572327,2545.57666015625,12155.7060546875,-358,0.0,-0.0,0.0,-4.288898468017578,7.134448528289795,-29.778696060180664,6092.32080078125,3627.26025390625
90642.321,-97.6236801147461,-0.8850476145744324,0.051136814057826996,-0.02411770448088646,-0.012828098610043526,0.988273024559021,50916.0,0.46168532967567444,-0.8451249003410339,-30.198102951049805,28.503501892089844,-47.87744140625,-2.2768735885620117,0.0,-0.0,0.2395678460597992,1987.88134765625,12692.41796875,-279,0.0,-0.0,0.0,-4.288898468017578,7.134448528289795,-29.778696060180664,5339.20068359375,8189.92041015625
90644.302,-104.17096710205078,-4.412038803100586,-0.484202116727829,-0.018940428271889687,-0.009177671745419502,0.991595983505249,50916.0,0.46168532967567444,-0.8451249003410339,-30.198102951049805,28.369834899902344,-45.30233383178711,-1.381485104560852,0.0,-0.0,0.23873893916606903,848.17626953125,15672.0908203125,-107,0.0,-0.0,0.0,-4.266620635986328,6.705264091491699,-29.783647537231445,4409.8203125,8136.6806640625
90646.259,-110.47798919677734,-8.3310546875,-1.2978476285934448,-0.014549585990607738,-0.0035754500422626734,0.9964091181755066,50916.0,0.46168532967567444,-0.8451249003410339,-30.198102951049805,28.369834899902344,-45.30233383178711,-2.2488224506378174,0.0,-0.0,0.23791003227233887,66.555419921875,14506.6171875,-114,0.0,-0.0,0.0,-4.266620635986328,6.705264091491699,-29.783647537231445,3047.659912109375,9215.1806640625
90648.272,-116.42134094238281,-11.255414962768555,-2.0302326679229736,-0.016399819403886795,0.0008421766688115895,1.005228042602539,50916.0,0.46168532967567444,-0.8451249003410339,-30.198102951049805,28.07610511779785,-42.43871307373047,0.27573448419570923,0.0,-0.0,0.2371090203523636,109.5361328125,17702.62109375,276,0.0,-0.0,0.0,-4.217665672302246,6.227994441986084,-29.79759979248047,2556.85986328125,9515.4404296875
90650.249,-121.9383773803711,-13.517621994018555,-2.336477756500244,-0.021014001220464706,0.004126299172639847,1.0166099071502686,50916.0,0.46168532967567444,-0.8451249003410339,-30.198102951049805,28.07610511779785,-42.43871307373047,-2.16671085357666,0.0,-0.0,0.2363080084323883,487.1171875,16062.7265625,20,0.0,-0.0,0.0,-4.217665672302246,6.227994441986084,-29.79759979248047,391.4600524902344,9910.1005859375
90652.198,-127.53730773925781,-15.940619468688965,-2.4418561458587646,-0.02584686689078808,0.006105943117290735,1.024848222732544,50916.0,0.46168532967567444,-0.8451249003410339,-30.198102951049805,27.676483154296875,-39.314292907714844,0.9206054210662842,0.0,-0.0,0.23554112017154694,-356.5850830078125,19775.96484375,403,0.0,-0.0,0.0,-4.15106201171875,5.707257270812988,-29.814661026000977,-513.9797973632812,12381.8798828125
90654.158,-133.1312255859375,-19.14888572692871,-2.7368886470794678,-0.031109103932976723,0.007354238070547581,1.033413052558899,50916.0,0.46168532967567444,-0.8451249003410339,-30.198102951049805,27.676483154296875,-39.314292907714844,-2.0658774375915527,0.0,-0.0,0.23477423191070557,-1127.06005859375,18267.978515625,80,0.0,-0.0,0.0,-4.15106201171875,5.707257270812988,-29.814661026000977,528.8201293945312,13210.359375
90656.141,-137.755859375,-23.58003044128418,-3.0642478466033936,-0.03432925045490265,0.009566394612193108,1.0384618043899536,50916.0,0.46168532967567444,-0.8451249003410339,-30.198102951049805,27.100296020507812,-35.94944381713867,1.8710933923721313,0.0,-0.0,0.23405085504055023,-3227.458740234375,21263.0703125,592,0.0,-0.0,0.0,-4.055030822753906,5.146449089050293,-29.836416244506836,-197.89993286132812,14478.279296875
90658.129,-141.38636779785156,-28.286758422851562,-3.3306541442871094,-0.03497321903705597,0.011769454926252365,1.037398338317871,50916.0,0.46168532967567444,-0.8451249003410339,-30.198102951049805,27.100296020507812,-35.94944381713867,-1.9367927312850952,0.0,-0.0,0.2333274781703949,-3708.01513671875,18538.419921875,167,0.0,-0.0,0.0,-4.055030822753906,5.146449089050293,-29.836416244506836,-510.0,13595.3994140625
90660.143,-144.9985809326172,-31.937942504882812,-3.6237692832946777,-0.03534562513232231,0.013240436092019081,1.0372947454452515,50916.0,0.46168532967567444,-1.1785695552825928,-30.198102951049805,26.326229095458984,-34.4172477722168,2.7321174144744873,0.0,-0.0,0.23265570402145386,-4160.6953125,20445.505859375,762,0.0,-0.0,0.0,-3.9260196685791016,4.557638645172119,-29.862215042114258,563.4801635742188,17146.279296875
90662.06,-149.1576690673828,-34.84053039550781,-3.891552686691284,-0.035516686737537384,0.01461158599704504,1.0363775491714478,50916.0,0.46168532967567444,-1.1785695552825928,-30.198102951049805,26.326229095458984,-34.4172477722168,-1.7833435535430908,0.0,-0.0,0.23198392987251282,-3454.0859375,20330.37890625,252,0.0,-0.0,0.0,-3.9260196685791016,4.557638645172119,-29.862215042114258,251.3802032470703,16263.3994140625
90664.031,-153.593017578125,-37.058692932128906,-4.067065238952637,-0.034717950969934464,0.016480937600135803,1.0351762771606445,50916.0,0.46168532967567444,-1.1785695552825928,-30.198102951049805,25.430164337158203,-30.685070037841797,3.219114065170288,0.0,-0.0,0.23136743903160095,-4079.94970703125,24561.8359375,874,0.0,-0.0,0.0,-3.7766757011413574,3.9356086254119873,-29.889856338500977,-2687.979736328125,16422.318359375
90665.998,-157.151611328125,-38.57240295410156,-4.226582050323486,-0.03271183371543884,0.01785920187830925,1.0333057641983032,50916.0,0.46168532967567444,-1.1785695552825928,-30.198102951049805,25.430164337158203,-30.685070037841797,-1.618728756904602,0.0,-0.0,0.2307509481906891,-3106.6181640625,21638.92578125,312,0.0,-0.0,0.0,-3.7766757011413574,3.9356086254119873,-29.889856338500977,-2805.939697265625,16994.3984375
90668.012,-159.23660278320312,-40.48711395263672,-4.4826178550720215,-0.032605431973934174,0.01611451245844364,1.0318719148635864,50916.0,0.46168532967567444,-1.1785695552825928,-30.198102951049805,24.451496124267578,-26.823331832885742,3.5332705974578857,0.0,-0.0,0.2301913946866989,-4575.376953125,24322.0390625,961,0.0,-0.0,0.0,-3.6135640144348145,3.2919857501983643,-29.918323516845703,-2112.2197265625,16968.478515625
90669.997,-160.63339233398438,-43.00257873535156,-4.728439807891846,-0.03228164091706276,0.013717569410800934,1.0329840183258057,50916.0,0.46168532967567444,-1.1785695552825928,-30.198102951049805,24.451496124267578,-26.823331832885742,-1.4490447044372559,0.0,-0.0,0.22963184118270874,-4669.2607421875,21119.099609375,393,0.0,-0.0,0.0,-3.6135640144348145,3.2919857501983643,-29.918323516845703,-2805.939697265625,16994.3984375
90671.926,-162.1142120361328,-45.239070892333984,-4.862648963928223,-0.03174435347318649,0.009239306673407555,1.0343313217163086,50916.0,0.46168532967567444,-1.1785695552825928,-30.198102951049805,23.359006881713867,-22.895299911499023,3.819010019302368,0.0,-0.0,0.22913049161434174,-5778.7451171875,24939.482421875,1041,0.0,-0.0,0.0,-3.4314823150634766,2.6373138427734375,-29.947431564331055,-2112.2197265625,16968.478515625
90673.896,-163.14764404296875,-47.03134536743164,-4.838783264160156,-0.03195660933852196,0.003278553020209074,1.0359693765640259,50916.0,0.46168532967567444,-1.1785695552825928,-30.198102951049805,23.359006881713867,-22.895299911499023,-1.2753992080688477,0.0,-0.0,0.22862914204597473,-4895.056640625,21812.92578125,427,0.0,-0.0,0.0,-3.4314823150634766,2.6373138427734375,-29.947431564331055,-2805.939697265625,16994.3984375
90675.879,-163.5823211669922,-49.202945709228516,-4.801368236541748,-0.030566232278943062,0.0018885250901803374,1.0371989011764526,50916.0,0.46168532967567444,-1.1785695552825928,-30.198102951049805,22.170883178710938,-18.93558120727539,3.6809675693511963,0.0,-0.0,0.2281825691461563,-6574.6025390625,24992.806640625,1017,0.0,-0.0,0.0,-3.233461856842041,1.9773603677749634,-29.974817276000977,-2805.939697265625,16994.3984375
90677.868,-163.23480224609375,-51.78411865234375,-4.835690498352051,-0.0298053789883852,0.0017604553140699863,1.03704833984375,50916.0,0.46168532967567444,-1.1785695552825928,-30.198102951049805,22.170883178710938,-18.93558120727539,-1.1119780540466309,0.0,-0.0,0.2277359962463379,-6377.865234375,21384.244140625,446,0.0,-0.0,0.0,-3.233461856842041,1.9773603677749634,-29.974817276000977,-2255.459716796875,17242.515625
90679.87,-162.38812255859375,-53.80332946777344,-4.886990547180176,-0.029627200216054916,-0.0002659936435520649,1.0381916761398315,50916.0,0.46168532967567444,-1.5120142698287964,-30.198102951049805,20.872426986694336,-17.01141357421875,3.583101511001587,0.0,-0.0,0.22734130918979645,-7427.8837890625,22614.619140625,1016,0.0,-0.0,0.0,-3.017052412033081,1.3232214450836182,-30.00075912475586,-2255.459716796875,17242.515625
90681.791,-161.58253479003906,-55.265560150146484,-4.83529806137085,-0.031009912490844727,-0.003211237723007798,1.04305100440979,50916.0,0.46168532967567444,-1.5120142698287964,-30.198102951049805,20.872426986694336,-17.01141357421875,-0.9571163654327393,0.0,-0.0,0.226946622133255,-6255.64599609375,21081.4765625,465,0.0,-0.0,0.0,-3.017052412033081,1.3232214450836182,-30.00075912475586,-4569.99951171875,17426.4765625
90683.778,-160.2671356201172,-56.55998992919922,-4.710020065307617,-0.0331086665391922,-0.00015982519835233688,1.0496629476547241,50916.0,0.46168532967567444,-1.5120142698287964,-30.198102951049805,19.50999641418457,-13.145298957824707,3.190819263458252,0.0,-0.0,0.22659777104854584,-7550.14453125,23981.31640625,948,0.0,-0.0,0.0,-2.78998064994812,0.6788689494132996,-30.023677825927734,-4569.99951171875,17426.4765625
90685.734,-158.3739471435547,-57.81766891479492,-4.658976078033447,-0.03366595879197121,0.006910085678100586,1.0563610792160034,50916.0,0.46168532967567444,-1.5120142698287964,-30.198102951049805,19.50999641418457,-13.145298957824707,-0.8203018307685852,0.0,-0.0,0.22624891996383667,-6689.40673828125,20364.408203125,460,0.0,-0.0,0.0,-2.78998064994812,0.6788689494132996,-30.023677825927734,-4569.99951171875,17426.4765625
90687.749,-156.38662719726562,-58.653804779052734,-4.776159286499023,-0.0341423936188221,0.015588139183819294,1.0618864297866821,50916.0,0.46168532967567444,-1.5120142698287964,-30.198102951049805,18.09856414794922,-9.38775634765625,2.9089107513427734,0.0,-0.0,0.22594128549098969,-7768.96337890625,23377.494140625,922,0.0,-0.0,0.0,-2.5547420978546143,0.05261169746518135,-30.044282913208008,-4491.49951171875,18722.15625
90689.734,-153.76473999023438,-59.407413482666016,-4.893746376037598,-0.035526737570762634,0.021009713411331177,1.0692139863967896,50916.0,0.46168532967567444,-1.5120142698287964,-30.198102951049805,18.09856414794922,-9.38775634765625,-0.6972866058349609,0.0,-0.0,0.2256336510181427,-6761.5341796875,19690.130859375,503,0.0,-0.0,0.0,-2.5547420978546143,0.05261169746518135,-30.044282913208008,-3198.5,19690.521484375
90691.67,-150.68739318847656,-60.51292419433594,-4.794145107269287,-0.03525691106915474,0.023799648508429527,1.078562617301941,50916.0,0.46168532967567444,-1.5120142698287964,-30.198102951049805,16.643966674804688,-5.778170108795166,2.569354295730591,0.0,-0.0,0.22536210715770721,-8500.4248046875,22135.56640625,883,0.0,-0.0,0.0,-2.3123090267181396,-0.5489858984947205,-30.062332153320312,-4086.360107421875,18261.478515625
90693.638,-147.31333923339844,-61.48978042602539,-4.7161760330200195,-0.03401293605566025,0.02056044712662697,1.0862469673156738,50916.0,0.46168532967567444,-1.5120142698287964,-30.198102951049805,16.643966674804688,-5.778170108795166,-0.5895342230796814,0.0,-0.0,0.22509056329727173,-7459.51416015625,18699.734375,495,0.0,-0.0,0.0,-2.3123090267181396,-0.5489858984947205,-30.062332153320312,-3774.260009765625,19144.359375
90695.606,-143.46063232421875,-61.72989273071289,-4.715131759643555,-0.03219336271286011,0.016114842146635056,1.0912163257598877,50916.0,0.46168532967567444,-1.5120142698287964,-30.198102951049805,15.159842491149902,-2.344916582107544,2.1575655937194824,0.0,-0.0,0.2248493731021881,-8278.68359375,20852.7734375,824,0.0,-0.0,0.0,-2.064954996109009,-1.121194839477539,-30.077510833740234,-4086.360107421875,18261.478515625
90697.605,-139.1584930419922,-61.090904235839844,-4.641254901885986,-0.032262448221445084,0.011718076653778553,1.0948874950408936,50916.0,0.46168532967567444,-1.5120142698287964,-30.198102951049805,15.159842491149902,-2.344916582107544,-0.4989445209503174,0.0,-0.0,0.2246081829071045,-6410.41796875,17295.43359375,497,0.0,-0.0,0.0,-2.064954996109009,-1.121194839477539,-30.077510833740234,-3774.260009765625,19144.359375
90699.61,-134.6791229248047,-60.57634735107422,-4.6732988357543945,-0.031965091824531555,0.007942771539092064,1.0976415872573853,50916.0,0.46168532967567444,-1.5120142698287964,-30.198102951049805,13.704668045043945,0.8753349781036377,1.8045599460601807,0.0,-0.0,0.22439245879650116,-7736.21728515625,19388.82421875,777,0.0,-0.0,0.0,-1.8224258422851562,-1.6579034328460693,-30.090238571166992,-4086.360107421875,18261.478515625
90701.53,-130.13380432128906,-60.72016143798828,-4.88844633102417,-0.03117264062166214,0.007536407094448805,1.1000040769577026,50916.0,0.46168532967567444,-1.5120142698287964,-30.198102951049805,13.704668045043945,0.8753349781036377,-0.4230095446109772,0.0,-0.0,0.22417673468589783,-7160.1845703125,16242.3828125,535,0.0,-0.0,0.0,-1.8224258422851562,-1.6579034328460693,-30.090238571166992,-3774.260009765625,19144.359375
90703.507,-125.6585693359375,-60.8317985534668,-5.025424957275391,-0.028682570904493332,0.009478728286921978,1.1025478839874268,50916.0,0.46168532967567444,-1.5120142698287964,-30.198102951049805,12.243104934692383,3.8727471828460693,1.726891279220581,0.0,-0.0,0.2239847630262375,-8468.201171875,18321.326171875,810,0.0,-0.0,0.0,-1.5788321495056152,-2.1574721336364746,-30.10211753845215,-4497.22021484375,17895.27734375
90705.469,-121.02168273925781,-60.438819885253906,-4.934390068054199,-0.025360900908708572,0.012563392519950867,1.1039386987686157,50916.0,0.46168532967567444,-1.5120142698287964,-30.198102951049805,12.243104934692383,3.8727471828460693,-0.35211968421936035,0.0,-0.0,0.22379279136657715,-6934.62646484375,15256.5048828125,549,0.0,-0.0,0.0,-1.5788321495056152,-2.1574721336364746,-30.10211753845215,-4045.06005859375,18865.73828125
90707.485,-115.83671569824219,-59.305355072021484,-4.8622727394104,-0.021261729300022125,0.017854759469628334,1.1033408641815186,50916.0,0.46168532967567444,-1.5120142698287964,-30.198102951049805,10.816303253173828,6.624846458435059,1.3514177799224854,0.0,-0.0,0.22361963987350464,-7493.359375,16544.58203125,745,0.0,-0.0,0.0,-1.3410319089889526,-2.6161553859710693,-30.111530303955078,-5231.458984375,15850.0185546875
90709.478,-109.80284118652344,-57.730594635009766,-4.926889896392822,-0.020556287840008736,0.018634021282196045,1.1049455404281616,50916.0,0.46168532967567444,-1.5120142698287964,-30.198102951049805,10.816303253173828,6.624846458435059,-0.29598939418792725,0.0,-0.0,0.22344648838043213,-5856.0732421875,12938.7470703125,555,0.0,-0.0,0.0,-1.3410319089889526,-2.6161553859710693,-30.111530303955078,-4361.1396484375,16769.337890625
90711.398,-103.26641845703125,-56.095008850097656,-4.905097484588623,-0.022204048931598663,0.01650543138384819,1.1070080995559692,50916.0,0.46168532967567444,-1.5120142698287964,-30.198102951049805,9.468454360961914,9.071218490600586,1.230116605758667,0.0,-0.0,0.22329020500183105,-6778.18212890625,13783.109375,736,0.0,-0.0,0.0,-1.1163904666900635,-3.0238840579986572,-30.119962692260742,-4820.60009765625,16216.21875
90713.368,-96.84940338134766,-54.604164123535156,-4.788110733032227,-0.024165907874703407,0.012812440283596516,1.1117781400680542,50916.0,0.46168532967567444,-1.5120142698287964,-30.198102951049805,9.468454360961914,9.071218490600586,-0.24570763111114502,0.0,-0.0,0.22313392162322998,-5652.2236328125,11075.3330078125,545,0.0,-0.0,0.0,-1.1163904666900635,-3.0238840579986572,-30.119962692260742,-4820.60009765625,16216.21875
90715.343,-90.40364837646484,-53.373252868652344,-4.605602741241455,-0.026319410651922226,0.011399714276194572,1.115825891494751,50916.0,0.46168532967567444,-1.5120142698287964,-30.198102951049805,8.189760208129883,11.207143783569336,0.9037649035453796,0.0,-0.0,0.22299034893512726,-6813.36181640625,12009.2470703125,661,0.0,-0.0,0.0,-0.903274655342102,-3.3798716068267822,-30.126314163208008,-5692.46044921875,15395.837890625
90717.339,-83.81715393066406,-52.2241325378418,-4.285349369049072,-0.029348421841859818,0.010036713443696499,1.1175347566604614,50916.0,0.46168532967567444,-1.5120142698287964,-30.198102951049805,8.189760208129883,11.207143783569336,-0.2078859508037567,0.0,-0.0,0.22284677624702454,-5743.3125,9313.7734375,489,0.0,-0.0,0.0,-0.903274655342102,-3.3798716068267822,-30.126314163208008,-5692.46044921875,15395.837890625
90719.353,-76.39192962646484,-50.513179779052734,-4.055339336395264,-0.034080229699611664,0.009631997905671597,1.1183030605316162,50916.0,0.46168532967567444,-1.5120142698287964,-30.198102951049805,6.9857354164123535,13.003904342651367,0.4537838101387024,0.0,-0.0,0.2227105051279068,-6148.92041015625,9188.02734375,541,0.0,0.0,0.0,-0.7026038765907288,-3.6793317794799805,-30.12997055053711,-5709.47998046875,15486.677734375
90721.26,-68.90482330322266,-48.70180130004883,-3.8487558364868164,-0.03689922019839287,0.011742147617042065,1.116946816444397,50916.0,0.46168532967567444,-1.843531608581543,-30.198102951049805,6.9857354164123535,11.014801025390625,-0.1862201690673828,0.0,-0.0,0.22257423400878906,-4898.8759765625,4880.78515625,439,0.0,0.0,0.0,-0.7026038765907288,-3.6793317794799805,-30.12997055053711,-5816.3798828125,13943.599609375
90723.249,-61.94534683227539,-47.101951599121094,-3.546199321746826,-0.03967471048235893,0.01647692173719406,1.1149380207061768,50916.0,0.46168532967567444,-1.843531608581543,-30.198102951049805,5.868533134460449,12.458429336547852,0.10087814927101135,0.0,-0.0,0.22244113683700562,-5823.02734375,7023.681640625,437,0.0,0.0,0.0,-0.5164035558700562,-3.919936418533325,-30.13155746459961,-6144.60009765625,13493.5595703125
90725.205,-54.92630386352539,-45.21156692504883,-3.1188225746154785,-0.042730946093797684,0.021990053355693817,1.1125373840332031,50916.0,0.46168532967567444,-1.843531608581543,-30.198102951049805,5.868533134460449,12.458429336547852,-0.1769648790359497,0.0,-0.0,0.22230803966522217,-4483.66650390625,4843.42822265625,353,0.0,0.0,0.0,-0.5164035558700562,-3.919936418533325,-30.13155746459961,-5604.740234375,11860.37890625
90727.225,-47.062557220458984,-42.6212043762207,-2.869929790496826,-0.04571191966533661,0.026117930188775063,1.1118896007537842,50916.0,0.46168532967567444,-1.843531608581543,-30.198102951049805,4.864126682281494,13.537731170654297,-0.275834858417511,0.0,-0.0,0.22217385470867157,-4474.09423828125,4001.7080078125,311,0.0,0.0,0.0,-0.349002480506897,-4.099820137023926,-30.131011962890625,-7029.900390625,9373.3203125
90729.211,-38.22184753417969,-39.74228286743164,-2.836980104446411,-0.0471084900200367,0.0282900333404541,1.113090991973877,50916.0,0.46168532967567444,-1.843531608581543,-30.198102951049805,4.864126682281494,13.537731170654297,-0.18050625920295715,0.0,-0.0,0.22203966975212097,-3072.5322265625,1133.4052734375,318,0.0,0.0,0.0,-0.349002480506897,-4.099820137023926,-30.131011962890625,-7305.21923828125,6836.220703125
90731.136,-29.273588180541992,-37.14984893798828,-2.592175245285034,-0.04412449151277542,0.03082803636789322,1.1098134517669678,50916.0,0.46168532967567444,-1.843531608581543,-30.198102951049805,3.9915947914123535,14.186056137084961,-0.26729416847229004,0.0,-0.0,0.22190453112125397,-3683.811279296875,293.99658203125,278,0.0,0.0,0.0,-0.20358049869537354,-4.207874298095703,-30.13053321838379,-7721.779296875,6746.220703125
90733.099,-20.82843017578125,-34.40434265136719,-2.2890164852142334,-0.03930011764168739,0.0319848395884037,1.105766773223877,50916.0,0.46168532967567444,-1.843531608581543,-30.198102951049805,3.9915947914123535,14.186056137084961,-0.1836490035057068,0.0,-0.0,0.22176939249038696,-2502.783935546875,-1081.69287109375,252,0.0,0.0,0.0,-0.20358049869537354,-4.207874298095703,-30.13053321838379,-7328.798828125,6286.6611328125
90735.078,-12.694709777832031,-31.158702850341797,-2.2960264682769775,-0.03310611471533775,0.03363844007253647,1.1018069982528687,50916.0,0.46168532967567444,-1.843531608581543,-30.198102951049805,3.258607864379883,14.433963775634766,-0.1951768696308136,0.0,-0.0,0.2216341197490692,-2300.524169921875,-1845.059814453125,252,0.0,0.0,0.0,-0.08141597360372543,-4.249192237854004,-30.130470275878906,-7634.779296875,4267.98095703125
90737.075,-4.635742664337158,-27.937501907348633,-2.4650449752807617,-0.02848249115049839,0.034953098744153976,1.1026782989501953,50916.0,0.46168532967567444,-1.843531608581543,-30.198102951049805,3.258607864379883,14.433963775634766,-0.18429720401763916,0.0,-0.0,0.22149884700775146,-1285.93359375,-3183.769775390625,273,0.0,0.0,0.0,-0.08141597360372543,-4.249192237854004,-30.130470275878906,-5145.939453125,5165.98095703125
90739.087,3.752281904220581,-25.492551803588867,-2.4063892364501953,-0.02739527076482773,0.03319748863577843,1.101533055305481,50916.0,0.46168532967567444,-1.843531608581543,-30.198102951049805,2.658933401107788,14.286958694458008,0.18703922629356384,0.0,-0.0,0.22136768698692322,-2041.0859375,-4821.0703125,311,0.0,0.0,0.0,0.018529769033193588,-4.224691390991211,-30.132522583007812,-3245.0791015625,2614.54052734375
90740.998,12.716835975646973,-23.714284896850586,-2.3717715740203857,-0.02923695556819439,0.027918972074985504,1.1029103994369507,50916.0,0.46168532967567444,-1.843531608581543,-30.198102951049805,2.658933401107788,14.286958694458008,-0.17224568128585815,0.0,-0.0,0.22123652696609497,-1824.6025390625,-6487.896484375,263,0.0,0.0,0.0,0.018529769033193588,-4.224691390991211,-30.132522583007812,-2547.1201171875,1855.8602294921875
90742.989,21.633995056152344,-21.532346725463867,-2.6869802474975586,-0.03150913119316101,0.02649085409939289,1.1033365726470947,50916.0,0.46168532967567444,-1.843531608581543,-30.198102951049805,2.1562135219573975,13.714324951171875,0.6327086687088013,0.0,-0.0,0.22111426293849945,-1647.0062255859375,-8305.2939453125,398,0.0,0.0,0.0,0.10231640189886093,-4.1292524337768555,-30.13697052001953,-1875.060791015625,1361.739501953125
90744.954,30.129255294799805,-18.465665817260742,-2.9354681968688965,-0.033398088067770004,0.02711298316717148,1.1044610738754272,50916.0,0.46168532967567444,-1.843531608581543,-30.198102951049805,2.1562135219573975,13.714324951171875,-0.1458025872707367,0.0,-0.0,0.22099199891090393,-146.4072265625,-8833.6845703125,334,0.0,0.0,0.0,0.10231640189886093,-4.1292524337768555,-30.13697052001953,-1818.7001953125,1185.0594482421875
90746.96,38.13188934326172,-15.172088623046875,-2.9485762119293213,-0.03570947051048279,0.029320020228624344,1.1090376377105713,50916.0,0.46168532967567444,-1.843531608581543,-30.198102951049805,1.8076398372650146,12.74526596069336,1.209463357925415,0.0,-0.0,0.22088471055030823,204.085205078125,-10536.7626953125,498,0.0,0.0,0.0,0.1604120135307312,-3.967742681503296,-30.144458770751953,-2451.040771484375,-905.560302734375
90748.938,45.90571975708008,-12.013723373413086,-2.7767584323883057,-0.03969826176762581,0.030822884291410446,1.1134811639785767,50916.0,0.46168532967567444,-1.843531608581543,-30.198102951049805,1.8076398372650146,12.74526596069336,-0.10108765959739685,0.0,-0.0,0.22077742218971252,837.8612060546875,-10804.4404296875,321,0.0,0.0,0.0,0.1604120135307312,-3.967742681503296,-30.144458770751953,-1881.500732421875,-3886.120361328125
90750.883,53.441627502441406,-9.253968238830566,-2.40836501121521,-0.041308362036943436,0.030640477314591408,1.1149624586105347,50916.0,0.46168532967567444,-1.843531608581543,-30.198102951049805,1.6045095920562744,11.409722328186035,1.1913607120513916,0.0,-0.0,0.22068440914154053,770.0494384765625,-12958.375,431,0.0,0.0,0.0,0.19426707923412323,-3.745151996612549,-30.151599884033203,-3200.28076171875,-5348.900390625
90752.854,60.99628829956055,-6.552333831787109,-2.068002939224243,-0.039327457547187805,0.02772987261414528,1.1156036853790283,50916.0,0.46168532967567444,-1.843531608581543,-30.198102951049805,1.6045095920562744,11.409722328186035,-0.058427006006240845,0.0,-0.0,0.22059139609336853,1284.052001953125,-13103.98046875,241,0.0,0.0,0.0,0.19426707923412323,-3.745151996612549,-30.151599884033203,336.17987060546875,-6349.5
90754.838,68.42160034179688,-3.814943552017212,-1.8756728172302246,-0.03312797471880913,0.025041939690709114,1.1102360486984253,50916.0,0.46168532967567444,-1.843531608581543,-30.198102951049805,1.5286177396774292,9.719440460205078,1.126322627067566,0.0,-0.0,0.22051148116588593,1653.175048828125,-15642.0185546875,360,0.0,0.0,0.0,0.2069157063961029,-3.4634382724761963,-30.158145904541016,1467.1800537109375,-6087.93994140625
90756.832,75.59515380859375,-0.9019062519073486,-1.8028851747512817,-0.025701036676764488,0.023204026743769646,1.1070524454116821,50916.0,0.46168532967567444,-1.843531608581543,-30.198102951049805,1.5286177396774292,9.719440460205078,-0.019310712814331055,0.0,-0.0,0.22043156623840332,2278.78466796875,-15261.525390625,214,0.0,0.0,0.0,0.2069157063961029,-3.4634382724761963,-30.158145904541016,970.7199096679688,-10364.94140625
90758.816,82.4590072631836,2.1146981716156006,-1.6592594385147095,-0.018354052677750587,0.022246573120355606,1.1001728773117065,50916.0,0.46168532967567444,-1.843531608581543,-30.198102951049805,1.5878022909164429,7.696183204650879,1.2710936069488525,0.0,-0.0,0.22036591172218323,2862.216552734375,-17879.75390625,351,0.0,0.0,0.0,0.19705159962177277,-3.1262288093566895,-30.16527557373047,351.4999084472656,-10622.759765625
90760.758,88.80077362060547,5.127305030822754,-1.6295933723449707,-0.012813040986657143,0.022271228954195976,1.096725344657898,50916.0,0.46168532967567444,-1.843531608581543,-30.198102951049805,1.5878022909164429,7.696183204650879,0.02333599328994751,0.0,-0.0,0.22030025720596313,3266.72119140625,-16922.013671875,198,0.0,0.0,0.0,0.19705159962177277,-3.1262288093566895,-30.16527557373047,104.37980651855469,-12689.6591796875
90762.744,94.98857879638672,7.790812969207764,-1.6091084480285645,-0.010163893923163414,0.02368287555873394,1.092742919921875,50916.0,0.46168532967567444,-1.843531608581543,-30.198102951049805,1.778793454170227,5.374636173248291,1.4791218042373657,0.0,-0.0,0.2202506959438324,3576.3154296875,-19824.107421875,370,0.0,-0.0,0.0,0.1652197688817978,-2.739304304122925,-30.17331886291504,859.1200561523438,-10639.0
90764.71,100.91252899169922,10.305598258972168,-1.5485183000564575,-0.012248593382537365,0.0229346863925457,1.0903767347335815,50916.0,0.46168532967567444,-1.843531608581543,-30.198102951049805,1.778793454170227,5.374636173248291,0.07149660587310791,0.0,-0.0,0.22020113468170166,3698.7470703125,-18773.646484375,194,0.0,-0.0,0.0,0.1652197688817978,-2.739304304122925,-30.17331886291504,-668.4400024414062,-14873.419921875
90766.74,106.20953369140625,12.909524917602539,-1.6391077041625977,-0.01656220480799675,0.020637525245547295,1.0901042222976685,50916.0,0.46168532967567444,-1.843531608581543,-30.198102951049805,2.0953097343444824,2.7890052795410156,1.6705704927444458,0.0,-0.0,0.22016923129558563,4441.0576171875,-21425.05859375,397,0.0,-0.0,0.0,0.11246701329946518,-2.308365821838379,-30.182153701782227,1691.52001953125,-13562.0810546875
90768.675,111.31182861328125,15.42176342010498,-1.8491177558898926,-0.01897619292140007,0.021067090332508087,1.08835768699646,50916.0,0.46168532967567444,-1.843531608581543,-30.198102951049805,2.0953097343444824,2.7890052795410156,0.12444183230400085,0.0,-0.0,0.2201373279094696,4511.7392578125,-20105.14453125,236,0.0,-0.0,0.0,0.11246701329946518,-2.308365821838379,-30.182153701782227,868.0203857421875,-14869.958984375
90770.657,116.56444549560547,17.611440658569336,-1.8825409412384033,-0.020431000739336014,0.023265348747372627,1.0897384881973267,50916.0,0.46168532967567444,-1.843531608581543,-30.198102951049805,2.525843381881714,-0.042298078536987305,1.9479352235794067,0.0,-0.0,0.22012558579444885,4985.75048828125,-23553.94921875,459,0.0,-0.0,0.0,0.04071144759654999,-1.8364819288253784,-30.192228317260742,2378.860595703125,-14487.6396484375
90772.615,120.96134948730469,19.947885513305664,-1.46878981590271,-0.021471628919243813,0.02642405964434147,1.089035153388977,50916.0,0.46168532967567444,-1.843531608581543,-30.198102951049805,2.525843381881714,-0.042298078536987305,0.1848660409450531,0.0,-0.0,0.2201138436794281,5123.39306640625,-21448.224609375,198,0.0,-0.0,0.0,0.04071144759654999,-1.8364819288253784,-30.192228317260742,3502.700439453125,-15838.259765625
90774.56,124.39936828613281,22.484481811523438,-1.1202068328857422,-0.024027882143855095,0.02686956524848938,1.0887517929077148,50916.0,0.46168532967567444,-1.843531608581543,-30.198102951049805,3.0750112533569336,-3.058854818344116,1.445648431777954,0.0,-0.0,0.2201160192489624,6148.248046875,-23959.6640625,307,0.0,-0.0,0.0,-0.05081656947731972,-1.333722472190857,-30.199193954467773,3502.700439453125,-15838.259765625
90776.551,127.3008804321289,25.111398696899414,-1.0501700639724731,-0.02561909146606922,0.02651778794825077,1.091093897819519,50916.0,0.46168532967567444,-1.843531608581543,-30.198102951049805,3.0750112533569336,-3.058854818344116,0.2266642153263092,0.0,-0.0,0.2201181948184967,6198.1474609375,-21730.1015625,153,0.0,-0.0,0.0,-0.05081656947731972,-1.333722472190857,-30.199193954467773,3104.100341796875,-15885.6396484375
90778.561,129.7222900390625,27.49494743347168,-1.1061949729919434,-0.026737669482827187,0.02580069750547409,1.0938472747802734,50916.0,0.46168532967567444,-1.843531608581543,-30.198102951049805,3.744777202606201,-6.197692394256592,1.396664023399353,0.0,-0.0,0.22013330459594727,6975.94580078125,-24558.1796875,300,0.0,-0.0,0.0,-0.16244417428970337,-0.8105829358100891,-30.205657958984375,5256.93994140625,-16894.5
90780.478,131.71994018554688,29.304441452026367,-1.158488392829895,-0.027583835646510124,0.025499405339360237,1.0959357023239136,50916.0,0.46168532967567444,-1.843531608581543,-30.198102951049805,3.744777202606201,-6.197692394256592,0.2654784619808197,0.0,-0.0,0.22014841437339783,6314.501953125,-22185.8828125,170,0.0,-0.0,0.0,-0.16244417428970337,-0.8105829358100891,-30.205657958984375,5256.93994140625,-16894.5
90782.456,133.18284606933594,30.894804000854492,-1.1383512020111084,-0.02749647945165634,0.025333402678370476,1.0947198867797852,50916.0,0.46168532967567444,-2.176976203918457,-30.198102951049805,4.495481014251709,-11.41494369506836,1.2973976135253906,0.0,-0.0,0.22017492353916168,7064.34375,-26699.7890625,292,0.0,-0.0,0.0,-0.2875615358352661,-0.27448558807373047,-30.21135902404785,5138.97998046875,-16322.419921875
90784.42,134.40122985839844,32.44638442993164,-0.9449195861816406,-0.028246402740478516,0.0255602914839983,1.0935622453689575,50916.0,0.46168532967567444,-2.176976203918457,-30.198102951049805,4.495481014251709,-11.41494369506836,0.2997378706932068,0.0,-0.0,0.22020143270492554,6704.9638671875,-22786.212890625,149,0.0,-0.0,0.0,-0.2875615358352661,-0.27448558807373047,-30.21135902404785,6649.82080078125,-15940.099609375
90786.437,135.480224609375,34.4015007019043,-0.6221058964729309,-0.029613975435495377,0.024677738547325134,1.092879295349121,50916.0,0.46168532967567444,-2.176976203918457,-30.198102951049805,5.330230712890625,-14.6812744140625,0.7468423247337341,0.0,-0.0,0.22023288905620575,8052.16015625,-25783.21484375,164,0.0,-0.0,0.0,-0.42668652534484863,0.2699030041694641,-30.213829040527344,5832.70068359375,-16348.3388671875
90788.428,135.95458984375,36.90700149536133,-0.4975772500038147,-0.029295487329363823,0.022798536345362663,1.0926504135131836,50916.0,0.46168532967567444,-2.176976203918457,-30.198102951049805,5.330230712890625,-14.6812744140625,0.31462088227272034,0.0,-0.0,0.22026434540748596,8214.7109375,-22951.15234375,97,0.0,-0.0,0.0,-0.42668652534484863,0.2699030041694641,-30.213829040527344,6454.34033203125,-16947.66015625
90790.351,136.1313018798828,38.963626861572266,-0.5787844657897949,-0.02799481339752674,0.022201361134648323,1.0924113988876343,50916.0,0.46168532967567444,-2.176976203918457,-30.198102951049805,6.272061824798584,-17.956844329833984,0.4637933671474457,0.0,-0.0,0.2202974408864975,9034.1943359375,-25702.4375,125,0.0,-0.0,0.0,-0.5836583375930786,0.8158312439918518,-30.21465301513672,6454.34033203125,-16947.66015625
90792.316,136.22433471679688,39.9227294921875,-0.44261282682418823,-0.028219405561685562,0.016726896166801453,1.0927006006240845,50916.0,0.46168532967567444,-2.5094573497772217,-30.198102951049805,6.272061824798584,-19.951730728149414,0.3196309208869934,0.0,-0.0,0.22033053636550903,7648.54541015625,-24992.3515625,91,0.0,-0.0,0.0,-0.5836583375930786,0.8158312439918518,-30.21465301513672,6483.8203125,-19053.5
90794.299,136.26699829101562,40.50404357910156,-0.34324559569358826,-0.028645409271121025,0.01114323828369379,1.0916361808776855,50916.0,0.46168532967567444,-2.5094573497772217,-30.198102951049805,7.249463081359863,-23.2199764251709,0.009643986821174622,0.0,-0.0,0.22036020457744598,8332.0625,-26406.21875,42,0.0,-0.0,0.0,-0.7465585470199585,1.3605386018753052,-30.212940216064453,5933.16064453125,-19116.12109375
90796.292,136.2186279296875,41.50690841674805,-0.37351343035697937,-0.028193872421979904,0.007578128483146429,1.0905736684799194,50916.0,0.46168532967567444,-2.5094573497772217,-30.198102951049805,7.249463081359863,-23.2199764251709,0.30941346287727356,0.0,-0.0,0.22038987278938293,8065.60400390625,-23879.51171875,81,0.0,-0.0,0.0,-0.7465585470199585,1.3605386018753052,-30.212940216064453,8137.7197265625,-18759.71875
90798.324,135.55703735351562,42.74439239501953,-0.3513643443584442,-0.02737545594573021,0.0018691053846850991,1.0856914520263672,50916.0,0.46168532967567444,-2.5094573497772217,-30.198102951049805,8.278181076049805,-26.461524963378906,-0.31301355361938477,0.0,-0.0,0.22041267156600952,9353.0400390625,-26237.75,4,0.0,-0.0,0.0,-0.9180115461349487,1.9007965326309204,-30.209501266479492,8137.7197265625,-18759.71875
90800.216,134.17108154296875,43.921630859375,0.01875513233244419,-0.028285643085837364,-0.004505931865423918,1.0798028707504272,50916.0,0.46168532967567444,-2.5094573497772217,-30.198102951049805,8.278181076049805,-26.461524963378906,0.2888253629207611,0.0,-0.0,0.2204354703426361,8712.9013671875,-23055.423828125,32,0.0,-0.0,0.0,-0.9180115461349487,1.9007965326309204,-30.209501266479492,8137.7197265625,-18759.71875
90802.201,132.4001007080078,44.77409362792969,0.43028733134269714,-0.026332933455705643,-0.008431647904217243,1.0747883319854736,50916.0,0.46168532967567444,-2.5094573497772217,-30.198102951049805,9.352447509765625,-29.617509841918945,-1.2353595495224,0.0,-0.0,0.22044143080711365,9564.0263671875,-25341.3984375,-199,0.0,-0.0,0.0,-1.0970560312271118,2.4267940521240234,-30.201080322265625,6626.88037109375,-19142.0390625
90804.162,130.17713928222656,45.06247329711914,0.5226278901100159,-0.02446908690035343,-0.01248681079596281,1.0696057081222534,50916.0,0.46168532967567444,-2.5094573497772217,-30.198102951049805,9.352447509765625,-29.617509841918945,0.23831161856651306,0.0,-0.0,0.2204473912715912,8378.5234375,-22301.9765625,-34,0.0,-0.0,0.0,-1.0970560312271118,2.4267940521240234,-30.201080322265625,8137.7197265625,-18759.71875
