timestamp,gyro.x,gyro.y,gyro.z,acc.x,acc.y,acc.z,controller.actuatorThrust,controller.pitch,controller.roll,controller.yaw,pid_attitude.pitch_output,pid_attitude.roll_output,pid_attitude.yaw_output,pid_attitude.pitch_outI,pid_attitude.roll_outI,pid_attitude.yaw_outI,pid_rate.pitch_output,pid_rate.roll_output,pid_rate.yaw_output,pid_rate.pitch_outI,pid_rate.roll_outI,pid_rate.yaw_outI,stateEstimate.pitch,stateEstimate.roll,stateEstimate.yaw,snn_control.torque_pitch,snn_control.torque_roll
96927.321,11.484984397888184,-28.5274715423584,1.3900506496429443,-0.02736177109181881,0.028871288523077965,1.0040332078933716,49612.0,8.417136192321777,5.617727279663086,-9.886630058288574,30.93907928466797,34.092674255371094,22.66358184814453,0.0,0.0,4.764712333679199,213.13819885253906,3219.56787109375,2552,0.0,0.0,0.0,3.26062273979187,-0.06438526511192322,-13.032856941223145,-213.69970703125,4749.240234375
96929.288,11.135363578796387,-28.490150451660156,1.6127451658248901,-0.027963245287537575,0.021420631557703018,1.004306674003601,49612.0,8.417136192321777,5.617727279663086,-9.886630058288574,30.93907928466797,34.092674255371094,23.648365020751953,0.0,0.0,4.771004676818848,395.33013916015625,3705.81201171875,2644,0.0,0.0,0.0,3.26062273979187,-0.06438526511192322,-13.032856941223145,-1666.879638671875,4393.42041015625
96931.298,10.369176864624023,-28.52938461303711,1.4920272827148438,-0.02783898077905178,0.013521724380552769,1.0047688484191895,49612.0,8.417136192321777,5.617727279663086,-9.886630058288574,30.302852630615234,33.83802795410156,22.57027816772461,0.0,0.0,4.777285099029541,-240.57537841796875,3903.983642578125,2529,0.0,0.0,0.0,3.3666605949401855,-0.02194388024508953,-13.02686595916748,-1866.6395263671875,4214.83984375
96933.238,9.677968978881836,-28.068382263183594,1.3355385065078735,-0.027868634089827538,0.0050457799807190895,1.0062918663024902,49612.0,8.417136192321777,5.617727279663086,-9.886630058288574,30.302852630615234,33.83802795410156,23.624980926513672,0.0,0.0,4.783565521240234,680.9223022460938,4142.41455078125,2674,0.0,0.0,0.0,3.3666605949401855,-0.02194388024508953,-13.02686595916748,100.83995819091797,4642.5205078125
96935.27,9.530508995056152,-27.206146240234375,1.5190266370773315,-0.02739066444337368,0.0030446983873844147,1.007968544960022,49612.0,8.417136192321777,5.617727279663086,-9.886630058288574,29.69898223876953,33.60968780517578,22.53152084350586,0.0,0.0,4.789834022521973,567.6996459960938,3551.2158203125,2521,0.0,0.0,0.0,3.4673056602478027,0.016112515702843666,-13.020790100097656,-2188.73974609375,4465.66064453125
96937.189,9.500612258911133,-26.769527435302734,1.6474422216415405,-0.025902431458234787,0.005543931387364864,1.0091689825057983,49612.0,8.095255851745605,5.617727279663086,-9.886630058288574,27.7677001953125,33.60968780517578,23.601062774658203,0.0,0.0,4.796102523803711,-971.271484375,3638.78466796875,2634,0.0,0.0,0.0,3.4673056602478027,0.016112515702843666,-13.020790100097656,-495.5796203613281,4925.7607421875
96939.167,9.179068565368652,-27.017292022705078,1.6199686527252197,-0.026398735120892525,0.009134397841989994,1.012938141822815,49612.0,8.095255851745605,5.617727279663086,-9.886630058288574,27.168691635131836,33.38705825805664,22.45269775390625,0.0,0.0,4.802358150482178,-612.369873046875,3705.383056640625,2499,0.0,0.0,0.0,3.567140579223633,0.05321759358048439,-13.014410972595215,-2199.479248046875,5842.16015625
96941.161,8.739944458007812,-27.345972061157227,1.5506668090820312,-0.028044352307915688,0.012518198229372501,1.0143218040466309,49612.0,8.095255851745605,5.617727279663086,-9.886630058288574,27.168691635131836,33.38705825805664,23.575298309326172,0.0,0.0,4.8086137771606445,-273.1020812988281,4026.410888671875,2642,0.0,0.0,0.0,3.567140579223633,0.05321759358048439,-13.014410972595215,-2542.51953125,4987.38037109375
96943.114,8.499215126037598,-26.77882957458496,1.5013654232025146,-0.029561646282672882,0.014880827628076077,1.015587568283081,49612.0,8.095255851745605,5.617727279663086,-9.886630058288574,26.577960968017578,33.177879333496094,22.529800415039062,0.0,0.0,4.814857482910156,-47.82142639160156,3725.46337890625,2523,0.0,0.0,0.0,3.665595531463623,0.0880805030465126,-13.008600234985352,-1666.879638671875,4393.42041015625
96945.128,8.615299224853516,-25.951587677001953,1.466949462890625,-0.029429472982883453,0.013404657132923603,1.0158683061599731,49612.0,8.095255851745605,5.617727279663086,-9.886630058288574,26.577960968017578,33.177879333496094,23.552921295166016,0.0,0.0,4.821101188659668,714.3873901367188,3597.3232421875,2650,0.0,0.0,0.0,3.665595531463623,0.0880805030465126,-13.008600234985352,-1866.6395263671875,4214.83984375
96947.063,8.78792953491211,-25.504798889160156,1.4691658020019531,-0.027676619589328766,0.011974780820310116,1.0134416818618774,49612.0,7.66447639465332,5.617727279663086,-9.886630058288574,23.43297576904297,32.963645935058594,22.5379638671875,0.0,0.0,4.827333927154541,-2334.420654296875,3336.209716796875,2528,0.0,0.0,0.0,3.7589805126190186,0.12378653883934021,-13.002958297729492,-2020.659423828125,4915.14013671875
97037.871,9.691864967346191,7.810567855834961,2.3771512508392334,-0.018340855836868286,0.002043057233095169,0.989722490310669,49612.0,7.66447639465332,5.617727279663086,-9.886630058288574,21.77252960205078,27.30702781677246,20.427570343017578,0.0,0.0,5.102267265319824,4396.89404296875,2793.04443359375,2166,0.0,0.0,0.0,4.035721302032471,1.0665559768676758,-12.738639831542969,2707.6396484375,3421.559814453125
97039.864,9.516491889953613,7.321899890899658,2.191281318664551,-0.019490836188197136,0.0037737118545919657,0.9904022216796875,49612.0,7.66447639465332,5.617727279663086,-9.886630058288574,21.77252960205078,27.30702781677246,22.220029830932617,0.0,0.0,5.10797119140625,3997.663330078125,2800.110107421875,2403,0.0,0.0,0.0,4.035721302032471,1.0665559768676758,-12.738639831542969,3035.259765625,2653.480224609375
97041.821,9.402570724487305,7.179818153381348,2.063950777053833,-0.021774407476186752,0.006127315107733011,0.9953492879867554,49612.0,7.66447639465332,5.617727279663086,-9.886630058288574,21.99365234375,27.091999053955078,20.614526748657227,0.0,0.0,5.113657474517822,4435.30078125,2577.584228515625,2226,0.0,0.0,0.0,3.9988677501678467,1.1023942232131958,-12.729738235473633,5115.11962890625,2836.7197265625
97043.835,9.058597564697266,7.9022698402404785,2.009392738342285,-0.023518845438957214,0.009618469513952732,1.000353455543518,49612.0,7.66447639465332,5.617727279663086,-9.886630058288574,21.99365234375,27.091999053955078,22.177993774414062,0.0,0.0,5.1193437576293945,5026.2275390625,2962.990234375,2420,0.0,0.0,0.0,3.9988677501678467,1.1023942232131958,-12.729738235473633,4757.02001953125,5410.39990234375
97045.769,8.920778274536133,8.121495246887207,1.970742106437683,-0.023819895461201668,0.015179973095655441,1.0035953521728516,49612.0,7.66447639465332,5.617727279663086,-9.886630058288574,22.23797607421875,26.883819580078125,20.633405685424805,0.0,0.0,5.1250128746032715,4901.58203125,2641.686279296875,2239,0.0,0.0,0.0,3.9581470489501953,1.1370905637741089,-12.721173286437988,3228.579833984375,4028.199951171875
97047.739,8.837352752685547,7.702548027038574,2.1142897605895996,-0.024184947833418846,0.016204677522182465,1.0054054260253906,49612.0,7.66447639465332,5.617727279663086,-9.886630058288574,22.23797607421875,26.883819580078125,22.137941360473633,0.0,0.0,5.130681991577148,4176.86962890625,2769.5390625,2402,0.0,0.0,0.0,3.9581470489501953,1.1370905637741089,-12.721173286437988,3770.919921875,3367.199951171875
97049.749,8.113517761230469,7.596282005310059,2.2356903553009033,-0.02363254688680172,0.017111653462052345,1.006744623184204,49612.0,7.66447639465332,5.617727279663086,-9.886630058288574,22.469057083129883,26.694717407226562,20.406566619873047,0.0,0.0,5.136332035064697,4603.41064453125,3188.2294921875,2180,0.0,0.0,0.0,3.919633626937866,1.1686075925827026,-12.711576461791992,3774.60009765625,3606.239501953125
97051.683,7.175614833831787,7.502633571624756,2.1041603088378906,-0.023206889629364014,0.01979248970746994,1.008622169494629,49612.0,7.66447639465332,5.617727279663086,-9.886630058288574,22.469057083129883,26.694717407226562,22.091659545898438,0.0,0.0,5.141982078552246,4425.5185546875,3631.2919921875,2398,0.0,0.0,0.0,3.919633626937866,1.1686075925827026,-12.711576461791992,5666.46044921875,2931.34033203125
97318.182,2.9525794982910156,-13.52254581451416,2.762702226638794,0.003954356070607901,0.03361012041568756,0.9077371954917908,45917.0,-0.20000000298023224,3.1776058673858643,-9.886630058288574,5.015676021575928,19.2680606842041,18.624971389770508,0.0,0.0,5.8308892250061035,-1875.3060302734375,1089.7525634765625,1903,0.0,0.0,0.0,-1.035946011543274,-0.033737581223249435,-12.3444185256958,-1904.25927734375,3961.7001953125
97320.201,4.2612833976745605,-14.0541353225708,2.8753130435943604,-0.0007200564141385257,0.025827249512076378,0.9134329557418823,45917.0,-0.20000000298023224,3.1776058673858643,-9.886630058288574,5.015676021575928,19.2680606842041,20.582534790039062,0.0,0.0,5.8358049392700195,-1754.4610595703125,1269.48828125,2124,0.0,0.0,0.0,-1.035946011543274,-0.033737581223249435,-12.3444185256958,-2220.4599609375,2601.800048828125
97322.129,5.488247871398926,-14.259995460510254,2.8170058727264404,-0.0061529637314379215,0.01493682898581028,0.9213923215866089,45917.0,-0.20000000298023224,3.1776058673858643,-9.886630058288574,4.66835880279541,19.12603759765625,18.538833618164062,0.0,0.0,5.840697765350342,-1853.628173828125,1018.92822265625,1886,0.0,0.0,0.0,-0.9780597686767578,-0.010066991671919823,-12.333100318908691,-962.8994140625,4285.88037109375
97324.1,6.381009101867676,-14.007558822631836,2.6995508670806885,-0.008940689265727997,0.013068384490907192,0.9299110770225525,45917.0,-0.20000000298023224,3.1776058673858643,-9.886630058288574,4.66835880279541,19.12603759765625,20.524412155151367,0.0,0.0,5.845590591430664,-1211.552490234375,1242.183349609375,2138,0.0,0.0,0.0,-0.9780597686767578,-0.010066991671919823,-12.333100318908691,-5197.12109375,1224.4599609375
97326.106,6.984578609466553,-13.93262767791748,2.7215778827667236,-0.010134452022612095,0.01710650697350502,0.9400187134742737,45917.0,-0.20000000298023224,3.1776058673858643,-9.886630058288574,4.331630706787109,18.947355270385742,18.554393768310547,0.0,0.0,5.850461483001709,-1636.4971923828125,1207.7271728515625,1899,0.0,0.0,0.0,-0.9219384789466858,0.01971341110765934,-12.322189331054688,-2751.560302734375,913.6001586914062
97328.049,7.679906368255615,-14.44879150390625,2.844327926635742,-0.012742952443659306,0.02166574075818062,0.9495907425880432,45917.0,-0.20000000298023224,3.1776058673858643,-9.886630058288574,4.331630706787109,18.947355270385742,20.46868896484375,0.0,0.0,5.855332374572754,-1904.697021484375,1168.62158203125,2114,0.0,0.0,0.0,-0.9219384789466858,0.01971341110765934,-12.322189331054688,-792.539794921875,1925.93994140625
97330.073,8.716425895690918,-15.145737648010254,2.905168294906616,-0.01592366397380829,0.028298774734139442,0.9599178433418274,45917.0,-0.20000000298023224,3.1776058673858643,-9.886630058288574,3.969541549682617,18.721254348754883,18.36935806274414,0.0,0.0,5.860180377960205,-2470.7060546875,553.7593383789062,1855,0.0,0.0,0.0,-0.8615902662277222,0.057396773248910904,-12.310564041137695,-1535.7396240234375,2559.3203125
97331.994,10.331809043884277,-15.30381965637207,2.915421724319458,-0.018393641337752342,0.034994661808013916,0.9656866192817688,45917.0,-0.20000000298023224,3.1776058673858643,-9.886630058288574,3.969541549682617,18.721254348754883,20.408632278442383,0.0,0.0,5.865028381347656,-1818.7032470703125,46.87939453125,2099,0.0,0.0,0.0,-0.8615902662277222,0.057396773248910904,-12.310564041137695,-1583.8995361328125,1342.47998046875
97333.984,11.763232231140137,-14.55396556854248,3.029662609100342,-0.02330763265490532,0.037555187940597534,0.9682645797729492,45917.0,-0.20000000298023224,3.1776058673858643,-9.886630058288574,3.6261870861053467,18.41736602783203,18.225732803344727,0.0,0.0,5.869852066040039,-1334.2918701171875,-303.36346435546875,1823,0.0,0.0,0.0,-0.8043645024299622,0.10804492980241776,-12.298477172851562,-1311.5596923828125,1531.260009765625
97335.974,12.642637252807617,-12.973597526550293,3.1078097820281982,-0.028422217816114426,0.036680057644844055,0.9699777364730835,45917.0,-0.20000000298023224,3.1776058673858643,-9.886630058288574,3.6261870861053467,18.41736602783203,20.34575843811035,0.0,0.0,5.874675750732422,-216.835693359375,206.65557861328125,2068,0.0,0.0,0.0,-0.8043645024299622,0.10804492980241776,-12.298477172851562,-1744.419677734375,748.900146484375
97337.928,13.28832721710205,-11.69459056854248,3.06027889251709,-0.0317033976316452,0.03339279070496559,0.9689391851425171,45917.0,-0.20000000298023224,3.1776058673858643,-9.886630058288574,3.356398344039917,18.079771041870117,18.146953582763672,0.0,0.0,5.879475116729736,-493.815185546875,-18.74713134765625,1810,0.0,0.0,0.0,-0.7593997120857239,0.16431058943271637,-12.28630256652832,-1810.27978515625,948.340087890625
97339.932,14.344099998474121,-11.3109769821167,3.0052356719970703,-0.03309599310159683,0.02861797995865345,0.961942732334137,45917.0,-0.20000000298023224,3.1776058673858643,-9.886630058288574,3.356398344039917,18.079771041870117,20.282310485839844,0.0,0.0,5.884274482727051,-905.4765625,-231.4788818359375,2073,0.0,0.0,0.0,-0.7593997120857239,0.16431058943271637,-12.28630256652832,-3278.720458984375,-446.9399108886719
97341.874,16.026525497436523,-11.120515823364258,2.961979866027832,-0.03305377811193466,0.023479245603084564,0.9528849124908447,45917.0,-0.20000000298023224,3.1776058673858643,-9.886630058288574,3.101780414581299,17.68242645263672,18.165645599365234,0.0,0.0,5.889050483703613,-1250.9285888671875,-1311.4423828125,1824,0.0,0.0,0.0,-0.7169634103775024,0.23053482174873352,-12.274581909179688,-599.27978515625,810.6398315429688
97343.84,17.254802703857422,-10.714363098144531,3.2298362255096436,-0.030082011595368385,0.022025862708687782,0.9445698857307434,45917.0,-0.20000000298023224,3.1776058673858643,-9.886630058288574,3.101780414581299,17.68242645263672,20.221538543701172,0.0,0.0,5.893826484680176,-837.2725830078125,-857.0642700195312,2039,0.0,0.0,0.0,-0.7169634103775024,0.23053482174873352,-12.274581909179688,-1489.0396728515625,-1642.15966796875
97345.848,17.355661392211914,-10.21140193939209,3.5652401447296143,-0.02639809623360634,0.021911317482590675,0.9392295479774475,45917.0,-0.20000000298023224,3.1776058673858643,-9.886630058288574,2.8655929565429688,17.254398345947266,17.675552368164062,0.0,0.0,5.898574352264404,-901.7910766601562,-411.85455322265625,1693,0.0,0.0,0.0,-0.6775988340377808,0.3018730878829956,-12.260489463806152,-1240.06005859375,-1750.5400390625
97347.799,17.209566116333008,-9.51225757598877,3.7410197257995605,-0.0218547061085701,0.02405819669365883,0.9353752136230469,45917.0,-0.20000000298023224,3.1776058673858643,-9.886630058288574,2.8655929565429688,17.254398345947266,20.1464786529541,0.0,0.0,5.903322219848633,-472.64141845703125,116.29629516601562,1968,0.0,0.0,0.0,-0.6775988340377808,0.3018730878829956,-12.260489463806152,-2124.5595703125,770.72021484375
97349.816,17.662818908691406,-8.234621047973633,3.6802918910980225,-0.018377596512436867,0.02830001339316368,0.9337179660797119,45917.0,-0.20000000298023224,3.1776058673858643,-9.886630058288574,2.67236065864563,16.815887451171875,17.516918182373047,0.0,0.0,5.908041000366211,-21.0361328125,-795.8624877929688,1660,0.0,0.0,0.0,-0.645393431186676,0.3749580681324005,-12.245935440063477,-2259.15966796875,910.119873046875
97351.744,18.844589233398438,-6.808813095092773,3.6026196479797363,-0.015536043792963028,0.025711622089147568,0.930165708065033,45917.0,-0.20000000298023224,3.1776058673858643,-9.886630058288574,2.67236065864563,16.815887451171875,20.068592071533203,0.0,0.0,5.912759780883789,448.8880615234375,-1190.6329345703125,1975,0.0,0.0,0.0,-0.645393431186676,0.3749580681324005,-12.245935440063477,-1665.3597412109375,497.1001281738281
97353.728,20.05963134765625,-5.899801731109619,3.5732226371765137,-0.012900043278932571,0.02007587067782879,0.9259040355682373,45917.0,-0.20000000298023224,3.1776058673858643,-9.886630058288574,2.532054901123047,16.325326919555664,17.514263153076172,0.0,0.0,5.917449951171875,71.36734008789062,-1839.34765625,1672,0.0,0.0,0.0,-0.6220091581344604,0.4567180275917053,-12.231797218322754,-2373.65966796875,2466.960205078125
97355.722,20.644182205200195,-5.530398845672607,3.6109580993652344,-0.010374183766543865,0.013725969940423965,0.9217077493667603,45917.0,-0.20000000298023224,3.1776058673858643,-9.886630058288574,2.532054901123047,16.325326919555664,19.99314308166504,0.0,0.0,5.922140121459961,-172.69943237304688,-1086.241455078125,1965,0.0,0.0,0.0,-0.6220091581344604,0.4567180275917053,-12.231797218322754,-1581.9197998046875,1257.0399169921875
97357.69,20.53801155090332,-5.065967082977295,3.7607762813568115,-0.007235976867377758,0.011762959882616997,0.9132847785949707,45917.0,-0.20000000298023224,3.1776058673858643,-9.886630058288574,2.4084856510162354,15.828859329223633,17.306217193603516,0.0,0.0,5.926800727844238,-142.97535705566406,-999.095458984375,1625,0.0,0.0,0.0,-0.6014142632484436,0.5394625067710876,-12.216926574707031,316.039794921875,90.94022369384766
97359.674,19.966917037963867,-3.9799702167510986,4.08200216293335,-0.004161948803812265,0.01434134878218174,0.9041900634765625,45917.0,-0.20000000298023224,3.1776058673858643,-9.886630058288574,2.4084856510162354,15.828859329223633,19.913240432739258,0.0,0.0,5.931461334228516,578.77490234375,-192.3878173828125,1899,0.0,0.0,0.0,-0.6014142632484436,0.5394625067710876,-12.216926574707031,-92.08016204833984,-211.6002197265625
97361.635,19.855491638183594,-2.375866174697876,4.226313591003418,-0.0006613009027205408,0.01754879392683506,0.8963777422904968,45917.0,-0.1849660724401474,3.1776058673858643,-9.886630058288574,2.435509204864502,15.345809936523438,16.873973846435547,0.0,0.0,5.9360880851745605,1232.2921142578125,-955.1702270507812,1517,0.0,0.0,0.0,-0.590884268283844,0.6199707388877869,-12.200109481811523,-437.4200744628906,-1667.8397216796875
97363.6,20.555601119995117,-1.0653009414672852,4.012022018432617,0.0009906053310260177,0.020573442801833153,0.8895096778869629,45917.0,-0.1849660724401474,3.1776058673858643,-9.886630058288574,2.435509204864502,15.345809936523438,19.821590423583984,0.0,0.0,5.9407148361206055,1188.455078125,-1306.55078125,1897,0.0,0.0,0.0,-0.590884268283844,0.6199707388877869,-12.200109481811523,-673.0,331.980224609375
97365.619,21.21763801574707,-0.2157544046640396,3.812433958053589,0.0014393520541489124,0.021528324112296104,0.8881576061248779,45917.0,-0.1849660724401474,3.1776058673858643,-9.886630058288574,2.4227795600891113,14.828404426574707,17.065900802612305,0.0,0.0,5.945311069488525,958.6663208007812,-1842.966796875,1590,0.0,0.0,0.0,-0.5887627005577087,0.7062051296234131,-12.184859275817871,-471.04010009765625,-1250.2000732421875
97367.558,21.709684371948242,0.6887307167053223,3.807521343231201,0.0031293670181185007,0.019454289227724075,0.8909626603126526,45917.0,-0.1849660724401474,3.1776058673858643,-9.886630058288574,2.4227795600891113,14.828404426574707,19.739282608032227,0.0,0.0,5.949907302856445,1145.0904541015625,-1401.226806640625,1911,0.0,0.0,0.0,-0.5887627005577087,0.7062051296234131,-12.184859275817871,232.5800018310547,-314.2796325683594
97369.557,21.979246139526367,1.817995309829712,3.7430522441864014,0.002088796114549041,0.015057351440191269,0.8957975506782532,45917.0,-0.1849660724401474,3.1776058673858643,-9.886630058288574,2.4582061767578125,14.297607421875,17.016185760498047,0.0,0.0,5.954473495483398,1514.9483642578125,-1752.514892578125,1592,0.0,0.0,0.0,-0.5946671366691589,0.7946712970733643,-12.16978931427002,425.2800598144531,-2894.259765625
97371.506,21.944049835205078,3.0044095516204834,3.8058981895446777,-2.781911643978674e-05,0.010282019153237343,0.903653621673584,45917.0,-0.1849660724401474,3.1776058673858643,-9.886630058288574,2.4582061767578125,14.297607421875,19.657995223999023,0.0,0.0,5.959039688110352,1709.203369140625,-1120.569091796875,1902,0.0,0.0,0.0,-0.5946671366691589,0.7946712970733643,-12.16978931427002,-208.3199462890625,-1552.080078125
97458.387,-20.97443389892578,13.11337947845459,0.9596613049507141,-0.015989836305379868,0.012013210915029049,0.8998786807060242,45917.0,0.8905376195907593,1.846718192100525,-9.886630058288574,19.511505126953125,5.297863960266113,18.057077407836914,0.0,0.0,6.144498825073242,3912.7509765625,4698.80078125,2051,0.0,0.0,0.0,-2.361379623413086,0.9637408256530762,-11.87205982208252,2924.69970703125,6181.88037109375
97460.327,-21.44894790649414,11.393449783325195,1.1063441038131714,-0.016211815178394318,0.003805293934419751,0.8980534076690674,45917.0,0.8905376195907593,1.846718192100525,-9.886630058288574,19.77081871032715,5.818324089050293,17.1351318359375,0.0,0.0,6.148459434509277,3579.177490234375,4836.32275390625,1923,0.0,0.0,0.0,-2.4045987129211426,0.8769974708557129,-11.866944313049316,4943.14013671875,5158.759765625
97462.288,-21.5528564453125,9.92822551727295,1.1880899667739868,-0.02111668884754181,0.004078656435012817,0.9021456837654114,45917.0,0.8905376195907593,1.846718192100525,-9.886630058288574,19.77081871032715,5.818324089050293,18.034305572509766,0.0,0.0,6.1524200439453125,3355.9375,4183.6083984375,2021,0.0,0.0,0.0,-2.4045987129211426,0.8769974708557129,-11.866944313049316,6054.60009765625,4702.69970703125
97464.301,-22.016542434692383,8.803574562072754,1.1978765726089478,-0.02696826122701168,0.00878228060901165,0.909550130367279,45917.0,0.8905376195907593,1.846718192100525,-9.886630058288574,19.974102020263672,6.348555564880371,17.081451416015625,0.0,0.0,6.156370162963867,3625.625732421875,5000.201171875,1906,0.0,0.0,0.0,-2.438479423522949,0.7886255979537964,-11.861658096313477,4660.3798828125,4008.620361328125
97466.237,-22.451053619384766,7.501033782958984,1.3624671697616577,-0.032421793788671494,0.017922282218933105,0.919654905796051,45917.0,0.8905376195907593,1.846718192100525,-9.886630058288574,19.974102020263672,6.348555564880371,18.010488510131836,0.0,0.0,6.160320281982422,3144.36572265625,4645.826171875,1997,0.0,0.0,0.0,-2.438479423522949,0.7886255979537964,-11.861658096313477,6322.0400390625,4714.46044921875
97468.269,-22.57834243774414,6.2202653884887695,1.613020896911621,-0.036269184201955795,0.03059929423034191,0.9304134249687195,45917.0,0.8905376195907593,1.846718192100525,-9.886630058288574,20.12026596069336,6.87834358215332,16.77401351928711,0.0,0.0,6.164256572723389,3100.12548828125,4911.3095703125,1819,0.0,0.0,0.0,-2.4628400802612305,0.7003276348114014,-11.854804992675781,4810.43994140625,6093.30078125
97470.19,-23.00415802001953,5.187762260437012,1.7831461429595947,-0.032374486327171326,0.033427588641643524,0.9356591701507568,45917.0,0.8905376195907593,1.846718192100525,-9.886630058288574,20.12026596069336,6.87834358215332,17.97724151611328,0.0,0.0,6.1681928634643555,3021.828369140625,4801.73681640625,1943,0.0,0.0,0.0,-2.4628400802612305,0.7003276348114014,-11.854804992675781,5179.35986328125,5246.0205078125
97472.167,-23.507856369018555,4.133545875549316,1.8896660804748535,-0.02475731074810028,0.03132731094956398,0.9372087717056274,45917.0,0.8905376195907593,1.846718192100525,-9.886630058288574,20.209447860717773,7.42902946472168,16.562267303466797,0.0,0.0,6.172113418579102,2927.67333984375,5431.32080078125,1760,0.0,0.0,0.0,-2.477703809738159,0.6085465550422668,-11.846965789794922,2429.159912109375,3598.30029296875
98320.984,2.5076215267181396,-27.21235466003418,-1.1563736200332642,-0.015119452960789204,-0.010915538296103477,0.9845579862594604,49176.0,1.8590692281723022,1.0,-9.886630058288574,20.190427780151367,18.41611671447754,24.471227645874023,0.0,0.0,7.943037509918213,-1083.48291015625,2850.69970703125,3075,0.0,0.0,0.0,-1.5060020685195923,-2.069352865219116,-12.623332023620605,-2283.240234375,1599.56005859375
98322.98,2.0143442153930664,-26.367170333862305,-1.228790521621704,-0.01663229614496231,-0.00392525689676404,0.98412024974823,49176.0,1.8590692281723022,1.0,-9.886630058288574,20.190427780151367,18.41611671447754,24.368722915649414,0.0,0.0,7.948511123657227,-292.6231689453125,2830.22314453125,3071,0.0,0.0,0.0,-1.5060020685195923,-2.069352865219116,-12.623332023620605,-4560.12060546875,1453.02001953125
98324.935,1.5503976345062256,-25.806787490844727,-1.310213327407837,-0.01891467534005642,0.004844841547310352,0.9870942831039429,49176.0,1.8590692281723022,1.0,-9.886630058288574,19.568466186523438,18.35672378540039,24.63105010986328,0.0,0.0,7.9539875984191895,-981.9322509765625,2824.36474609375,3112,0.0,0.0,0.0,-1.4023419618606567,-2.0594539642333984,-12.624751091003418,-2216.22021484375,1539.5201416015625
98326.948,1.2493460178375244,-25.521156311035156,-1.1309584379196167,-0.02155749686062336,0.013365525752305984,0.9897911548614502,49176.0,1.8590692281723022,1.0,-9.886630058288574,19.568466186523438,18.35672378540039,24.38819122314453,0.0,0.0,7.959464073181152,-678.6801147460938,2791.895751953125,3062,0.0,0.0,0.0,-1.4023419618606567,-2.0594539642333984,-12.624751091003418,-2216.22021484375,1539.5201416015625
98328.886,0.9922202229499817,-25.647907257080078,-1.0883209705352783,-0.0229769516736269,0.012014402076601982,0.9906865954399109,49176.0,1.8590692281723022,1.0,-9.886630058288574,18.95368003845215,18.306751251220703,24.496200561523438,0.0,0.0,7.964941501617432,-1560.286865234375,2752.544677734375,3070,0.0,0.0,0.0,-1.2998775243759155,-2.0511252880096436,-12.625317573547363,-619.2598266601562,2936.739990234375
98330.85,0.2187947928905487,-25.61101722717285,-1.1536805629730225,-0.024437226355075836,0.004715854302048683,0.992172360420227,49176.0,1.8590692281723022,1.0,-9.886630058288574,18.95368003845215,18.306751251220703,24.402544021606445,0.0,0.0,7.970418930053711,-970.9330444335938,3293.26318359375,3066,0.0,0.0,0.0,-1.2998775243759155,-2.0511252880096436,-12.625317573547363,-1596.4996337890625,1859.47998046875
98332.854,-0.8888528943061829,-24.752796173095703,-1.093831181526184,-0.024607328698039055,-0.004277839325368404,0.9942409992218018,49831.0,1.8590692281723022,1.0,-9.886630058288574,18.36210060119629,18.31097412109375,24.545940399169922,0.0,0.0,7.975897789001465,-758.6231079101562,3713.87646484375,3076,0.0,0.0,0.0,-1.201280951499939,-2.0518288612365723,-12.626079559326172,-2968.0205078125,1403.60009765625
98334.795,-1.9396506547927856,-23.419960021972656,-1.0706241130828857,-0.022157086059451103,-0.008499966003000736,0.9951819181442261,49831.0,1.8590692281723022,1.0,-9.886630058288574,18.36210060119629,18.31097412109375,24.418073654174805,0.0,0.0,7.981376647949219,240.94818115234375,3825.6923828125,3058,0.0,0.0,0.0,-1.201280951499939,-2.0518288612365723,-12.626079559326172,-2216.22021484375,1539.5201416015625
98336.829,-2.720158100128174,-22.15152359008789,-1.2317293882369995,-0.018489820882678032,-0.009340394288301468,0.9938768148422241,49831.0,1.8590692281723022,1.0,-9.886630058288574,17.830181121826172,18.36202049255371,24.730464935302734,0.0,0.0,7.98685884475708,-95.81365966796875,3785.990966796875,3115,0.0,0.0,0.0,-1.112627625465393,-2.0603368282318115,-12.627775192260742,-3101.52001953125,535.5201416015625
98338.744,-3.151095151901245,-21.061891555786133,-1.3744685649871826,-0.013665741309523582,-0.007429199293255806,0.9902845621109009,49831.0,1.8590692281723022,1.0,-9.886630058288574,17.830181121826172,18.36202049255371,24.439212799072266,0.0,0.0,7.992341041564941,332.4674377441406,3550.169921875,3097,0.0,0.0,0.0,-1.112627625465393,-2.0603368282318115,-12.627775192260742,-3018.0400390625,1299.8800048828125
98340.724,-3.2940287590026855,-20.318357467651367,-1.5373878479003906,-0.009315039031207561,-0.005710043013095856,0.9851465821266174,49831.0,1.8590692281723022,1.0,-9.886630058288574,17.337692260742188,18.424942016601562,25.016918182373047,0.0,0.0,7.997829437255859,-258.8158874511719,3412.238037109375,3186,0.0,0.0,0.0,-1.0305463075637817,-2.0708236694335938,-12.630936622619629,-56.0601806640625,1859.1002197265625
98342.727,-3.628620147705078,-19.415786743164062,-1.7012704610824585,-0.004682465456426144,-0.00036849037860520184,0.9800544381141663,50697.0,1.8590692281723022,1.0,-9.886630058288574,17.337692260742188,18.424942016601562,24.469158172607422,0.0,0.0,8.003317832946777,365.21380615234375,3558.9775390625,3140,0.0,0.0,0.0,-1.0305463075637817,-2.0708236694335938,-12.630936622619629,-1290.49951171875,3342.9794921875
98344.673,-4.397094249725342,-18.31426239013672,-1.7510261535644531,-0.00024300981021951884,0.00530413119122386,0.9763053059577942,50697.0,1.8590692281723022,1.0,-9.886630058288574,16.888704299926758,18.508207321166992,25.249004364013672,0.0,0.0,8.008814811706543,275.5685729980469,4074.600341796875,3240,0.0,0.0,0.0,-0.9557149410247803,-2.0847012996673584,-12.635214805603027,-731.9397583007812,2631.639892578125
98346.686,-5.329591274261475,-17.15283966064453,-1.6218854188919067,0.002874690806493163,0.008998887613415718,0.9728806018829346,50697.0,1.8590692281723022,1.0,-9.886630058288574,16.888704299926758,18.508207321166992,24.505821228027344,0.0,0.0,8.014311790466309,831.4467163085938,4275.04248046875,3135,0.0,0.0,0.0,-0.9557149410247803,-2.0847012996673584,-12.635214805603027,-829.7998657226562,2239.440185546875
98348.629,-6.473663806915283,-15.740921974182129,-1.7079797983169556,0.005345549434423447,0.01321207545697689,0.970097005367279,50697.0,1.8590692281723022,1.0,-9.886630058288574,16.498844146728516,18.636703491210938,25.316402435302734,0.0,0.0,8.019818305969238,880.2314453125,4720.98046875,3242,0.0,0.0,0.0,-0.8907380104064941,-2.1061172485351562,-12.639662742614746,-79.50022888183594,3205.2802734375
98350.589,-7.347766876220703,-13.982531547546387,-1.860897421836853,0.0058221640065312386,0.01183392759412527,0.9705879092216492,50697.0,1.8590692281723022,1.0,-9.886630058288574,16.498844146728516,18.636703491210938,24.543521881103516,0.0,0.0,8.025324821472168,1696.2396240234375,4553.248046875,3168,0.0,0.0,0.0,-0.8907380104064941,-2.1061172485351562,-12.639662742614746,-731.9397583007812,2631.639892578125
98352.6,-8.130769729614258,-12.077049255371094,-1.8194366693496704,0.0034991197753697634,0.007893522270023823,0.9725416898727417,50697.0,1.8590692281723022,1.0,-9.886630058288574,16.198104858398438,18.807823181152344,25.530527114868164,0.0,0.0,8.030841827392578,1821.7154541015625,4756.380859375,3281,0.0,0.0,0.0,-0.8406149744987488,-2.1346373558044434,-12.645085334777832,-79.50022888183594,3205.2802734375
98354.542,-9.164373397827148,-10.347796440124512,-1.7783839702606201,-0.000506519281771034,0.0059916009195148945,0.9757716059684753,50697.0,1.8590692281723022,1.0,-9.886630058288574,16.198104858398438,18.807823181152344,24.58708953857422,0.0,0.0,8.036358833312988,2174.48583984375,4971.0322265625,3163,0.0,0.0,0.0,-0.8406149744987488,-2.1346373558044434,-12.645085334777832,684.2398071289062,4451.90087890625
98356.572,-9.967548370361328,-8.704544067382812,-1.8728734254837036,-0.0052016181871294975,0.006428807973861694,0.981582522392273,50697.0,1.8590692281723022,1.0,-9.886630058288574,15.983222007751465,19.023643493652344,25.70029067993164,0.0,0.0,8.041888236999512,2163.07861328125,5112.92529296875,3308,0.0,0.0,0.0,-0.8048011064529419,-2.170607328414917,-12.651205062866211,464.3797912597656,3307.26025390625
98358.494,-10.756034851074219,-6.656586647033691,-2.1674840450286865,-0.010887597687542439,0.006355831399559975,0.9883278608322144,50697.0,1.8590692281723022,1.0,-9.886630058288574,15.983222007751465,19.023643493652344,24.634868621826172,0.0,0.0,8.047417640686035,2934.96337890625,5058.31640625,3216,0.0,0.0,0.0,-0.8048011064529419,-2.170607328414917,-12.651205062866211,1232.83984375,5201.78076171875
98360.482,-11.890230178833008,-4.929841041564941,-2.576146125793457,-0.016422998160123825,0.004620101302862167,0.9955770969390869,50697.0,1.8590692281723022,1.0,-9.886630058288574,15.86431884765625,19.286571502685547,26.358280181884766,0.0,0.0,8.052966117858887,2846.053466796875,5724.3623046875,3472,0.0,0.0,0.0,-0.7849840521812439,-2.214428663253784,-12.660696029663086,1775.019775390625,2950.600341796875
98362.485,-12.88741683959961,-3.692138671875,-2.9410452842712402,-0.01989520899951458,0.005204077810049057,1.0026524066925049,50697.0,1.8590692281723022,1.0,-9.886630058288574,15.86431884765625,19.286571502685547,24.702911376953125,0.0,0.0,8.058514595031738,2754.103759765625,5573.98828125,3317,0.0,0.0,0.0,-0.7849840521812439,-2.214428663253784,-12.660696029663086,1803.7198486328125,6300.38037109375
98364.433,-13.69284439086914,-2.518237590789795,-3.183701753616333,-0.02348710224032402,0.00570955453440547,1.009887456893921,51350.0,2.181913137435913,1.0,-9.886630058288574,17.743370056152344,19.591995239257812,26.93055534362793,0.0,0.0,8.0640869140625,4573.4833984375,5825.8642578125,3613,0.0,0.0,0.0,-0.7753149271011353,-2.2653324604034424,-12.672972679138184,2688.519775390625,7360.8798828125
98366.429,-14.416327476501465,-1.155513882637024,-3.243900775909424,-0.026784945279359818,0.00432248879224062,1.0181021690368652,51350.0,2.181913137435913,1.0,-9.886630058288574,17.743370056152344,19.591995239257812,24.787715911865234,0.0,0.0,8.069659233093262,3510.2216796875,5643.861328125,3363,0.0,0.0,0.0,-0.7753149271011353,-2.2653324604034424,-12.672972679138184,1290.0997314453125,4584.54052734375
98368.389,-14.932604789733887,0.32940196990966797,-3.188128709793091,-0.02703792229294777,0.003004175378009677,1.023350715637207,51350.0,2.181913137435913,1.0,-9.886630058288574,17.755157470703125,19.92819595336914,27.099796295166016,0.0,0.0,8.075257301330566,3835.2119140625,5868.478515625,3634,0.0,0.0,0.0,-0.7772795557975769,-2.3213658332824707,-12.685715675354004,4016.38037109375,7542.96142578125
98370.354,-15.307429313659668,1.8504085540771484,-3.187346935272217,-0.02860296331346035,0.004766925238072872,1.0272265672683716,51350.0,2.181913137435913,1.0,-9.886630058288574,17.755157470703125,19.92819595336914,24.875370025634766,0.0,0.0,8.080855369567871,4081.589111328125,5566.4619140625,3367,0.0,0.0,0.0,-0.7772795557975769,-2.3213658332824707,-12.685715675354004,2346.499755859375,3032.719970703125
98372.365,-15.92795181274414,3.194375514984131,-3.3393640518188477,-0.02998550795018673,0.0073088682256639,1.03114652633667,51350.0,3.0415449142456055,1.0,-9.886630058288574,22.99440574645996,20.28557777404785,27.38115119934082,0.0,0.0,8.086481094360352,8865.728515625,6165.45849609375,3686,0.0,0.0,0.0,-0.7908561825752258,-2.380929708480835,-12.699528694152832,2767.959716796875,5482.240234375
98486.808,16.111696243286133,-30.21135902404785,-2.912961483001709,-0.01688525266945362,0.025428688153624535,1.053473711013794,51350.0,4.868744850158691,2.17919921875,-9.886630058288574,40.57295227050781,35.93507766723633,29.67558479309082,0.0,0.0,8.452821731567383,-545.6787109375,1210.6209716796875,3910,0.0,0.0,0.0,-1.8934141397476196,-3.8099801540374756,-13.32968521118164,2760.66015625,1659.059814453125
98488.767,18.297718048095703,-32.048622131347656,-2.878361463546753,-0.016901182010769844,0.023312827572226524,1.0512109994888306,51350.0,4.868744850158691,2.17919921875,-9.886630058288574,40.57295227050781,35.93507766723633,29.118038177490234,0.0,0.0,8.459708213806152,-99.2977294921875,1006.087646484375,3839,0.0,0.0,0.0,-1.8934141397476196,-3.8099801540374756,-13.32968521118164,2255.579833984375,3003.180419921875
98490.779,19.46091651916504,-34.37953186035156,-2.6501097679138184,-0.017057284712791443,0.017341412603855133,1.0494600534439087,51350.0,4.868744850158691,2.17919921875,-9.886630058288574,39.739036560058594,35.422882080078125,29.358993530273438,0.0,0.0,8.466596603393555,-1569.693115234375,1137.74951171875,3841,0.0,0.0,0.0,-1.7544277906417847,-3.7246146202087402,-13.330978393554688,1428.9599609375,2157.619873046875
98492.716,19.808584213256836,-37.05348587036133,-2.360764980316162,-0.0173280518501997,0.009061277844011784,1.0499234199523926,51350.0,4.868744850158691,2.17919921875,-9.886630058288574,39.739036560058594,35.422882080078125,29.139575958251953,0.0,0.0,8.473484992980957,-1602.6326904296875,2081.39404296875,3780,0.0,0.0,0.0,-1.7544277906417847,-3.7246146202087402,-13.330978393554688,1505.27978515625,2037.340087890625
98494.751,20.544343948364258,-39.379398345947266,-2.249802350997925,-0.01597798429429531,0.006268656812608242,1.0494869947433472,51350.0,4.868744850158691,2.17919921875,-9.886630058288574,38.78715133666992,34.8907585144043,28.90583610534668,0.0,0.0,8.480371475219727,-2547.185302734375,1201.0496826171875,3738,0.0,0.0,0.0,-1.5957802534103394,-3.635927200317383,-13.329648971557617,1428.9599609375,2157.619873046875
98496.668,22.105998992919922,-40.97056198120117,-2.204981565475464,-0.014575066976249218,0.007999217137694359,1.0500694513320923,51350.0,4.868744850158691,2.17919921875,-9.886630058288574,38.78715133666992,34.8907585144043,29.145370483398438,0.0,0.0,8.487257957458496,-1520.88427734375,746.47265625,3762,0.0,0.0,0.0,-1.5957802534103394,-3.635927200317383,-13.329648971557617,-348.27984619140625,2608.14013671875
98498.649,23.951004028320312,-42.469886779785156,-2.0920069217681885,-0.013203560374677181,0.0116885332390666,1.0498933792114258,51350.0,4.868744850158691,2.17919921875,-9.886630058288574,37.76179122924805,34.274749755859375,28.70707893371582,0.0,0.0,8.494138717651367,-2599.72802734375,-297.1983642578125,3695,0.0,0.0,0.0,-1.4248872995376587,-3.533259391784668,-13.327189445495605,-3616.680908203125,854.0201416015625
98500.641,25.269819259643555,-44.154048919677734,-1.944116473197937,-0.011768017895519733,0.015940740704536438,1.0458669662475586,51350.0,4.868744850158691,2.17919921875,-9.886630058288574,37.76179122924805,34.274749755859375,29.14437484741211,0.0,0.0,8.501019477844238,-2221.960205078125,361.62823486328125,3730,0.0,0.0,0.0,-1.4248872995376587,-3.533259391784668,-13.327189445495605,-929.3997802734375,825.97998046875
98502.594,25.867462158203125,-45.40913772583008,-1.6837979555130005,-0.009380788542330265,0.02063346654176712,1.043128490447998,51350.0,4.868744850158691,2.17919921875,-9.886630058288574,36.6665153503418,33.60877990722656,28.340301513671875,0.0,0.0,8.507891654968262,-3074.166748046875,213.4881591796875,3602,0.0,0.0,0.0,-1.242341160774231,-3.422264337539673,-13.322709083557129,-2163.5,1209.8402099609375
98530.257,33.74779510498047,-58.194393157958984,-1.2017287015914917,-0.012330165132880211,-0.0056309448555111885,1.0573610067367554,51350.0,4.868744850158691,2.17919921875,-9.886630058288574,27.552291870117188,28.12133026123047,27.993518829345703,0.0,0.0,8.603558540344238,-5726.99169921875,-1429.183349609375,3503,0.0,0.0,0.0,0.2766962945461273,-2.5076889991760254,-13.283458709716797,-5692.7607421875,-2778.900146484375
98532.196,33.8788948059082,-58.04048538208008,-1.3987146615982056,-0.01467759907245636,-0.009988110512495041,1.0618882179260254,51350.0,4.868744850158691,2.17919921875,-9.886630058288574,27.552291870117188,28.12133026123047,28.99132537841797,0.0,0.0,8.610352516174316,-4457.79833984375,-961.95947265625,3646,0.0,0.0,0.0,0.2766962945461273,-2.5076889991760254,-13.283458709716797,-4982.48046875,-870.4002075195312
98534.235,33.95939254760742,-58.191253662109375,-1.2812738418579102,-0.015525146387517452,-0.01152310986071825,1.0623483657836914,51350.0,4.868744850158691,2.17919921875,-9.886630058288574,26.17096710205078,27.288448333740234,28.134689331054688,0.0,0.0,8.61713695526123,-5952.11279296875,-1685.67626953125,3529,0.0,0.0,0.0,0.5069169998168945,-2.368875503540039,-13.278688430786133,-5914.7412109375,-3712.759033203125
98536.149,33.474971771240234,-57.860511779785156,-1.0088154077529907,-0.016732603311538696,-0.014325893484055996,1.0591354370117188,51350.0,4.868744850158691,2.17919921875,-9.886630058288574,26.17096710205078,27.288448333740234,28.976272583007812,0.0,0.0,8.623921394348145,-4505.375,-564.6629638671875,3598,0.0,0.0,0.0,0.5069169998168945,-2.368875503540039,-13.278688430786133,-5897.640625,-1048.0599365234375
98538.127,32.94214630126953,-56.84800338745117,-1.024872899055481,-0.017705002799630165,-0.01777099072933197,1.0550891160964966,51350.0,4.868744850158691,2.17919921875,-9.886630058288574,24.825307846069336,26.484712600708008,28.074573516845703,0.0,0.0,8.630695343017578,-5053.26953125,-1171.7977294921875,3491,0.0,0.0,0.0,0.7311936020851135,-2.234919309616089,-13.273669242858887,-5667.201171875,-663.400146484375
98540.119,32.59994125366211,-55.94330978393555,-1.2759265899658203,-0.018125800415873528,-0.021206332370638847,1.0523275136947632,51350.0,4.868744850158691,2.17919921875,-9.886630058288574,24.825307846069336,26.484712600708008,28.959705352783203,0.0,0.0,8.637469291687012,-3989.1787109375,-660.6305541992188,3628,0.0,0.0,0.0,0.7311936020851135,-2.234919309616089,-13.273669242858887,-5604.4609375,-2702.659423828125
98542.076,31.900447845458984,-54.971405029296875,-1.5466028451919556,-0.0182564128190279,-0.024038735777139664,1.0510880947113037,51350.0,4.868744850158691,2.17919921875,-9.886630058288574,23.52642822265625,25.710411071777344,28.581369400024414,0.0,0.0,8.64423942565918,-4961.9775390625,-984.611572265625,3615,0.0,0.0,0.0,0.9476735591888428,-2.1058690547943115,-13.271541595458984,-5574.64111328125,-1703.9798583984375
98544.097,30.963966369628906,-54.12160873413086,-1.706876277923584,-0.019844984635710716,-0.021406859159469604,1.0542969703674316,51350.0,4.868744850158691,2.17919921875,-9.886630058288574,23.52642822265625,25.710411071777344,28.960479736328125,0.0,0.0,8.651009559631348,-3951.9296875,-85.6722412109375,3680,0.0,0.0,0.0,0.9476735591888428,-2.1058690547943115,-13.271541595458984,-5853.2802734375,-3372.480224609375
98546.023,30.097511291503906,-53.32583236694336,-1.6212126016616821,-0.021314840763807297,-0.018247848376631737,1.0573381185531616,51350.0,4.868744850158691,2.17919921875,-9.886630058288574,22.270381927490234,24.977481842041016,28.767528533935547,0.0,0.0,8.657776832580566,-5003.52001953125,-667.8599853515625,3646,0.0,0.0,0.0,1.15701425075531,-1.9837145805358887,-13.270438194274902,-6407.12060546875,-1808.0396728515625
98547.989,28.920867919921875,-52.72256851196289,-1.5428900718688965,-0.01967577449977398,-0.013866886496543884,1.0566661357879639,51350.0,4.868744850158691,2.17919921875,-9.886630058288574,22.270381927490234,24.977481842041016,28.967391967773438,0.0,0.0,8.664544105529785,-4115.38037109375,290.97454833984375,3661,0.0,0.0,0.0,1.15701425075531,-1.9837145805358887,-13.270438194274902,-4915.40087890625,-527.4801025390625
98550.0,27.829145431518555,-52.299537658691406,-1.5539931058883667,-0.01766284368932247,-0.009708351455628872,1.0546241998672485,51350.0,4.868744850158691,2.17919921875,-9.886630058288574,21.0390625,24.295745849609375,28.83296012878418,0.0,0.0,8.671310424804688,-5295.28759765625,-222.52008056640625,3646,0.0,0.0,0.0,1.3622345924377441,-1.8700920343399048,-13.269658088684082,-6809.9599609375,-1777.5596923828125
98551.936,26.906206130981445,-51.71270751953125,-1.5479764938354492,-0.015358022414147854,-0.006651373580098152,1.052261233329773,51350.0,4.868744850158691,2.17919921875,-9.886630058288574,21.0390625,24.295745849609375,28.976245880126953,0.0,0.0,8.67807674407959,-4160.92431640625,300.63543701171875,3662,0.0,0.0,0.0,1.3622345924377441,-1.8700920343399048,-13.269658088684082,-7201.96044921875,-1770.9793701171875
98553.971,25.85311508178711,-50.31279754638672,-1.4772899150848389,-0.014667857438325882,-0.007516941986978054,1.0504858493804932,51350.0,4.868744850158691,2.17919921875,-9.886630058288574,19.85573387145996,23.6613712310791,28.906543731689453,0.0,0.0,8.684842109680176,-4406.12353515625,-14.724273681640625,3646,0.0,0.0,0.0,1.5594557523727417,-1.7643625736236572,-13.269235610961914,-6622.64111328125,-4718.919921875
98555.89,24.60917854309082,-48.07499694824219,-1.635961651802063,-0.014581166207790375,-0.008710883557796478,1.0498486757278442,51350.0,4.868744850158691,2.17919921875,-9.886630058288574,19.85573387145996,23.6613712310791,28.987239837646484,0.0,0.0,8.691607475280762,-2554.539306640625,790.7813110351562,3674,0.0,0.0,0.0,1.5594557523727417,-1.7643625736236572,-13.269235610961914,-7078.88134765625,-2284.18017578125
98557.868,23.189109802246094,-45.4416618347168,-1.8355772495269775,-0.014736553654074669,-0.008028277195990086,1.0491960048675537,51350.0,4.868744850158691,2.17919921875,-9.886630058288574,18.790538787841797,23.091812133789062,29.34683609008789,0.0,0.0,8.698376655578613,-2821.5634765625,623.2875366210938,3741,0.0,0.0,0.0,1.7369885444641113,-1.669435977935791,-13.271184921264648,-5777.3212890625,-833.3401489257812
98559.859,21.468975067138672,-43.14754104614258,-1.8196673393249512,-0.014952771365642548,-0.005298338830471039,1.0480822324752808,51350.0,4.868744850158691,2.17919921875,-9.886630058288574,18.790538787841797,23.091812133789062,29.012474060058594,0.0,0.0,8.705145835876465,-1932.9598388671875,1533.5264892578125,3699,0.0,0.0,0.0,1.7369885444641113,-1.669435977935791,-13.271184921264648,-6004.08056640625,-2804.1796875
98561.815,19.781326293945312,-41.72476577758789,-1.788563847541809,-0.01773315668106079,-0.003076589200645685,1.0474921464920044,51350.0,4.868744850158691,2.17919921875,-9.886630058288574,17.817523956298828,22.602235794067383,29.468048095703125,0.0,0.0,8.711919784545898,-3248.765869140625,1321.690673828125,3750,0.0,0.0,0.0,1.8991575241088867,-1.5878400802612305,-13.273664474487305,-7008.3798828125,-2023.739990234375
98563.828,18.43386459350586,-40.30323791503906,-1.6627781391143799,-0.023087937384843826,-0.0036467062309384346,1.0465764999389648,51350.0,4.868744850158691,2.17919921875,-9.886630058288574,17.817523956298828,22.602235794067383,29.04090118408203,0.0,0.0,8.718693733215332,-2306.71142578125,1635.8519287109375,3684,0.0,0.0,0.0,1.8991575241088867,-1.5878400802612305,-13.273664474487305,-5847.82177734375,-1093.7799072265625
98565.764,17.229394912719727,-38.12480163574219,-1.5283809900283813,-0.02792419120669365,-0.005362869240343571,1.0461663007736206,51350.0,4.868744850158691,2.17919921875,-9.886630058288574,16.937625885009766,22.175933837890625,29.418109893798828,0.0,0.0,8.725471496582031,-2204.1728515625,1325.6065673828125,3713,0.0,0.0,0.0,2.045807123184204,-1.5167900323867798,-13.275711059570312,-4724.04052734375,-661.8599853515625
98567.729,15.774540901184082,-35.475128173828125,-1.6221163272857666,-0.030225522816181183,-0.0073430719785392284,1.0478198528289795,51350.0,4.868744850158691,2.17919921875,-9.886630058288574,16.937625885009766,22.175933837890625,29.066734313964844,0.0,0.0,8.73224925994873,-793.3702392578125,2051.349365234375,3682,0.0,0.0,0.0,2.045807123184204,-1.5167900323867798,-13.275711059570312,-3701.46044921875,-177.16004943847656
98569.742,13.892579078674316,-32.814422607421875,-1.7381845712661743,-0.027129407972097397,-0.007902114652097225,1.0505053997039795,51350.0,4.868744850158691,2.17919921875,-9.886630058288574,16.185522079467773,21.831329345703125,29.725831985473633,0.0,0.0,8.739034652709961,-1062.8836669921875,2343.83056640625,3775,0.0,0.0,0.0,2.1711578369140625,-1.4593555927276611,-13.279314994812012,-5373.060546875,-256.9599304199219
98571.68,12.096110343933105,-30.26502227783203,-1.8977643251419067,-0.021914655342698097,-0.007612569723278284,1.0513027906417847,51350.0,4.868744850158691,2.17919921875,-9.886630058288574,16.185522079467773,21.831329345703125,29.1019287109375,0.0,0.0,8.745820045471191,-199.875,2807.63427734375,3719,0.0,0.0,0.0,2.1711578369140625,-1.4593555927276611,-13.279314994812012,-2844.899658203125,-56.160091400146484
98573.71,10.7156982421875,-27.78236198425293,-2.0404622554779053,-0.01883295550942421,-0.005751047283411026,1.050795555114746,51350.0,4.868744850158691,2.17919921875,-9.886630058288574,15.550487518310547,21.561925888061523,30.094356536865234,0.0,0.0,8.752615928649902,-449.0618896484375,2460.190673828125,3856,0.0,0.0,0.0,2.2769968509674072,-1.4144551753997803,-13.284760475158691,-2772.999755859375,-401.3602294921875
98575.632,9.440396308898926,-25.29654884338379,-1.9661418199539185,-0.017431914806365967,-0.003299867268651724,1.053729772567749,51350.0,4.868744850158691,2.17919921875,-9.886630058288574,15.550487518310547,21.561925888061523,29.148193359375,0.0,0.0,8.759411811828613,402.4505615234375,2774.7060546875,3733,0.0,0.0,0.0,2.2769968509674072,-1.4144551753997803,-13.284760475158691,-1608.1998291015625,856.9603271484375
98577.61,7.831575393676758,-22.81317901611328,-2.0318796634674072,-0.016169382259249687,0.00031460283207707107,1.0572212934494019,51350.0,4.868744850158691,2.17919921875,-9.886630058288574,15.033880233764648,21.35883331298828,30.239715576171875,0.0,0.0,8.766220092773438,308.177001953125,3083.384765625,3872,0.0,0.0,0.0,2.36309814453125,-1.3806061744689941,-13.290753364562988,-2020.6597900390625,387.60028076171875
98579.607,5.615728855133057,-20.107852935791016,-2.1624467372894287,-0.015725478529930115,0.003693654201924801,1.062186598777771,51350.0,4.868744850158691,2.17919921875,-9.886630058288574,15.033880233764648,21.35883331298828,29.197769165039062,0.0,0.0,8.773028373718262,1267.8984375,4023.35107421875,3763,0.0,0.0,0.0,2.36309814453125,-1.3806061744689941,-13.290753364562988,-2714.319580078125,589.7200317382812
98581.557,3.3972442150115967,-17.30790138244629,-2.0187582969665527,-0.016822976991534233,0.0038602661807090044,1.066980004310608,51350.0,4.868744850158691,2.17919921875,-9.886630058288574,14.650022506713867,21.2604923248291,30.385448455810547,0.0,0.0,8.779850006103516,1413.388427734375,4269.59521484375,3888,0.0,0.0,0.0,2.427074432373047,-1.3642160892486572,-13.297277450561523,-1052.31982421875,2842.8203125
98583.569,1.296975016593933,-14.762123107910156,-1.9232550859451294,-0.018350334838032722,0.0017107129096984863,1.0687484741210938,51350.0,4.868744850158691,2.17919921875,-9.886630058288574,14.650022506713867,21.2604923248291,29.25055694580078,0.0,0.0,8.78667163848877,1892.5184326171875,4569.7294921875,3740,0.0,0.0,0.0,2.427074432373047,-1.3642160892486572,-13.297277450561523,-642.4597778320312,1203.500244140625
98585.505,-0.3236981928348541,-12.315781593322754,-1.9504365921020508,-0.020031431689858437,-0.0019447728991508484,1.0680874586105347,51350.0,4.868744850158691,2.17919921875,-9.886630058288574,14.387821197509766,21.254493713378906,30.47346305847168,0.0,0.0,8.793506622314453,1948.9110107421875,4447.73388671875,3890,0.0,0.0,0.0,2.4707746505737305,-1.3632162809371948,-13.303996086120605,2306.340087890625,2655.68017578125
98587.472,-1.6243748664855957,-9.816656112670898,-2.2161219120025635,-0.019093748182058334,-0.0038223129231482744,1.0647990703582764,51350.0,4.868744850158691,2.17919921875,-9.886630058288574,14.387821197509766,21.254493713378906,29.30453872680664,0.0,0.0,8.800341606140137,2560.018798828125,4407.33740234375,3782,0.0,0.0,0.0,2.4707746505737305,-1.3632162809371948,-13.303996086120605,30.139982223510742,1544.7802734375
98589.479,-2.9616873264312744,-7.078273296356201,-2.4715936183929443,-0.01763247884809971,-0.005247886758297682,1.0606472492218018,51350.0,4.868744850158691,2.17919921875,-9.886630058288574,14.249811172485352,21.312828063964844,30.993179321289062,0.0,0.0,8.807194709777832,3026.01025390625,4687.91259765625,4015,0.0,0.0,0.0,2.493776321411133,-1.372938871383667,-13.313287734985352,919.9400024414062,3435.92041015625
98591.421,-4.692965984344482,-4.170642375946045,-2.4515655040740967,-0.01737326942384243,-0.006276864558458328,1.057706594467163,51350.0,4.868744850158691,2.17919921875,-9.886630058288574,14.249811172485352,21.312828063964844,29.373992919921875,0.0,0.0,8.814047813415527,3692.597900390625,5199.32861328125,3819,0.0,0.0,0.0,2.493776321411133,-1.372938871383667,-13.313287734985352,351.39996337890625,1731.84033203125
98593.451,-6.655434608459473,-1.471900463104248,-2.629786729812622,-0.01801779679954052,-0.006301398389041424,1.0557423830032349,51350.0,4.868744850158691,2.17919921875,-9.886630058288574,14.246217727661133,21.4599609375,31.273590087890625,0.0,0.0,8.820921897888184,3937.5087890625,5799.5087890625,4068,0.0,0.0,0.0,2.494375228881836,-1.3974609375,-13.323744773864746,2255.159912109375,6420.52001953125
98595.376,-8.553074836730957,0.8667992949485779,-2.8449578285217285,-0.01923949085175991,-0.005405201576650143,1.0566867589950562,51350.0,4.868744850158691,2.17919921875,-9.886630058288574,14.246217727661133,21.4599609375,29.450485229492188,0.0,0.0,8.82779598236084,4020.977783203125,5925.18505859375,3875,0.0,0.0,0.0,2.494375228881836,-1.3974609375,-13.323744773864746,2007.4400634765625,3570.620361328125
98597.348,-10.422361373901367,3.045323133468628,-2.6964521408081055,-0.021794181317090988,-0.003958103712648153,1.0610510110855103,51350.0,4.868744850158691,2.512643814086914,-9.886630058288574,14.352456092834473,23.696531295776367,31.48077392578125,0.0,0.0,8.83469295501709,4323.23876953125,8197.2265625,4101,0.0,0.0,0.0,2.4766688346862793,-1.43677818775177,-13.33492374420166,3405.77978515625,5380.7001953125
98599.345,-12.35002613067627,5.420106887817383,-2.561540365219116,-0.02494034171104431,-0.0027926855254918337,1.0644721984863281,51350.0,4.868744850158691,2.512643814086914,-9.886630058288574,14.352456092834473,23.696531295776367,29.531352996826172,0.0,0.0,8.84158992767334,4746.97265625,6852.7333984375,3851,0.0,0.0,0.0,2.4766688346862793,-1.43677818775177,-13.33492374420166,2350.259765625,3761.39990234375
98601.296,-14.019376754760742,8.113903045654297,-2.690699815750122,-0.02841333858668804,-0.0009970059618353844,1.0646754503250122,51350.0,4.868744850158691,2.512643814086914,-9.886630058288574,14.583003997802734,24.016765594482422,31.655567169189453,0.0,0.0,8.848509788513184,5597.79345703125,7197.607421875,4121,0.0,0.0,0.0,2.438244104385376,-1.4901505708694458,-13.3466215133667,4791.900390625,4885.97998046875
98603.31,-15.390894889831543,10.998918533325195,-2.886776924133301,-0.029394885525107384,-0.00039123345050029457,1.0635886192321777,51350.0,4.868744850158691,2.512643814086914,-9.886630058288574,14.583003997802734,24.016765594482422,29.615379333496094,0.0,0.0,8.855429649353027,6001.0498046875,6939.7900390625,3900,0.0,0.0,0.0,2.438244104385376,-1.4901505708694458,-13.3466215133667,3824.66015625,4243.99951171875
98605.247,-16.751062393188477,13.745930671691895,-3.087573766708374,-0.026356669142842293,-0.00032353983260691166,1.0619888305664062,51350.0,4.868744850158691,2.512643814086914,-9.886630058288574,14.946517944335938,24.401201248168945,32.142333984375,0.0,0.0,8.862377166748047,6636.7607421875,7481.291015625,4227,0.0,0.0,0.0,2.3776586055755615,-1.5542232990264893,-13.360544204711914,3347.539794921875,5214.12060546875
98607.217,-18.028474807739258,16.238466262817383,-3.2965750694274902,-0.023788083344697952,-0.0021911037620157003,1.0616464614868164,51350.0,4.868744850158691,2.512643814086914,-9.886630058288574,14.946517944335938,24.401201248168945,29.712810516357422,0.0,0.0,8.869324684143066,6547.14990234375,7322.51025390625,3961,0.0,0.0,0.0,2.3776586055755615,-1.5542232990264893,-13.360544204711914,3617.060302734375,5802.8603515625
98609.222,-19.007368087768555,18.31216049194336,-3.4690184593200684,-0.023170962929725647,-0.003934770822525024,1.060652732849121,51350.0,4.868744850158691,2.512643814086914,-9.886630058288574,15.416664123535156,24.840620040893555,32.617652893066406,0.0,0.0,8.876304626464844,6967.2041015625,7640.93212890625,4330,0.0,0.0,0.0,2.2993009090423584,-1.6274597644805908,-13.376554489135742,4808.740234375,6925.3193359375
98611.162,-20.018394470214844,20.09825325012207,-3.568753480911255,-0.024162549525499344,-0.005686044692993164,1.060573935508728,51350.0,4.868744850158691,2.512643814086914,-9.886630058288574,15.416664123535156,24.840620040893555,29.822830200195312,0.0,0.0,8.883284568786621,6666.8056640625,7487.12353515625,4006,0.0,0.0,0.0,2.2993009090423584,-1.6274597644805908,-13.376554489135742,5742.03955078125,6956.259765625
98613.191,-21.60367774963379,22.126134872436523,-3.6408238410949707,-0.026620781049132347,-0.008977743797004223,1.0630730390548706,51350.0,4.868744850158691,2.512643814086914,-9.886630058288574,15.978734970092773,25.344093322753906,32.94831085205078,0.0,0.0,8.890298843383789,7658.1962890625,8608.73046875,4390,0.0,0.0,0.0,2.205622434616089,-1.7113720178604126,-13.393783569335938,6579.77978515625,7121.1201171875
98615.106,-23.5284366607666,23.984325408935547,-3.614835739135742,-0.028154771775007248,-0.009973349049687386,1.0620423555374146,51350.0,4.868744850158691,2.512643814086914,-9.886630058288574,15.978734970092773,25.344093322753906,29.940235137939453,0.0,0.0,8.897313117980957,7388.1005859375,8774.4482421875,4026,0.0,0.0,0.0,2.205622434616089,-1.7113720178604126,-13.393783569335938,5433.84033203125,6877.53955078125
98617.088,-25.047311782836914,25.42532730102539,-3.5106685161590576,-0.029055960476398468,-0.008963118307292461,1.0598640441894531,51350.0,4.868744850158691,2.512643814086914,-9.886630058288574,16.620004653930664,25.929594039916992,33.069889068603516,0.0,0.0,8.904361724853516,7868.5068359375,9224.818359375,4389,0.0,0.0,0.0,2.0987441539764404,-1.808955192565918,-13.411035537719727,6511.06005859375,8305.2392578125
98619.081,-25.93828582763672,27.06608009338379,-3.605320453643799,-0.030743366107344627,-0.007399881258606911,1.0591238737106323,51350.0,4.868744850158691,2.512643814086914,-9.886630058288574,16.620004653930664,25.929594039916992,30.057842254638672,0.0,0.0,8.911410331726074,7783.4755859375,8448.4140625,4039,0.0,0.0,0.0,2.0987441539764404,-1.808955192565918,-13.411035537719727,6710.81982421875,8483.8203125
98621.038,-26.476198196411133,29.372039794921875,-3.8846781253814697,-0.028879892081022263,-0.005497371312230825,1.0581042766571045,51350.0,4.868744850158691,2.512643814086914,-9.886630058288574,17.35407257080078,26.54641342163086,33.58558654785156,0.0,0.0,8.918498039245605,9288.9375,8819.4404296875,4496,0.0,0.0,0.0,1.9763994216918945,-1.911758542060852,-13.430486679077148,8425.740234375,8431.2197265625
98623.05,-27.112430572509766,31.57913589477539,-4.111698627471924,-0.024784095585346222,-0.002299288520589471,1.057335376739502,51350.0,4.868744850158691,2.512643814086914,-9.886630058288574,17.35407257080078,26.54641342163086,30.188724517822266,0.0,0.0,8.925585746765137,8995.3037109375,8526.0,4116,0.0,0.0,0.0,1.9763994216918945,-1.911758542060852,-13.430486679077148,6767.580078125,8206.6396484375
98624.986,-27.95286750793457,33.178585052490234,-4.359089374542236,-0.020950810983777046,0.0013340063160285354,1.0565706491470337,51350.0,4.868744850158691,2.512643814086914,-9.886630058288574,18.173303604125977,27.193893432617188,34.1968994140625,0.0,0.0,8.932717323303223,9516.794921875,9387.9501953125,4626,0.0,0.0,0.0,1.8398610353469849,-2.01967191696167,-13.452591896057129,8357.0205078125,9615.33984375
98626.953,-29.004297256469727,34.39023971557617,-4.697321891784668,-0.016368316486477852,0.006801223382353783,1.054522156715393,51350.0,4.868744850158691,2.512643814086914,-9.886630058288574,18.173303604125977,27.193893432617188,30.335620880126953,0.0,0.0,8.939848899841309,8793.2724609375,9218.30078125,4203,0.0,0.0,0.0,1.8398610353469849,-2.01967191696167,-13.452591896057129,9681.740234375,9405.798828125
98628.961,-30.12401580810547,35.26839828491211,-4.983760356903076,-0.01297685131430626,0.010878657922148705,1.0546798706054688,51350.0,4.868744850158691,2.512643814086914,-9.886630058288574,19.036285400390625,27.887266159057617,34.90104675292969,0.0,0.0,8.947031021118164,9451.556640625,10061.513671875,4786,0.0,0.0,0.0,1.6960307359695435,-2.1352336406707764,-13.477775573730469,7624.06005859375,8824.0595703125
98630.907,-30.816852569580078,36.25342559814453,-5.026767730712891,-0.013408943079411983,0.012692374177277088,1.0546518564224243,51350.0,4.868744850158691,2.512643814086914,-9.886630058288574,19.036285400390625,27.887266159057617,30.501087188720703,0.0,0.0,8.95421314239502,9032.2275390625,9325.2421875,4263,0.0,0.0,0.0,1.6960307359695435,-2.1352336406707764,-13.477775573730469,9613.0205078125,10589.9189453125
