timestamp,gyro.x,gyro.y,gyro.z,acc.x,acc.y,acc.z,controller.actuatorThrust,controller.pitch,controller.roll,controller.yaw,pid_attitude.pitch_output,pid_attitude.roll_output,pid_attitude.yaw_output,pid_attitude.pitch_outI,pid_attitude.roll_outI,pid_attitude.yaw_outI,pid_rate.pitch_output,pid_rate.roll_output,pid_rate.yaw_output,pid_rate.pitch_outI,pid_rate.roll_outI,pid_rate.yaw_outI,stateEstimate.pitch,stateEstimate.roll,stateEstimate.yaw,snn_control.torque_pitch,snn_control.torque_roll
38758.306,-0.7632608413696289,-12.202613830566406,-1.43845796585083,-0.016325194388628006,-0.02271891199052334,1.0198673009872437,49176.0,1.8590692281723022,0.8172799944877625,74.42678833007812,21.121780395507812,8.954086303710938,15.815215110778809,0.0,0.0,4.753081321716309,1218.492431640625,1519.7413330078125,2070,0.0,0.0,0.0,-1.6612275838851929,-0.675067663192749,72.58309936523438,1573.2598876953125,1867.540283203125
38760.28,-0.8782381415367126,-11.600049018859863,-1.4058037996292114,-0.01445318665355444,-0.017035644501447678,1.0165622234344482,49176.0,1.8590692281723022,0.8172799944877625,74.42678833007812,20.83608627319336,8.978740692138672,16.742748260498047,0.0,0.0,4.756778717041016,1623.05859375,1583.270263671875,2177,0.0,0.0,0.0,-1.6136119365692139,-0.6791768670082092,72.57799530029297,700.919921875,743.7598876953125
39028.747,1.4542367458343506,8.38659954071045,-1.0760211944580078,-0.003166148206219077,-0.0032368130050599575,0.9996269345283508,49176.0,1.8590692281723022,0.8172799944877625,74.42678833007812,15.146258354187012,13.366273880004883,20.80138397216797,0.0,0.0,5.341514587402344,3549.124755859375,1793.0010986328125,2625,0.0,0.0,0.0,-0.6653071045875549,-1.4104323387145996,71.99967956542969,3634.980224609375,534.9600219726562
39030.776,1.4660191535949707,8.34933853149414,-0.8879979848861694,-0.0003043190226890147,-0.008108431473374367,0.9947327971458435,49176.0,1.8590692281723022,0.8172799944877625,74.42678833007812,15.146258354187012,13.366273880004883,19.909021377563477,0.0,0.0,5.346368789672852,3496.39453125,1776.2020263671875,2495,0.0,0.0,0.0,-0.6653071045875549,-1.4104323387145996,71.99967956542969,3730.120361328125,100.58000946044922
39032.732,1.958489179611206,8.384374618530273,-0.4060434401035309,0.0022859848104417324,-0.01266761589795351,0.9889319539070129,49176.0,1.8590692281723022,0.8172799944877625,74.42678833007812,15.33918571472168,13.312963485717773,20.358535766601562,0.0,0.0,5.351227760314941,3729.505859375,1293.8353271484375,2491,0.0,0.0,0.0,-0.6974617838859558,-1.4015473127365112,71.99722290039062,5096.68115234375,2392.980224609375
39034.666,2.6754019260406494,8.30483341217041,-0.13570041954517365,-0.0016452290583401918,-0.013081846758723259,0.9866023659706116,49176.0,1.8590692281723022,0.8172799944877625,74.42678833007812,15.33918571472168,13.312963485717773,19.93347930908203,0.0,0.0,5.356086730957031,3486.94775390625,1057.9500732421875,2408,0.0,0.0,0.0,-0.6974617838859558,-1.4015473127365112,71.99722290039062,5591.70068359375,441.3800048828125
39036.645,3.1087136268615723,7.804595470428467,-0.025101570412516594,-0.008041149005293846,-0.010874496772885323,0.9866505265235901,49176.0,1.8590692281723022,0.8172799944877625,74.42678833007812,15.523853302001953,13.231046676635742,20.094383239746094,0.0,0.0,5.360947608947754,3262.589111328125,1131.9287109375,2414,0.0,0.0,0.0,-0.7282397747039795,-1.3878945112228394,71.9963607788086,2915.160400390625,1221.1397705078125
39038.608,3.391090154647827,7.424826145172119,0.13363942503929138,-0.011419243179261684,-0.008740209974348545,0.9858052730560303,49176.0,1.8590692281723022,0.8172799944877625,74.42678833007812,15.523853302001953,13.231046676635742,19.948373794555664,0.0,0.0,5.365808486938477,3157.47412109375,1264.21044921875,2377,0.0,0.0,0.0,-0.7282397747039795,-1.3878945112228394,71.9963607788086,6221.1201171875,747.380126953125
39040.669,3.8124635219573975,7.735282897949219,0.4502105712890625,-0.012878243811428547,-0.005933222360908985,0.9863268733024597,49176.0,1.8590692281723022,0.8172799944877625,74.42678833007812,15.709513664245605,13.129494667053223,19.76128387451172,0.0,0.0,5.370667457580566,3888.80859375,1005.3606567382812,2317,0.0,0.0,0.0,-0.7591829299926758,-1.3709691762924194,71.99742126464844,5263.00048828125,284.7398681640625
39042.588,4.3277506828308105,7.991137981414795,0.7982755899429321,-0.011949584819376469,-0.004236267413944006,0.9866242408752441,49176.0,1.8590692281723022,0.8172799944877625,74.42678833007812,15.709513664245605,13.129494667053223,19.95172882080078,0.0,0.0,5.375526428222656,3746.98779296875,933.796875,2298,0.0,0.0,0.0,-0.7591829299926758,-1.3709691762924194,71.99742126464844,4949.94091796875,106.23991394042969
39044.54,5.108701705932617,7.696059226989746,1.0887643098831177,-0.009976555593311787,-0.003451958065852523,0.9849813580513,49176.0,1.8590692281723022,0.8172799944877625,74.42678833007812,15.892709732055664,12.995412826538086,19.29926300048828,0.0,0.0,5.380377769470215,3454.40283203125,496.731689453125,2185,0.0,0.0,0.0,-0.7897157073020935,-1.3486220836639404,72.00105285644531,3734.5,-538.9000244140625
39046.504,5.975071907043457,6.672273635864258,1.4020267724990845,-0.009883043356239796,-0.0036112158559262753,0.9867310523986816,49176.0,1.8590692281723022,0.8172799944877625,74.42678833007812,15.892709732055664,12.995412826538086,19.93964195251465,0.0,0.0,5.385229110717773,2616.9091796875,403.27349853515625,2224,0.0,0.0,0.0,-0.7897157073020935,-1.3486220836639404,72.00105285644531,5078.400390625,814.8400268554688
39048.493,6.559606075286865,5.3466620445251465,1.7461369037628174,-0.010260464623570442,-0.004690391011536121,0.9901527762413025,49176.0,1.8590692281723022,0.8172799944877625,74.42678833007812,16.019916534423828,12.827142715454102,18.77069854736328,0.0,0.0,5.3900675773620605,2306.18359375,375.52728271484375,2042,0.0,0.0,0.0,-0.8109170198440552,-1.3205771446228027,72.00753784179688,5968.92041015625,940.3802490234375
39050.536,6.792538166046143,4.602118015289307,1.9255468845367432,-0.010490648448467255,-0.005276522599160671,0.9950774312019348,49176.0,1.8590692281723022,0.8172799944877625,74.42678833007812,16.019916534423828,12.827142715454102,19.91040802001953,0.0,0.0,5.394906044006348,2534.896484375,730.4915771484375,2158,0.0,0.0,0.0,-0.8109170198440552,-1.3205771446228027,72.00753784179688,5229.28076171875,458.84027099609375
39052.464,7.035033702850342,4.414429187774658,2.050631046295166,-0.0108117014169693,-0.004494305234402418,0.9975556135177612,49176.0,1.8590692281723022,0.8172799944877625,74.42678833007812,16.12503433227539,12.647478103637695,18.50255012512207,0.0,0.0,5.399728775024414,3018.9912109375,525.24658203125,1974,0.0,0.0,0.0,-0.8284364342689514,-1.290632963180542,72.01534271240234,3038.199951171875,-1050.1600341796875
39054.403,7.5459208488464355,4.0449724197387695,2.2909843921661377,-0.010814257897436619,-0.004060776904225349,0.9995207786560059,49176.0,1.8590692281723022,0.8172799944877625,74.42678833007812,16.12503433227539,12.647478103637695,19.873226165771484,0.0,0.0,5.4045515060424805,2748.408203125,382.0682373046875,2109,0.0,0.0,0.0,-0.8284364342689514,-1.290632963180542,72.01534271240234,5103.22021484375,-448.5201721191406
39056.388,8.37987232208252,3.2173142433166504,2.5513665676116943,-0.010908352211117744,-0.004159998148679733,1.0011141300201416,49176.0,1.8590692281723022,0.8172799944877625,74.42678833007812,16.201627731323242,12.435433387756348,18.08007049560547,0.0,0.0,5.4093546867370605,2349.54296875,-176.16290283203125,1863,0.0,0.0,0.0,-0.8412020802497864,-1.255292296409607,72.02527618408203,4372.64013671875,1174.6201171875
39058.349,9.378018379211426,2.1388676166534424,2.718614101409912,-0.010747890919446945,-0.004321099258959293,0.9988477826118469,49176.0,1.8590692281723022,0.8172799944877625,74.42678833007812,16.201627731323242,12.435433387756348,19.823230743408203,0.0,0.0,5.414157867431641,1942.2403564453125,-289.99725341796875,2052,0.0,0.0,0.0,-0.8412020802497864,-1.255292296409607,72.02527618408203,3199.959716796875,1088.7598876953125
39060.41,10.021758079528809,1.0884326696395874,2.9134461879730225,-0.010149643756449223,-0.004159001633524895,0.9979071617126465,49176.0,1.8590692281723022,0.8172799944877625,74.42678833007812,16.226943969726562,12.184173583984375,17.734535217285156,0.0,0.0,5.418937683105469,1828.466552734375,-346.8872375488281,1778,0.0,0.0,0.0,-0.8454214334487915,-1.2134156227111816,72.0368423461914,2276.84033203125,2031.84033203125
39062.33,10.573756217956543,-0.17776897549629211,2.869246244430542,-0.008891211822628975,-0.0033998151775449514,0.9966106414794922,49176.0,1.8590692281723022,0.8172799944877625,74.42678833007812,16.226943969726562,12.184173583984375,19.76339340209961,0.0,0.0,5.423717498779297,1457.7255859375,-172.4359893798828,2027,0.0,0.0,0.0,-0.8454214334487915,-1.2134156227111816,72.0368423461914,3682.83984375,-2082.39990234375
39064.288,11.0765380859375,-1.625205159187317,2.6938014030456543,-0.007191475480794907,-0.0024323987308889627,0.9960379004478455,49176.0,1.8590692281723022,0.8172799944877625,74.42678833007812,16.185558319091797,11.907116889953613,17.79205322265625,0.0,0.0,5.428475379943848,1067.4365234375,-460.2920837402344,1811,0.0,0.0,0.0,-0.8385241031646729,-1.1672395467758179,72.04776000976562,3561.93994140625,-1148.8201904296875
39066.246,11.425390243530273,-2.9990925788879395,2.961196184158325,-0.005304822698235512,-0.0017523184651508927,0.9958909749984741,49176.0,1.8590692281723022,0.8172799944877625,74.42678833007812,16.185558319091797,11.907116889953613,19.7074031829834,0.0,0.0,5.433233261108398,947.5546875,-189.38009643554688,2009,0.0,0.0,0.0,-0.8385241031646729,-1.1672395467758179,72.04776000976562,3328.93994140625,-1185.900146484375
39068.228,11.80254077911377,-4.323313236236572,3.282013416290283,-0.0039013721980154514,-0.0013510864228010178,0.994147539138794,49176.0,1.8590692281723022,0.8172799944877625,74.42678833007812,16.078153610229492,11.612277030944824,17.27342987060547,0.0,0.0,5.43796443939209,689.507080078125,-532.5323486328125,1678,0.0,0.0,0.0,-0.820622980594635,-1.118099570274353,72.06123352050781,2962.53955078125,-877.7999877929688
39070.239,12.129814147949219,-5.516229629516602,3.305462121963501,-0.0019760248251259327,-0.0005679791211150587,0.9922589063644409,49176.0,1.8590692281723022,0.8172799944877625,74.42678833007812,16.078153610229492,11.612277030944824,19.636024475097656,0.0,0.0,5.442695617675781,689.6009521484375,-323.0855712890625,1959,0.0,0.0,0.0,-0.820622980594635,-1.118099570274353,72.06123352050781,2194.919921875,-1323.3199462890625
39072.215,12.57373046875,-6.675769805908203,3.387681007385254,-0.0022207070142030716,-0.0016641977708786726,0.9929109811782837,49176.0,1.8590692281723022,0.8172799944877625,74.42678833007812,15.913719177246094,11.299552917480469,17.095691680908203,0.0,0.0,5.447398662567139,392.7115478515625,-758.60693359375,1644,0.0,0.0,0.0,-0.7932174205780029,-1.0659788846969604,72.0752944946289,1673.6600341796875,-788.1800537109375
39074.143,13.227957725524902,-7.820426940917969,3.5268428325653076,-0.0038754113484174013,-0.0037989537231624126,0.996277928352356,49176.0,1.8590692281723022,0.8172799944877625,74.42678833007812,15.913719177246094,11.299552917480469,19.561065673828125,0.0,0.0,5.452101707458496,355.5010986328125,-779.93115234375,1924,0.0,0.0,0.0,-0.7932174205780029,-1.0659788846969604,72.0752944946289,1691.080078125,-719.9400634765625
39076.122,13.558859825134277,-8.970113754272461,3.625359535217285,-0.005331721156835556,-0.007122979965060949,1.0009039640426636,49176.0,1.8590692281723022,0.8172799944877625,74.42678833007812,15.696380615234375,10.966609954833984,16.824609756469727,0.0,0.0,5.4567742347717285,-16.32891845703125,-886.7213134765625,1583,0.0,0.0,0.0,-0.7569941878318787,-1.0104882717132568,72.09043884277344,2216.83984375,-1262.06005859375
39078.086,13.505264282226562,-10.236613273620605,3.791175365447998,-0.007863743230700493,-0.011158380657434464,1.0063444375991821,49176.0,1.8590692281723022,0.8172799944877625,74.42678833007812,15.696380615234375,10.966609954833984,19.479543685913086,0.0,0.0,5.461446762084961,-130.9095458984375,-340.60150146484375,1882,0.0,0.0,0.0,-0.7569941878318787,-1.0104882717132568,72.09043884277344,1738.9598388671875,-1151.900146484375
39080.119,13.639385223388672,-11.468990325927734,3.8768115043640137,-0.010759478434920311,-0.011220906861126423,1.0097218751907349,49176.0,1.8590692281723022,0.8172799944877625,74.42678833007812,15.42253589630127,10.634418487548828,16.535919189453125,0.0,0.0,5.4660868644714355,-536.6343994140625,-800.479248046875,1519,0.0,0.0,0.0,-0.7113534212112427,-0.9551230669021606,72.10672760009766,1506.979736328125,-1096.300048828125
39082.079,14.315889358520508,-12.882474899291992,3.892003297805786,-0.011748525314033031,-0.009481844492256641,1.0104084014892578,49176.0,1.8590692281723022,0.8172799944877625,74.42678833007812,15.42253589630127,10.634418487548828,19.391090393066406,0.0,0.0,5.47072696685791,-679.104248046875,-1059.5986328125,1859,0.0,0.0,0.0,-0.7113534212112427,-0.9551230669021606,72.10672760009766,201.9999542236328,389.8601379394531
39084.036,15.098727226257324,-14.018226623535156,3.9276340007781982,-0.011768568307161331,-0.006541920825839043,1.0098549127578735,49176.0,1.8590692281723022,0.8172799944877625,74.42678833007812,15.088624954223633,10.265266418457031,16.389434814453125,0.0,0.0,5.4753336906433105,-941.6871948242188,-1589.011474609375,1495,0.0,0.0,0.0,-0.6557015776634216,-0.8935976624488831,72.12333679199219,743.6799926757812,-140.47994995117188
39085.986,15.55904769897461,-14.95799446105957,3.761843204498291,-0.01270652562379837,-0.0034366250038146973,1.0093711614608765,49176.0,1.8590692281723022,0.8172799944877625,74.42678833007812,15.088624954223633,10.265266418457031,19.300649642944336,0.0,0.0,5.479940414428711,-685.2313232421875,-1139.3076171875,1864,0.0,0.0,0.0,-0.6557015776634216,-0.8935976624488831,72.12333679199219,131.19992065429688,-752.280029296875
39087.967,15.800688743591309,-15.988375663757324,3.528061866760254,-0.008943915367126465,-0.0026758539024740458,1.0044026374816895,49176.0,1.8590692281723022,0.8172799944877625,74.42678833007812,14.706378936767578,9.877981185913086,16.576526641845703,0.0,0.0,5.4845170974731445,-1251.77001953125,-1360.100830078125,1565,0.0,0.0,0.0,-0.5919938683509827,-0.8290502429008484,72.13841247558594,652.5599975585938,-2063.840087890625
39089.981,15.94565486907959,-17.08749008178711,3.3216300010681152,-0.0032561509869992733,-0.00357152265496552,0.9990531206130981,49176.0,1.8590692281723022,0.8172799944877625,74.42678833007812,14.706378936767578,9.877981185913086,19.219348907470703,0.0,0.0,5.489093780517578,-1181.50244140625,-1018.8756713867188,1907,0.0,0.0,0.0,-0.5919938683509827,-0.8290502429008484,72.13841247558594,553.9998168945312,-1733.2001953125
39091.948,16.09754180908203,-18.119070053100586,3.2241220474243164,0.002118915319442749,-0.004739651456475258,0.993666410446167,49176.0,1.8590692281723022,0.8172799944877625,74.42678833007812,14.26758098602295,9.485513687133789,16.710622787475586,0.0,0.0,5.493642807006836,-1680.5067138671875,-1400.070068359375,1618,0.0,0.0,0.0,-0.5188608169555664,-0.7636390328407288,72.15229797363281,73.03986358642578,-2033.380126953125
39093.884,16.173444747924805,-19.032428741455078,3.296952724456787,0.001807413762435317,-0.0065466901287436485,0.9945439100265503,49176.0,1.8590692281723022,0.8172799944877625,74.42678833007812,14.26758098602295,9.485513687133789,19.14513397216797,0.0,0.0,5.498191833496094,-1399.74609375,-1060.1168212890625,1901,0.0,0.0,0.0,-0.5188608169555664,-0.7636390328407288,72.15229797363281,-2965.879638671875,-2526.81982421875
39095.869,15.891434669494629,-19.888219833374023,3.3208982944488525,-0.002499221358448267,-0.00847206637263298,1.0005803108215332,49176.0,1.8590692281723022,0.8172799944877625,74.42678833007812,13.789619445800781,9.100727081298828,16.563190460205078,0.0,0.0,5.502712249755859,-1915.1044921875,-1095.6884765625,1589,0.0,0.0,0.0,-0.4392006993293762,-0.6995078325271606,72.16658782958984,-3306.72021484375,-2835.659912109375
39097.83,15.513692855834961,-20.741863250732422,3.210625171661377,-0.007434481754899025,-0.008445240557193756,1.0076711177825928,49176.0,1.8590692281723022,0.8172799944877625,74.42678833007812,13.789619445800781,9.100727081298828,19.068435668945312,0.0,0.0,5.507232666015625,-1683.069091796875,-678.6385498046875,1902,0.0,0.0,0.0,-0.4392006993293762,-0.6995078325271606,72.16658782958984,-1106.919921875,-171.25979614257812
39099.86,15.450732231140137,-21.58640480041504,3.154696226119995,-0.012525408528745174,-0.007549317553639412,1.0145747661590576,49176.0,1.8590692281723022,0.8172799944877625,74.42678833007812,13.277017593383789,8.72671890258789,16.610748291015625,0.0,0.0,5.511725902557373,-2264.265625,-1241.8876953125,1614,0.0,0.0,0.0,-0.35376691818237305,-0.6371732354164124,72.18019104003906,-1873.4599609375,-714.1400756835938
39101.809,15.48858642578125,-22.352706909179688,3.069798707962036,-0.01839359663426876,-0.004067091271281242,1.0154473781585693,49176.0,1.8590692281723022,0.8172799944877625,74.42678833007812,13.277017593383789,8.72671890258789,18.995803833007812,0.0,0.0,5.516219139099121,-1936.0799560546875,-1042.6707763671875,1911,0.0,0.0,0.0,-0.35376691818237305,-0.6371732354164124,72.18019104003906,-1379.39990234375,-249.09988403320312
39103.758,15.54853343963623,-23.25539207458496,2.9145801067352295,-0.022736450657248497,0.0008204831974580884,1.0131416320800781,49176.0,1.8590692281723022,0.8172799944877625,74.42678833007812,12.73065185546875,8.346616744995117,16.71346664428711,0.0,0.0,5.520687103271484,-2665.4990234375,-1410.3243408203125,1655,0.0,0.0,0.0,-0.2627061605453491,-0.5738228559494019,72.19282531738281,-1306.419921875,-763.300048828125
39105.724,15.331629753112793,-24.236665725708008,2.963430881500244,-0.02655222825706005,0.005461171269416809,1.0106275081634521,49176.0,1.8590692281723022,0.8172799944877625,74.42678833007812,12.73065185546875,8.346616744995117,18.928932189941406,0.0,0.0,5.525155067443848,-2461.857421875,-885.07421875,1915,0.0,0.0,0.0,-0.2627061605453491,-0.5738228559494019,72.19282531738281,-1557.22021484375,-672.7199096679688
39107.709,14.957074165344238,-24.82682228088379,3.269235134124756,-0.030866917222738266,0.007895814254879951,1.0091320276260376,49176.0,1.8590692281723022,0.8172799944877625,74.42678833007812,12.151994705200195,7.977586269378662,16.399383544921875,0.0,0.0,5.529594898223877,-2777.83447265625,-1042.7794189453125,1575,0.0,0.0,0.0,-0.1662631779909134,-0.5123176574707031,72.20682525634766,-1797.2801513671875,-1798.619873046875
39109.72,14.67353630065918,-25.046401977539062,3.360029697418213,-0.031471434980630875,0.005262536462396383,1.0081062316894531,49176.0,1.8590692281723022,0.8172799944877625,74.42678833007812,12.151994705200195,7.977586269378662,18.85381317138672,0.0,0.0,5.534034729003906,-2098.845947265625,-791.7391357421875,1859,0.0,0.0,0.0,-0.1662631779909134,-0.5123176574707031,72.20682525634766,-4143.5400390625,-3013.3798828125
39111.684,14.281591415405273,-25.029619216918945,3.2201201915740967,-0.02957064099609852,0.0009578168974258006,1.0084420442581177,49176.0,1.8590692281723022,0.8172799944877625,74.42678833007812,11.568623542785645,7.62924861907959,16.378093719482422,0.0,0.0,5.538447380065918,-2444.090576171875,-965.14599609375,1578,0.0,0.0,0.0,-0.06903469562530518,-0.45426145195961,72.22052764892578,-3127.0595703125,-231.75999450683594
39113.634,13.905301094055176,-25.069822311401367,3.122244119644165,-0.030529772862792015,-0.0030790597666054964,1.0136018991470337,49176.0,1.8590692281723022,0.8172799944877625,74.42678833007812,11.568623542785645,7.62924861907959,18.780424118041992,0.0,0.0,5.54286003112793,-2055.33203125,-659.190185546875,1878,0.0,0.0,0.0,-0.06903469562530518,-0.45426145195961,72.22052764892578,-2351.619873046875,-1098.260009765625
39115.605,13.653634071350098,-25.046157836914062,3.1858954429626465,-0.03241289407014847,-0.005720613524317741,1.0189837217330933,49176.0,1.8590692281723022,0.8172799944877625,74.42678833007812,10.987055778503418,7.300256252288818,16.34610366821289,0.0,0.0,5.547245502471924,-2527.292724609375,-1011.0006713867188,1579,0.0,0.0,0.0,0.0278933122754097,-0.3994293510913849,72.23400115966797,-2960.8203125,-437.6000061035156
39117.565,13.210939407348633,-25.145200729370117,3.263782501220703,-0.03494855388998985,-0.006692434195429087,1.0257847309112549,49176.0,1.8590692281723022,0.8172799944877625,74.42678833007812,10.987055778503418,7.300256252288818,18.708354949951172,0.0,0.0,5.551630973815918,-2198.00390625,-554.5814819335938,1853,0.0,0.0,0.0,0.0278933122754097,-0.3994293510913849,72.23400115966797,-2981.7001953125,-120.67988586425781
39119.6,12.85278606414795,-25.334903717041016,3.218271017074585,-0.037935417145490646,-0.006434035021811724,1.0322436094284058,49176.0,1.8590692281723022,0.8172799944877625,74.42678833007812,10.402128219604492,6.991483688354492,16.264339447021484,0.0,0.0,5.5559892654418945,-2820.88916015625,-842.1597900390625,1565,0.0,0.0,0.0,0.12538112699985504,-0.34796732664108276,72.24752807617188,-2351.619873046875,-1098.260009765625
39121.553,12.675802230834961,-25.489246368408203,3.1153228282928467,-0.03617299348115921,-0.0055538322776556015,1.0343574285507202,49176.0,1.8590692281723022,0.8172799944877625,74.42678833007812,10.402128219604492,6.991483688354492,18.635910034179688,0.0,0.0,5.560347557067871,-2378.82470703125,-719.909912109375,1862,0.0,0.0,0.0,0.12538112699985504,-0.34796732664108276,72.24752807617188,-2734.9599609375,-990.8999633789062
39123.503,12.309235572814941,-25.3841495513916,2.888986587524414,-0.03219953179359436,-0.004859143402427435,1.034486174583435,49176.0,1.8590692281723022,0.8172799944877625,74.42678833007812,9.813785552978516,6.695523262023926,16.450103759765625,0.0,0.0,5.5646820068359375,-2697.989013671875,-789.1021728515625,1627,0.0,0.0,0.0,0.22343821823596954,-0.29864054918289185,72.25962829589844,-4415.7607421875,-3087.199951171875
39125.462,11.782666206359863,-25.03709602355957,2.559485912322998,-0.027760853990912437,-0.004764071200042963,1.032992959022522,49176.0,1.8590692281723022,0.8172799944877625,74.42678833007812,9.813785552978516,6.695523262023926,18.571975708007812,0.0,0.0,5.569016456604004,-2023.2064208984375,-368.1444091796875,1921,0.0,0.0,0.0,0.22343821823596954,-0.29864054918289185,72.25962829589844,-2767.65966796875,255.40008544921875
39127.447,11.40973949432373,-24.679550170898438,2.3134870529174805,-0.023582294583320618,-0.005307043436914682,1.032166600227356,49176.0,1.8590692281723022,0.8172799944877625,74.42678833007812,9.238607406616211,6.421919345855713,16.81838035583496,0.0,0.0,5.573331356048584,-2479.365478515625,-673.680908203125,1740,0.0,0.0,0.0,0.31930139660835266,-0.2530398666858673,72.26934051513672,-2880.3203125,-1101.9801025390625
39129.462,11.03741455078125,-24.38479232788086,2.3301737308502197,-0.021225301548838615,-0.005037854891270399,1.032822847366333,49176.0,1.8590692281723022,0.8172799944877625,74.42678833007812,9.238607406616211,6.421919345855713,18.5223331451416,0.0,0.0,5.577646255493164,-2050.859375,-413.0805969238281,1943,0.0,0.0,0.0,0.31930139660835266,-0.2530398666858673,72.26934051513672,-2472.519775390625,-164.68003845214844
39131.43,10.59615707397461,-23.838665008544922,2.5272562503814697,-0.019706428050994873,-0.00426778057590127,1.0321710109710693,49176.0,1.8590692281723022,0.8172799944877625,74.42678833007812,8.682393074035645,6.167853355407715,16.632003784179688,0.0,0.0,5.581940174102783,-2281.005859375,-523.8519287109375,1692,0.0,0.0,0.0,0.4120037853717804,-0.2106955647468567,72.2798080444336,-2500.0400390625,1641.940185546875
39133.364,9.949113845825195,-23.115646362304688,2.5835814476013184,-0.018249180167913437,-0.0024088029749691486,1.0317918062210083,49176.0,1.8590692281723022,0.8172799944877625,74.42678833007812,8.682393074035645,6.167853355407715,18.468116760253906,0.0,0.0,5.586234092712402,-1622.72412109375,-81.90667724609375,1906,0.0,0.0,0.0,0.4120037853717804,-0.2106955647468567,72.2798080444336,-3345.140625,175.3799591064453
39135.351,9.417436599731445,-22.21833038330078,2.519566297531128,-0.016652032732963562,-0.0027615015860646963,1.0309884548187256,49176.0,1.8590692281723022,0.8172799944877625,74.42678833007812,8.164176940917969,5.941779136657715,16.59709930419922,0.0,0.0,5.590507507324219,-1823.7982177734375,-292.1463623046875,1689,0.0,0.0,0.0,0.4983731508255005,-0.17301654815673828,72.29016876220703,-2472.519775390625,-164.68003845214844
39137.316,8.970163345336914,-21.263792037963867,2.3139989376068115,-0.014073011465370655,-0.004525264725089073,1.0262104272842407,49176.0,1.8590692281723022,0.8172799944877625,74.42678833007812,8.164176940917969,5.941779136657715,18.41449737548828,0.0,0.0,5.594780921936035,-1249.03857421875,-118.80270385742188,1932,0.0,0.0,0.0,0.4983731508255005,-0.17301654815673828,72.29016876220703,-3099.52001953125,363.9201965332031
39139.34,8.108051300048828,-20.20574378967285,2.2007150650024414,-0.012464567087590694,-0.005556847900152206,1.0195616483688354,49176.0,1.8590692281723022,0.8172799944877625,74.42678833007812,7.692728042602539,5.749017715454102,16.787887573242188,0.0,0.0,5.59903621673584,-1437.0029296875,148.15789794921875,1750,0.0,0.0,0.0,0.5769479274749756,-0.14088955521583557,72.29917907714844,-1432.119873046875,621.0404663085938
39141.295,7.092992305755615,-19.057369232177734,2.3746073246002197,-0.010797020979225636,-0.006732497829943895,1.0132319927215576,49176.0,1.8590692281723022,0.8172799944877625,74.42678833007812,7.692728042602539,5.749017715454102,18.368946075439453,0.0,0.0,5.6032915115356445,-843.415283203125,559.697998046875,1919,0.0,0.0,0.0,0.5769479274749756,-0.14088955521583557,72.29917907714844,-2782.0595703125,-682.4401245117188
39143.242,6.558128833770752,-18.051843643188477,2.4834189414978027,-0.010691139847040176,-0.007192450575530529,1.010369896888733,49176.0,1.8590692281723022,0.8172799944877625,74.42678833007812,7.272639274597168,5.594809055328369,16.548986434936523,0.0,0.0,5.607526779174805,-1177.802978515625,140.9931182861328,1687,0.0,0.0,0.0,0.6469626426696777,-0.11518820375204086,72.30925750732422,-996.4398803710938,-495.0599365234375
39145.212,6.486549377441406,-16.818025588989258,2.2587156295776367,-0.01197732426226139,-0.008065730333328247,1.0116150379180908,49176.0,1.8590692281723022,0.8172799944877625,74.42678833007812,7.272639274597168,5.594809055328369,18.31694793701172,0.0,0.0,5.611762046813965,-506.4444580078125,-80.07646179199219,1926,0.0,0.0,0.0,0.6469626426696777,-0.11518820375204086,72.30925750732422,-429.39990234375,-544.2199096679688
39147.205,6.29473352432251,-15.306558609008789,1.8963369131088257,-0.012325122021138668,-0.007013134658336639,1.0128751993179321,49176.0,1.8590692281723022,0.8172799944877625,74.42678833007812,6.919697284698486,5.446959972381592,16.930580139160156,0.0,0.0,5.615981578826904,-389.135986328125,-94.19095611572266,1804,0.0,0.0,0.0,0.705786406993866,-0.09054669737815857,72.31694030761719,783.0199584960938,2345.88037109375
39149.199,5.86789083480835,-13.859054565429688,1.7552088499069214,-0.011691419407725334,-0.005170607473701239,1.0118279457092285,49176.0,1.8590692281723022,0.8172799944877625,74.42678833007812,6.919697284698486,5.446959972381592,18.27928924560547,0.0,0.0,5.620201110839844,44.7247314453125,256.9924011230469,1982,0.0,0.0,0.0,0.705786406993866,-0.09054669737815857,72.31694030761719,-239.8800048828125,1252.1802978515625
39151.184,5.182703971862793,-12.702333450317383,1.949198603630066,-0.01139262318611145,-0.003773590549826622,1.0093868970870972,49176.0,1.8590692281723022,0.8172799944877625,74.42678833007812,6.6291093826293945,5.3243536949157715,16.862525939941406,0.0,0.0,5.6244049072265625,-261.38372802734375,443.1828918457031,1789,0.0,0.0,0.0,0.7542176246643066,-0.07011225819587708,72.32479095458984,-439.3798828125,660.1401977539062
39153.101,4.671578407287598,-11.775127410888672,2.017577648162842,-0.00999425072222948,-0.0034441365860402584,1.0072108507156372,49176.0,1.8590692281723022,0.8172799944877625,74.42678833007812,6.6291093826293945,5.3243536949157715,18.24059295654297,0.0,0.0,5.628608703613281,-76.49822998046875,481.2604675292969,1946,0.0,0.0,0.0,0.7542176246643066,-0.07011225819587708,72.32479095458984,145.5000457763672,348.2001953125
39155.101,4.3994317054748535,-10.661230087280273,1.8675212860107422,-0.008467222563922405,-0.0034229240845888853,1.0046159029006958,49176.0,1.8590692281723022,0.8172799944877625,74.42678833007812,6.386232376098633,5.22056770324707,16.885955810546875,0.0,0.0,5.632797718048096,12.01556396484375,249.44091796875,1802,0.0,0.0,0.0,0.7946971654891968,-0.05281462147831917,72.3322982788086,353.8000183105469,693.4602661132812
39157.049,4.2535929679870605,-9.085448265075684,1.50716233253479,-0.007629977073520422,-0.004847454372793436,1.0030373334884644,49176.0,1.8590692281723022,0.8172799944877625,74.42678833007812,6.386232376098633,5.22056770324707,18.20392608642578,0.0,0.0,5.63698673248291,776.9539184570312,254.4252471923828,2003,0.0,0.0,0.0,0.7946971654891968,-0.05281462147831917,72.3322982788086,648.360107421875,566.4603271484375
39159.083,4.138246536254883,-7.409880638122559,1.2575095891952515,-0.0058098118752241135,-0.005679581314325333,1.000663161277771,49176.0,1.8590692281723022,0.8172799944877625,74.42678833007812,6.220059871673584,5.124270439147949,17.295318603515625,0.0,0.0,5.641165733337402,953.5731201171875,162.19046020507812,1924,0.0,0.0,0.0,0.8223926424980164,-0.036765050143003464,72.33734130859375,1330.4200439453125,918.4603271484375
39161.03,3.7655751705169678,-5.629805088043213,1.2937893867492676,-0.0031234079506248236,-0.0033078205306082964,0.9988855719566345,49176.0,1.8590692281723022,0.8172799944877625,74.42678833007812,6.220059871673584,5.124270439147949,18.182025909423828,0.0,0.0,5.6453447341918945,1423.5948486328125,483.30780029296875,2026,0.0,0.0,0.0,0.8223926424980164,-0.036765050143003464,72.33734130859375,784.0601806640625,-27.799903869628906
39162.99,2.9800922870635986,-3.8568153381347656,1.226466178894043,-0.003982312045991421,-0.0043188901618123055,1.0015602111816406,49176.0,1.8590692281723022,0.8172799944877625,74.42678833007812,6.138136863708496,5.055177211761475,17.299644470214844,0.0,0.0,5.6495137214660645,1610.498291015625,848.554931640625,1928,0.0,0.0,0.0,0.8360464572906494,-0.025249512866139412,72.34223937988281,2264.320068359375,-5.839914321899414
39164.956,2.168565034866333,-2.557724714279175,1.0678205490112305,-0.006136998999863863,-0.005949072074145079,1.0054736137390137,49176.0,1.8590692281723022,0.8172799944877625,74.42678833007812,6.138136863708496,5.055177211761475,18.16097640991211,0.0,0.0,5.653682708740234,1511.3797607421875,1041.63720703125,2051,0.0,0.0,0.0,0.8360464572906494,-0.025249512866139412,72.34223937988281,3373.699462890625,545.3400268554688
39166.939,1.4351781606674194,-1.4652044773101807,1.0652521848678589,-0.010311846621334553,-0.007975242100656033,1.0078600645065308,49176.0,1.8590692281723022,0.8172799944877625,74.42678833007812,6.116945266723633,5.025184154510498,17.394582748413086,0.0,0.0,5.657843112945557,1501.2578125,1066.046142578125,1959,0.0,0.0,0.0,0.83957839012146,-0.02025069296360016,72.34649658203125,3101.479736328125,471.5199890136719
39168.95,0.7416165471076965,0.13255105912685394,1.2053968906402588,-0.014327982440590858,-0.008778523653745651,1.006105661392212,49176.0,1.8590692281723022,0.8172799944877625,74.42678833007812,6.116945266723633,5.025184154510498,18.143753051757812,0.0,0.0,5.662003517150879,2135.740966796875,1162.706298828125,2032,0.0,0.0,0.0,0.83957839012146,-0.02025069296360016,72.34649658203125,2725.8798828125,623.0999755859375
39170.923,0.1684703826904297,2.2859575748443604,1.3507851362228394,-0.01810215413570404,-0.007542428560554981,1.001686930656433,49176.0,1.8590692281723022,0.8172799944877625,74.42678833007812,6.189769744873047,5.025527000427246,17.171592712402344,0.0,0.0,5.666153430938721,2941.03173828125,1158.67529296875,1898,0.0,0.0,0.0,0.8274409770965576,-0.02030785195529461,72.35189056396484,2943.95947265625,215.95999145507812
39172.861,-0.5215029120445251,4.662936210632324,1.3488072156906128,-0.021582020446658134,-0.006886918097734451,0.9989390969276428,49176.0,1.8590692281723022,0.8172799944877625,74.42678833007812,6.189769744873047,5.025527000427246,18.11968994140625,0.0,0.0,5.6703033447265625,3410.64013671875,1349.534423828125,2012,0.0,0.0,0.0,0.8274409770965576,-0.02030785195529461,72.35189056396484,3291.759765625,582.1399536132812
39174.83,-1.3816912174224854,6.439582824707031,1.1064956188201904,-0.02461041510105133,-0.006230085622519255,0.998446524143219,49176.0,1.8590692281723022,0.8172799944877625,74.42678833007812,6.3653974533081055,5.062273025512695,17.32703971862793,0.0,0.0,5.674444198608398,3384.95263671875,1639.2950439453125,1946,0.0,0.0,0.0,0.7981696128845215,-0.02643224410712719,72.35629272460938,3412.239501953125,2497.980224609375
39176.79,-2.4085962772369385,7.435882091522217,0.7228924632072449,-0.027248993515968323,-0.001463635009713471,1.0003403425216675,49176.0,1.8590692281723022,0.8172799944877625,74.42678833007812,6.3653974533081055,5.062273025512695,18.101558685302734,0.0,0.0,5.678585052490234,2817.416015625,1890.80908203125,2085,0.0,0.0,0.0,0.7981696128845215,-0.02643224410712719,72.35629272460938,4051.239990234375,1402.4598388671875
39178.826,-3.030303955078125,8.70547866821289,0.5076310634613037,-0.029429994523525238,0.003967757802456617,1.0012295246124268,49176.0,1.8590692281723022,0.8172799944877625,74.42678833007812,6.5975189208984375,5.132751941680908,17.745275497436523,0.0,0.0,5.682722091674805,3421.738525390625,1743.5980224609375,2068,0.0,0.0,0.0,0.759482741355896,-0.0381787046790123,72.35828399658203,3778.5595703125,2153.699951171875
39180.774,-3.261896848678589,10.338788032531738,0.41889822483062744,-0.029520781710743904,0.005107291508466005,1.0036959648132324,49176.0,1.8590692281723022,0.8172799944877625,74.42678833007812,6.5975189208984375,5.132751941680908,18.097885131835938,0.0,0.0,5.686859130859375,3765.427001953125,1432.89208984375,2121,0.0,0.0,0.0,0.759482741355896,-0.0381787046790123,72.35828399658203,2940.93994140625,3194.42041015625
39182.733,-3.8714935779571533,11.969419479370117,0.23327095806598663,-0.028062064200639725,0.0038353423587977886,1.0066735744476318,49176.0,1.8590692281723022,0.8172799944877625,74.42678833007812,6.906519412994385,5.223294258117676,17.943214416503906,0.0,0.0,5.6909942626953125,4286.115234375,1889.3223876953125,2125,0.0,0.0,0.0,0.7079827189445496,-0.05326911807060242,72.35916137695312,4851.97998046875,1775.0399169921875
39184.703,-4.638882160186768,13.439854621887207,0.14386780560016632,-0.0263072419911623,-0.0001420425542164594,1.006937861442566,49176.0,1.8590692281723022,0.8172799944877625,74.42678833007812,6.906519412994385,5.223294258117676,18.10089111328125,0.0,0.0,5.69512939453125,4154.783203125,2054.86865234375,2154,0.0,0.0,0.0,0.7079827189445496,-0.05326911807060242,72.35916137695312,4410.1796875,3026.940185546875
39186.681,-5.309173583984375,14.65285873413086,0.27589908242225647,-0.02454337291419506,-0.004049908369779587,1.0058151483535767,49176.0,1.8590692281723022,0.8172799944877625,74.42678833007812,7.27733039855957,5.352476119995117,17.919981002807617,0.0,0.0,5.699262619018555,4477.38916015625,2198.85205078125,2117,0.0,0.0,0.0,0.6461808681488037,-0.07479935884475708,72.36018371582031,5935.39990234375,1327.0999755859375
39188.694,-6.154476642608643,15.951220512390137,0.31004074215888977,-0.027325499802827835,-0.007701861672103405,1.0080897808074951,49176.0,1.8590692281723022,0.8172799944877625,74.42678833007812,7.27733039855957,5.352476119995117,18.103023529052734,0.0,0.0,5.703395843505859,4458.052734375,2360.019775390625,2135,0.0,0.0,0.0,0.6461808681488037,-0.07479935884475708,72.36018371582031,6360.900390625,3358.639892578125
39190.649,-6.898299694061279,17.11781883239746,0.2923223376274109,-0.03138458728790283,-0.010009106248617172,1.011433720588684,49176.0,1.8590692281723022,0.8172799944877625,74.42678833007812,7.710116386413574,5.522787094116211,17.916587829589844,0.0,0.0,5.707527160644531,4923.728515625,2548.76416015625,2114,0.0,0.0,0.0,0.5740498900413513,-0.10318450629711151,72.36123657226562,5297.39990234375,3512.6396484375
39192.606,-7.2316575050354,17.967763900756836,0.07150345295667648,-0.036028243601322174,-0.010125902481377125,1.0155223608016968,49176.0,1.8590692281723022,0.8172799944877625,74.42678833007812,7.710116386413574,5.522787094116211,18.104969024658203,0.0,0.0,5.711658477783203,4489.140625,2163.184326171875,2164,0.0,0.0,0.0,0.5740498900413513,-0.10318450629711151,72.36123657226562,5297.39990234375,3512.6396484375
39194.567,-7.599316596984863,18.769052505493164,-0.005203865468502045,-0.040109384804964066,-0.010299424640834332,1.0189311504364014,49176.0,1.8590692281723022,0.8172799944877625,74.42678833007812,8.186227798461914,5.709688186645508,18.142242431640625,0.0,0.0,5.715789794921875,5001.3427734375,2412.271240234375,2177,0.0,0.0,0.0,0.4946978688240051,-0.1343347579240799,72.36105346679688,6372.380859375,2905.959716796875
39196.538,-8.173919677734375,19.90085792541504,0.09077444672584534,-0.03847680613398552,-0.007371559739112854,1.0188512802124023,49176.0,1.8590692281723022,0.8172799944877625,74.42678833007812,8.186227798461914,5.709688186645508,18.114330291748047,0.0,0.0,5.719921112060547,5061.9169921875,2513.49365234375,2162,0.0,0.0,0.0,0.4946978688240051,-0.1343347579240799,72.36105346679688,5769.72021484375,3302.8603515625
39198.563,-8.383549690246582,21.169050216674805,-0.14096367359161377,-0.033479008823633194,-0.00278141675516963,1.0165737867355347,49176.0,1.8590692281723022,0.8172799944877625,74.42678833007812,8.715486526489258,5.91106653213501,18.263460159301758,0.0,0.0,5.724054336547852,5830.7685546875,2452.448974609375,2208,0.0,0.0,0.0,0.4064881503582001,-0.16789774596691132,72.3602523803711,5771.34033203125,2122.440185546875
39200.514,-8.37971019744873,22.014835357666016,-0.4227774441242218,-0.026522638276219368,-2.7660564683174016e-06,1.0124050378799438,49176.0,1.8590692281723022,0.8172799944877625,74.42678833007812,8.715486526489258,5.91106653213501,18.127403259277344,0.0,0.0,5.728187561035156,5243.88720703125,2140.737060546875,2226,0.0,0.0,0.0,0.4064881503582001,-0.16789774596691132,72.3602523803711,5499.25927734375,3967.5400390625
39202.482,-8.843094825744629,22.824703216552734,-0.5489770770072937,-0.020057661458849907,0.002021030755713582,1.0096324682235718,49176.0,1.8590692281723022,0.8172799944877625,74.42678833007812,9.276368141174316,6.120511054992676,18.58724594116211,0.0,0.0,5.732325553894043,5843.2216796875,2749.162109375,2296,0.0,0.0,0.0,0.3130078613758087,-0.20280517637729645,72.35773468017578,6293.4404296875,3594.260009765625
39204.441,-9.454933166503906,23.983890533447266,-0.5198617577552795,-0.013676664792001247,0.0038750595413148403,1.0071057081222534,49176.0,1.8590692281723022,0.8172799944877625,74.42678833007812,9.276368141174316,6.120511054992676,18.150785446166992,0.0,0.0,5.73646354675293,5858.42919921875,2795.1953125,2240,0.0,0.0,0.0,0.3130078613758087,-0.20280517637729645,72.35773468017578,7076.2802734375,2737.7802734375
39206.409,-9.719870567321777,25.103487014770508,-0.4263072907924652,-0.00901118852198124,0.004265699535608292,1.0042840242385864,49176.0,1.8590692281723022,0.8172799944877625,74.42678833007812,9.884941101074219,6.3494768142700195,18.5388240814209,0.0,0.0,5.74060583114624,6544.390625,2780.82958984375,2275,0.0,0.0,0.0,0.21157902479171753,-0.24096617102622986,72.3556137084961,7717.66015625,2403.060302734375
39208.438,-9.677019119262695,25.885255813598633,-0.46943265199661255,-0.006199489813297987,0.003749464638531208,1.0023200511932373,49176.0,1.8590692281723022,0.8172799944877625,74.42678833007812,9.884941101074219,6.3494768142700195,18.171794891357422,0.0,0.0,5.744748115539551,5951.85595703125,2371.836669921875,2236,0.0,0.0,0.0,0.21157902479171753,-0.24096617102622986,72.3556137084961,7499.57958984375,2810.200439453125
39210.387,-9.700624465942383,26.346670150756836,-0.5043500661849976,-0.004880835767835379,-0.0029457933269441128,1.0023478269577026,49176.0,1.8590692281723022,0.8172799944877625,74.42678833007812,10.520031929016113,6.581552982330322,18.63164710998535,0.0,0.0,5.748895645141602,6352.38623046875,2634.086669921875,2296,0.0,0.0,0.0,0.10573048144578934,-0.27964547276496887,72.35309600830078,6895.2197265625,3136.759765625
39212.336,-9.973828315734863,26.64128303527832,-0.4974384307861328,-0.004799894522875547,-0.013399110175669193,1.0027347803115845,49176.0,1.8590692281723022,0.8172799944877625,74.42678833007812,10.520031929016113,6.581552982330322,18.19519805908203,0.0,0.0,5.753043174743652,5795.15673828125,2688.2109375,2243,0.0,0.0,0.0,0.10573048144578934,-0.27964547276496887,72.35309600830078,7704.5400390625,2895.919921875
39214.313,-10.438006401062012,27.195737838745117,-0.5245505571365356,-0.00554064242169261,-0.02168775349855423,1.0055222511291504,49176.0,1.8590692281723022,0.8172799944877625,74.42678833007812,11.174756050109863,6.841144561767578,18.685434341430664,0.0,0.0,5.757195949554443,6662.45849609375,3134.700439453125,2305,0.0,0.0,0.0,-0.003390102880075574,-0.32291075587272644,72.35041046142578,8503.7607421875,2374.7802734375
39216.291,-10.692840576171875,27.86053466796875,-0.7311416864395142,-0.005341026466339827,-0.02711537852883339,1.0078011751174927,49176.0,1.8590692281723022,0.8172799944877625,74.42678833007812,11.174756050109863,6.841144561767578,18.219615936279297,0.0,0.0,5.761348724365234,6353.8896484375,2821.22265625,2274,0.0,0.0,0.0,-0.003390102880075574,-0.32291075587272644,72.35041046142578,6528.5400390625,3625.3203125
39218.312,-10.948935508728027,27.93651580810547,-1.1833410263061523,-0.00478330347687006,-0.02649209462106228,1.0073322057724,49176.0,1.8590692281723022,0.8172799944877625,74.42678833007812,11.845634460449219,7.115213871002197,19.20561408996582,0.0,0.0,5.765512466430664,6527.46826171875,3107.24609375,2446,0.0,0.0,0.0,-0.11520309746265411,-0.36858895421028137,72.34498596191406,7484.580078125,1955.1802978515625
39220.264,-11.246538162231445,27.544960021972656,-1.2258332967758179,-0.005189315415918827,-0.021623868495225906,1.0067167282104492,49176.0,1.8590692281723022,0.8172799944877625,74.42678833007812,11.845634460449219,7.115213871002197,18.26049041748047,0.0,0.0,5.769676208496094,5614.92236328125,2977.4638671875,2338,0.0,0.0,0.0,-0.11520309746265411,-0.36858895421028137,72.34498596191406,7805.19970703125,3011.100341796875
39222.222,-11.226758003234863,27.057344436645508,-0.9562709927558899,-0.003203305881470442,-0.01761801913380623,1.0031312704086304,49176.0,1.8590692281723022,0.8172799944877625,74.42678833007812,12.49358081817627,7.3907976150512695,19.09459686279297,0.0,0.0,5.773849010467529,6052.88818359375,2984.486328125,2406,0.0,0.0,0.0,-0.22319427132606506,-0.4145195484161377,72.34040069580078,5673.8203125,3859.52001953125
39224.171,-11.135821342468262,26.796566009521484,-0.985029399394989,-0.001202397863380611,-0.014968532137572765,0.9991136789321899,49176.0,1.8590692281723022,0.8172799944877625,74.42678833007812,12.49358081817627,7.3907976150512695,18.296348571777344,0.0,0.0,5.778021812438965,5697.9365234375,2710.79052734375,2313,0.0,0.0,0.0,-0.22319427132606506,-0.4145195484161377,72.34040069580078,6792.69970703125,3677.059814453125
39226.154,-11.152151107788086,26.90894317626953,-1.33025062084198,0.0010718203848227859,-0.011402018368244171,0.9949427247047424,49176.0,1.8590692281723022,0.8172799944877625,74.42678833007812,13.134535789489746,7.660920143127441,19.414936065673828,0.0,0.0,5.782207012176514,6571.5224609375,3036.80078125,2489,0.0,0.0,0.0,-0.3300199806690216,-0.45954009890556335,72.33424377441406,6266.43994140625,3591.800048828125
39228.161,-11.267254829406738,26.938610076904297,-1.553444743156433,0.005256148055195808,-0.009064563550055027,0.9910481572151184,49176.0,1.8590692281723022,0.8172799944877625,74.42678833007812,13.134535789489746,7.660920143127441,18.341659545898438,0.0,0.0,5.7863922119140625,6033.22216796875,2925.553466796875,2387,0.0,0.0,0.0,-0.3300199806690216,-0.45954009890556335,72.33424377441406,6658.6806640625,2117.380126953125
39230.129,-11.623505592346191,26.798513412475586,-1.5457713603973389,0.004055947531014681,-0.009350285865366459,0.9911214709281921,49176.0,1.8590692281723022,0.8172799944877625,74.42678833007812,13.770116806030273,7.940927982330322,19.63149642944336,0.0,0.0,5.790591716766357,6456.90673828125,3411.859375,2541,0.0,0.0,0.0,-0.4359501600265503,-0.506208062171936,72.32714080810547,6057.60107421875,2856.41943359375
39232.063,-12.13716983795166,26.182205200195312,-1.6175346374511719,0.0003315008361823857,-0.009393046610057354,0.9938191771507263,49176.0,1.8590692281723022,0.8172799944877625,74.42678833007812,13.770116806030273,7.940927982330322,18.392677307128906,0.0,0.0,5.794791221618652,5530.619140625,3396.962890625,2401,0.0,0.0,0.0,-0.4359501600265503,-0.506208062171936,72.32714080810547,5867.4208984375,3656.779296875
39234.057,-12.539786338806152,25.206804275512695,-1.656041145324707,-0.004350015427917242,-0.009364754892885685,0.9973577260971069,49176.0,1.8590692281723022,0.8172799944877625,74.42678833007812,14.371149063110352,8.242557525634766,19.7695255279541,0.0,0.0,5.799005508422852,5655.9150390625,3645.53662109375,2571,0.0,0.0,0.0,-0.5361222624778748,-0.5564795732498169,72.3195571899414,6749.92041015625,4184.7392578125
39236.03,-12.646384239196777,24.643707275390625,-1.6019717454910278,-0.011506118811666965,-0.005495766177773476,0.9981696605682373,49176.0,1.8590692281723022,0.8172799944877625,74.42678833007812,14.371149063110352,8.242557525634766,18.446605682373047,0.0,0.0,5.803219795227051,5429.90380859375,3213.289794921875,2405,0.0,0.0,0.0,-0.5361222624778748,-0.5564795732498169,72.3195571899414,7363.73974609375,3566.73974609375
39238.048,-12.519189834594727,24.144746780395508,-1.700448989868164,-0.017714476212859154,0.00040692457696422935,0.998215913772583,49176.0,1.8590692281723022,0.8172799944877625,74.42678833007812,14.953047752380371,8.537961959838867,19.860755920410156,0.0,0.0,5.807449817657471,5926.87353515625,3284.7294921875,2587,0.0,0.0,0.0,-0.6331052780151367,-0.6057136654853821,72.311767578125,6880.240234375,3117.69921875
39239.988,-12.089412689208984,23.70374870300293,-2.0556328296661377,-0.022651223465800285,0.0048794224858284,0.9984742999076843,49176.0,1.8590692281723022,0.8172799944877625,74.42678833007812,14.953047752380371,8.537961959838867,18.50180435180664,0.0,0.0,5.811679840087891,5467.77099609375,2771.7734375,2466,0.0,0.0,0.0,-0.6331052780151367,-0.6057136654853821,72.311767578125,6590.02001953125,4289.619140625
39241.969,-11.766046524047852,23.725906372070312,-2.042860746383667,-0.026995334774255753,0.006892720703035593,0.9989574551582336,49176.0,1.8590692281723022,0.8172799944877625,74.42678833007812,15.528914451599121,8.811463356018066,20.174205780029297,0.0,0.0,5.8159284591674805,6336.74267578125,3049.228759765625,2666,0.0,0.0,0.0,-0.7290831208229065,-0.6512972712516785,72.30255126953125,7367.97998046875,5091.5986328125
39243.912,-11.543472290039062,23.729703903198242,-1.9342542886734009,-0.027017880231142044,0.0047346604987978935,1.0005279779434204,49176.0,1.8590692281723022,0.8172799944877625,74.42678833007812,15.528914451599121,8.811463356018066,18.56559944152832,0.0,0.0,5.82017707824707,5891.63916015625,2886.30810546875,2459,0.0,0.0,0.0,-0.7290831208229065,-0.6512972712516785,72.30255126953125,5775.740234375,4088.07958984375
39245.904,-11.136515617370605,23.28833770751953,-2.100701332092285,-0.02549118548631668,0.0011993740918114781,1.004421591758728,49176.0,1.8590692281723022,1.0,74.42678833007812,16.092445373535156,10.168966293334961,20.289112091064453,0.0,0.0,5.824444770812988,5998.74169921875,3908.73193359375,2686,0.0,0.0,0.0,-0.8230050802230835,-0.694827675819397,72.29305267333984,7049.640625,3102.69921875
39247.916,-10.569058418273926,22.591585159301758,-2.2809054851531982,-0.025722162798047066,-0.00197358475998044,1.0097650289535522,49176.0,1.8590692281723022,1.0,74.42678833007812,16.092445373535156,10.168966293334961,18.631126403808594,0.0,0.0,5.828712463378906,5280.03857421875,2685.1123046875,2509,0.0,0.0,0.0,-0.8230050802230835,-0.694827675819397,72.29305267333984,6027.08056640625,6030.61865234375
39249.872,-10.25639820098877,22.06073570251465,-2.325019359588623,-0.025767846032977104,-0.0037751307245343924,1.0136446952819824,49176.0,1.8590692281723022,1.0,74.42678833007812,16.62563705444336,10.411463737487793,20.51898956298828,0.0,0.0,5.833000659942627,5804.71240234375,3047.556396484375,2741,0.0,0.0,0.0,-0.9118702411651611,-0.7352439165115356,72.28264617919922,5740.58056640625,4267.95849609375
39251.815,-10.473040580749512,21.595365524291992,-2.4651596546173096,-0.02656831592321396,-0.004754105117172003,1.0175021886825562,49176.0,1.8590692281723022,1.0,74.42678833007812,16.62563705444336,10.411463737487793,18.70214080810547,0.0,0.0,5.837288856506348,5384.1220703125,3295.1572265625,2540,0.0,0.0,0.0,-0.9118702411651611,-0.7352439165115356,72.28264617919922,6158.12060546875,3942.298583984375
39253.784,-10.750480651855469,20.64044189453125,-2.6099727153778076,-0.02865225449204445,-0.00545137096196413,1.0208128690719604,49176.0,1.8590692281723022,1.0,74.42678833007812,17.12531280517578,10.666521072387695,20.79716682434082,0.0,0.0,5.84160041809082,5323.4287109375,3611.92333984375,2808,0.0,0.0,0.0,-0.9951497912406921,-0.7777535915374756,72.2710952758789,5475.52099609375,4796.5986328125
39255.769,-10.478120803833008,19.160411834716797,-2.607637643814087,-0.02637506276369095,-0.005729825235903263,1.0177536010742188,49176.0,1.8590692281723022,1.0,74.42678833007812,17.12531280517578,10.666521072387695,18.780071258544922,0.0,0.0,5.845911979675293,4332.83642578125,2967.426513671875,2566,0.0,0.0,0.0,-0.9951497912406921,-0.7777535915374756,72.2710952758789,7345.2197265625,4966.3388671875
39257.782,-9.794715881347656,17.711217880249023,-2.550999641418457,-0.022336697205901146,-0.005756855942308903,1.01309072971344,49176.0,1.8590692281723022,1.0,74.42678833007812,17.55083465576172,10.898477554321289,20.81021499633789,0.0,0.0,5.850245952606201,4521.5556640625,2765.392578125,2803,0.0,0.0,0.0,-1.0660699605941772,-0.8164129257202148,72.25990295410156,6262.14111328125,2805.439453125
39259.733,-9.239683151245117,16.678213119506836,-2.57961368560791,-0.01830272749066353,-0.005239820573478937,1.008506178855896,49176.0,1.8590692281723022,1.0,74.42678833007812,17.55083465576172,10.898477554321289,18.855892181396484,0.0,0.0,5.854579925537109,4359.60400390625,2604.44970703125,2572,0.0,0.0,0.0,-1.0660699605941772,-0.8164129257202148,72.25990295410156,5161.380859375,3745.599609375
39261.688,-8.971661567687988,15.95982551574707,-2.725259780883789,-0.016040001064538956,-0.004600061569362879,1.0048117637634277,49176.0,1.8590692281723022,1.0,74.42678833007812,17.93037986755371,11.10986328125,21.002056121826172,0.0,0.0,5.8589372634887695,4829.3974609375,2969.7509765625,2847,0.0,0.0,0.0,-1.1293275356292725,-0.8516438007354736,72.2480697631836,5513.48095703125,4974.53857421875
39263.655,-8.597078323364258,14.976008415222168,-2.7626092433929443,-0.015248803421854973,-0.004891250282526016,1.0022518634796143,49176.0,1.8590692281723022,1.0,74.42678833007812,17.93037986755371,11.10986328125,18.935606002807617,0.0,0.0,5.86329460144043,4198.0947265625,2675.1044921875,2603,0.0,0.0,0.0,-1.1293275356292725,-0.8516438007354736,72.2480697631836,6051.9599609375,2188.880126953125
39265.635,-8.168560981750488,13.626805305480957,-2.673110008239746,-0.014825423248112202,-0.00555790588259697,1.0005682706832886,49176.0,1.8590692281723022,1.0,74.42678833007812,18.25287628173828,11.302206039428711,21.02379608154297,0.0,0.0,5.867674827575684,4011.922119140625,2743.485107421875,2843,0.0,0.0,0.0,-1.1830769777297974,-0.8837010860443115,72.23655700683594,5146.2412109375,4093.339111328125
39267.646,-7.942930698394775,12.335153579711914,-2.7463386058807373,-0.01520940288901329,-0.00571363465860486,1.001017689704895,49176.0,1.8590692281723022,1.0,74.42678833007812,18.25287628173828,11.302206039428711,19.013442993164062,0.0,0.0,5.8720550537109375,3619.466552734375,2717.546630859375,2611,0.0,0.0,0.0,-1.1830769777297974,-0.8837010860443115,72.23655700683594,5509.24072265625,3449.679931640625
39269.617,-7.643646717071533,11.397067070007324,-2.954277753829956,-0.017804116010665894,-0.0067908670753240585,1.0044214725494385,49176.0,1.8590692281723022,1.0,74.42678833007812,18.522972106933594,11.482490539550781,21.286701202392578,0.0,0.0,5.876460552215576,3987.013671875,2779.6708984375,2908,0.0,0.0,0.0,-1.228092908859253,-0.9137484431266785,72.2240219116211,4518.83984375,3722.37939453125
39271.572,-6.978458881378174,10.596517562866211,-3.0099596977233887,-0.01972702145576477,-0.006663991138339043,1.004948616027832,49176.0,1.8590692281723022,1.0,74.42678833007812,18.522972106933594,11.482490539550781,19.09746551513672,0.0,0.0,5.880866050720215,3767.510498046875,2270.25146484375,2652,0.0,0.0,0.0,-1.228092908859253,-0.9137484431266785,72.2240219116211,3854.340087890625,4919.03857421875
39273.531,-6.365691661834717,9.46535873413086,-2.9672811031341553,-0.021610597148537636,-0.005508303642272949,1.003570556640625,49176.0,1.8590692281723022,1.0,74.42678833007812,18.748470306396484,11.631171226501465,21.36246109008789,0.0,0.0,5.88529634475708,3552.828857421875,2351.46435546875,2919,0.0,0.0,0.0,-1.2656755447387695,-0.9385285973548889,72.21153259277344,4616.95947265625,3554.119873046875
39275.496,-6.229007244110107,8.167966842651367,-2.9325129985809326,-0.02240023761987686,-0.0033687700051814318,1.0031256675720215,49176.0,1.8590692281723022,1.0,74.42678833007812,18.748470306396484,11.631171226501465,19.18126106262207,0.0,0.0,5.889726638793945,3064.421630859375,2576.51318359375,2653,0.0,0.0,0.0,-1.2656755447387695,-0.9385285973548889,72.21153259277344,4433.99951171875,3883.018798828125
39277.523,-6.14000940322876,7.163630485534668,-2.864999294281006,-0.021025653928518295,-0.0004538911744020879,1.001845359802246,49176.0,1.8590692281723022,1.0,74.42678833007812,18.918270111083984,11.77142333984375,21.34271240234375,0.0,0.0,5.894180774688721,3286.383544921875,2725.155517578125,2904,0.0,0.0,0.0,-1.2939757108688354,-0.9619038701057434,72.19961547851562,4236.2001953125,4032.978759765625
39279.475,-5.7182111740112305,6.605279922485352,-3.0833990573883057,-0.019680673256516457,0.0023669179063290358,1.0024784803390503,49176.0,1.8590692281723022,1.0,74.42678833007812,18.918270111083984,11.77142333984375,19.261672973632812,0.0,0.0,5.898634910583496,3409.768798828125,2307.09765625,2681,0.0,0.0,0.0,-1.2939757108688354,-0.9619038701057434,72.19961547851562,4412.72021484375,2190.2197265625
39281.434,-4.816738605499268,6.149965763092041,-3.31364107131958,-0.015231396071612835,0.0019259691471233964,0.9995706677436829,49176.0,1.8590692281723022,1.0,74.42678833007812,19.060226440429688,11.878664016723633,21.73661994934082,0.0,0.0,5.903116703033447,3546.510009765625,1908.6353759765625,3006,0.0,0.0,0.0,-1.3176352977752686,-0.9797773957252502,72.18596649169922,5230.3408203125,3096.27978515625
39283.399,-3.714775562286377,5.3554558753967285,-3.253192186355591,-0.010014761239290237,0.0007246297318488359,0.9939573407173157,49176.0,1.8590692281723022,1.0,74.42678833007812,19.060226440429688,11.878664016723633,19.352529525756836,0.0,0.0,5.907598495483398,3066.469970703125,1512.5435791015625,2712,0.0,0.0,0.0,-1.3176352977752686,-0.9797773957252502,72.18596649169922,4904.60009765625,3138.38037109375
39285.383,-2.9575417041778564,4.012807369232178,-3.235224485397339,-0.004778190981596708,-0.0014729462563991547,0.9886375665664673,49176.0,1.8590692281723022,1.0,74.42678833007812,19.145204544067383,11.942940711975098,21.74740982055664,0.0,0.0,5.912106513977051,2530.44970703125,1715.3546142578125,2997,0.0,0.0,0.0,-1.3317981958389282,-0.9904900789260864,72.17276000976562,3912.18017578125,2293.440185546875
39287.39,-2.407315731048584,2.5599253177642822,-3.303912401199341,-0.00011377294867997989,-0.0047905524261295795,0.9826856851577759,49176.0,1.8590692281723022,1.0,74.42678833007812,19.145204544067383,11.942940711975098,19.440784454345703,0.0,0.0,5.916614532470703,2166.107421875,1739.86865234375,2729,0.0,0.0,0.0,-1.3317981958389282,-0.9904900789260864,72.17276000976562,3640.22021484375,948.7803344726562
39289.359,-1.684186339378357,1.554693341255188,-3.2798702716827393,0.00247222650796175,-0.0026574665680527687,0.9797582626342773,49176.0,1.8590692281723022,1.0,74.42678833007812,19.167234420776367,11.977234840393066,21.838455200195312,0.0,0.0,5.921149253845215,2370.8876953125,1532.5867919921875,3014,0.0,0.0,0.0,-1.3354697227478027,-0.9962058067321777,72.15953826904297,2598.89990234375,1966.1402587890625
39291.283,-0.8485689163208008,0.9931034445762634,-3.3278613090515137,0.004093205090612173,0.002695634728297591,0.9781191945075989,49176.0,1.8590692281723022,1.0,74.42678833007812,19.167234420776367,11.977234840393066,19.529184341430664,0.0,0.0,5.925683975219727,2602.85791015625,1297.1578369140625,2742,0.0,0.0,0.0,-1.3354697227478027,-0.9962058067321777,72.15953826904297,2129.299560546875,2673.280029296875
39293.267,-0.1729808896780014,0.046427171677351,-3.455296754837036,0.006148567423224449,0.010756377130746841,0.9754070043563843,49176.0,1.8590692281723022,1.0,74.42678833007812,19.151029586791992,11.96779727935791,22.02768898010254,0.0,0.0,5.930245876312256,2157.45751953125,1307.347900390625,3057,0.0,0.0,0.0,-1.3327690362930298,-0.9946328401565552,72.14575958251953,2410.999755859375,1495.0799560546875
39295.231,0.15157826244831085,-1.3523105382919312,-3.579779863357544,0.006317667197436094,0.020367316901683807,0.9759187698364258,49176.0,1.8590692281723022,1.0,74.42678833007812,19.151029586791992,11.96779727935791,19.62097930908203,0.0,0.0,5.934807777404785,1620.755126953125,1529.013427734375,2784,0.0,0.0,0.0,-1.3327690362930298,-0.9946328401565552,72.14575958251953,2477.099609375,3039.4599609375
39297.27,0.4890083372592926,-2.5556273460388184,-3.590036630630493,0.004759099334478378,0.021045582368969917,0.979286253452301,49176.0,1.8590692281723022,1.0,74.42678833007812,19.0733585357666,11.936819076538086,22.180273056030273,0.0,0.0,5.939398288726807,1516.918212890625,1440.865478515625,3092,0.0,0.0,0.0,-1.3198238611221313,-0.9894698262214661,72.13164520263672,1152.539794921875,1673.400146484375
39299.217,1.189820647239685,-3.2418086528778076,-3.4821159839630127,0.0026574034709483385,0.016067521646618843,0.9834313988685608,49176.0,1.8590692281723022,1.0,74.42678833007812,19.0733585357666,11.936819076538086,19.714847564697266,0.0,0.0,5.943988800048828,1860.0966796875,1086.4405517578125,2783,0.0,0.0,0.0,-1.3198238611221313,-0.9894698262214661,72.13164520263672,2476.739990234375,1010.4602661132812
39301.168,2.006380558013916,-3.46305775642395,-3.4751105308532715,-0.0005996735999360681,0.008102381601929665,0.9882491230964661,49176.0,1.8590692281723022,1.0,74.42678833007812,18.977134704589844,11.876628875732422,22.185789108276367,0.0,0.0,5.948606491088867,2089.00732421875,822.9749145507812,3079,0.0,0.0,0.0,-1.3037865161895752,-0.9794380068778992,72.1180191040039,1782.3797607421875,1595.5001220703125
39303.144,2.4434287548065186,-4.101803779602051,-3.443143844604492,-0.0022877762094140053,-0.0021561391185969114,0.9886526465415955,49176.0,1.8590692281723022,1.0,74.42678833007812,18.977134704589844,11.876628875732422,19.80583953857422,0.0,0.0,5.953224182128906,1752.2398681640625,1087.193359375,2789,0.0,0.0,0.0,-1.3037865161895752,-0.9794380068778992,72.1180191040039,1578.4600830078125,969.6997680664062
39305.119,2.5594115257263184,-5.421645164489746,-3.265629529953003,-0.0013719570124521852,-0.0114905945956707,0.9877716898918152,49176.0,1.8590692281723022,1.0,74.42678833007812,18.83474349975586,11.813916206359863,22.10971450805664,0.0,0.0,5.95786714553833,915.290283203125,1254.15478515625,3045,0.0,0.0,0.0,-1.2800545692443848,-0.9689860343933105,72.10531616210938,469.8998107910156,-143.57998657226562
