timestamp,gyro.x,gyro.y,gyro.z,acc.x,acc.y,acc.z,controller.actuatorThrust,controller.pitch,controller.roll,controller.yaw,pid_attitude.pitch_output,pid_attitude.roll_output,pid_attitude.yaw_output,pid_attitude.pitch_outI,pid_attitude.roll_outI,pid_attitude.yaw_outI,pid_rate.pitch_output,pid_rate.roll_output,pid_rate.yaw_output,pid_rate.pitch_outI,pid_rate.roll_outI,pid_rate.yaw_outI,stateEstimate.pitch,stateEstimate.roll,stateEstimate.yaw,snn_control.torque_pitch,snn_control.torque_roll
33545.48,-6.855912685394287,-13.390549659729004,-5.688414573669434,-0.02516021393239498,0.0012173065915703773,1.0423083305358887,48091.0,5.944248676300049,3.8425679206848145,-25.381235122680664,37.93006134033203,14.772199630737305,27.830501556396484,0.0,0.0,4.941811561584473,3182.6484375,2091.379150390625,4022,0.0,0.0,0.0,-0.37742847204208374,1.3805347681045532,-28.494009017944336,5413.11962890625,4668.080078125
33547.443,-5.294038772583008,-13.941699028015137,-5.254117488861084,-0.02718939632177353,-0.0007632275228388608,1.0389912128448486,48091.0,5.944248676300049,3.8425679206848145,-25.381235122680664,37.93006134033203,14.772199630737305,23.624679565429688,0.0,0.0,4.948037147521973,3184.890625,1838.530029296875,3465,0.0,0.0,0.0,-0.37742847204208374,1.3805347681045532,-28.494009017944336,3178.539794921875,3383.420166015625
33549.426,-4.192112445831299,-14.640060424804688,-4.868757724761963,-0.02962055243551731,-0.0035338099114596844,1.038685917854309,48091.0,6.375028133392334,3.8425679206848145,-25.381235122680664,40.17935562133789,14.888611793518066,27.411563873291016,0.0,0.0,4.9543046951293945,4994.0947265625,2122.973388671875,3873,0.0,0.0,0.0,-0.3215312957763672,1.3611325025558472,-28.514896392822266,2478.780029296875,1835.579833984375
33551.489,-3.0949559211730957,-15.263596534729004,-4.717319965362549,-0.02958490699529648,-0.005187495145946741,1.0349996089935303,48091.0,6.375028133392334,3.8425679206848145,-25.381235122680664,40.17935562133789,14.888611793518066,23.76253890991211,0.0,0.0,4.960572242736816,3269.712646484375,1874.667724609375,3417,0.0,0.0,0.0,-0.3215312957763672,1.3611325025558472,-28.514896392822266,2139.43994140625,2169.019775390625
33553.374,-1.7354570627212524,-15.453722953796387,-4.583179473876953,-0.028907444328069687,-0.005068188067525625,1.0304036140441895,48091.0,6.375028133392334,3.8425679206848145,-25.381235122680664,39.82460403442383,14.946547508239746,27.354061126708984,0.0,0.0,4.966879367828369,3246.97216796875,1526.12841796875,3832,0.0,0.0,0.0,-0.26240572333335876,1.351476788520813,-28.534704208374023,2930.6201171875,2668.52001953125
33555.347,-0.49856749176979065,-15.536749839782715,-4.399313926696777,-0.027158474549651146,-0.005215296987444162,1.0264132022857666,48091.0,6.375028133392334,3.8425679206848145,-25.381235122680664,39.82460403442383,14.946547508239746,23.894001007080078,0.0,0.0,4.973186492919922,3580.90771484375,1389.0999755859375,3395,0.0,0.0,0.0,-0.26240572333335876,1.351476788520813,-28.534704208374023,5119.3798828125,2581.399658203125
33557.325,0.8057522177696228,-16.046611785888672,-4.175137519836426,-0.02486000955104828,-0.0032945952843874693,1.024222493171692,48091.0,6.375028133392334,3.8425679206848145,-25.381235122680664,39.453941345214844,14.942307472229004,27.198673248291016,0.0,0.0,4.979529857635498,2850.70654296875,1139.06396484375,3764,0.0,0.0,0.0,-0.2006286382675171,1.35218346118927,-28.552927017211914,3945.960205078125,2368.599853515625
33559.294,2.2714083194732666,-16.830303192138672,-3.859495162963867,-0.022928228601813316,0.001573328161612153,1.0249266624450684,48091.0,6.375028133392334,3.5110504627227783,-25.381235122680664,39.453941345214844,12.953201293945312,24.01602554321289,0.0,0.0,4.985873222351074,2805.777099609375,-988.802734375,3345,0.0,0.0,0.0,-0.2006286382675171,1.35218346118927,-28.552927017211914,4159.419921875,2281.479736328125
33561.371,3.3577158451080322,-17.258893966674805,-3.6826608180999756,-0.022497238591313362,0.006152051966637373,1.026497721672058,48091.0,6.375028133392334,3.5110504627227783,-25.381235122680664,39.0533332824707,12.882542610168457,26.985164642333984,0.0,0.0,4.992249488830566,2647.266845703125,560.9993896484375,3680,0.0,0.0,0.0,-0.13386046886444092,1.3639601469039917,-28.56929588317871,2330.119873046875,1710.1998291015625
33563.235,3.8996737003326416,-17.392004013061523,-3.469602108001709,-0.02267993800342083,0.009816267527639866,1.0304762125015259,48091.0,6.375028133392334,3.5110504627227783,-25.381235122680664,39.0533332824707,12.882542610168457,24.126991271972656,0.0,0.0,4.998625755310059,3149.366943359375,940.9620361328125,3311,0.0,0.0,0.0,-0.13386046886444092,1.3639601469039917,-28.56929588317871,3705.2001953125,517.6000366210938
33565.218,4.6199951171875,-17.571239471435547,-2.9783623218536377,-0.024649376049637794,0.009984057396650314,1.0363776683807373,48091.0,6.375028133392334,3.5110504627227783,-25.381235122680664,38.64653015136719,12.779568672180176,26.593849182128906,0.0,0.0,5.005029201507568,2721.7646484375,606.46435546875,3548,0.0,0.0,0.0,-0.06606035679578781,1.3811222314834595,-28.582889556884766,3545.340087890625,1458.020263671875
33567.185,5.8716654777526855,-18.121809005737305,-2.582139492034912,-0.027926960960030556,0.009248299524188042,1.0400720834732056,48091.0,6.375028133392334,3.5110504627227783,-25.381235122680664,38.64653015136719,12.779568672180176,24.221359252929688,0.0,0.0,5.011432647705078,2665.78125,97.4327392578125,3216,0.0,0.0,0.0,-0.06606035679578781,1.3811222314834595,-28.582889556884766,2330.119873046875,1710.1998291015625
33569.173,6.945790767669678,-18.57905387878418,-2.3814613819122314,-0.030350740998983383,0.007811445742845535,1.0402250289916992,48742.0,6.696908473968506,3.5110504627227783,-25.381235122680664,40.15018081665039,12.621994972229004,26.28017807006836,0.0,0.0,5.017858505249023,4020.47314453125,-72.3436279296875,3439,0.0,0.0,0.0,0.005212021060287952,1.4073845148086548,-28.594228744506836,3268.2001953125,1132.4801025390625
33571.248,7.481674671173096,-18.716781616210938,-2.286395788192749,-0.03188934549689293,0.004928639158606529,1.039253830909729,48742.0,6.696908473968506,3.5110504627227783,-25.381235122680664,40.15018081665039,12.621994972229004,24.30224609375,0.0,0.0,5.024284362792969,3111.7138671875,369.1351318359375,3190,0.0,0.0,0.0,0.005212021060287952,1.4073845148086548,-28.594228744506836,3915.77978515625,662.3001098632812
33573.114,8.099151611328125,-18.99489974975586,-2.19915509223938,-0.03252866864204407,-0.0005723934154957533,1.0365123748779297,48742.0,6.696908473968506,3.5110504627227783,-25.381235122680664,39.71440505981445,12.441307067871094,26.24094581604004,0.0,0.0,5.030731678009033,2572.50537109375,52.69970703125,3412,0.0,0.0,0.0,0.0778408870100975,1.4374992847442627,-28.604904174804688,4050.420166015625,113.90000915527344
33575.081,9.104972839355469,-19.46931266784668,-2.004251480102539,-0.03219348192214966,-0.007264235056936741,1.0315907001495361,48742.0,6.696908473968506,3.5110504627227783,-25.381235122680664,39.71440505981445,12.441307067871094,24.379192352294922,0.0,0.0,5.037178993225098,2680.9541015625,-253.91571044921875,3166,0.0,0.0,0.0,0.0778408870100975,1.4374992847442627,-28.604904174804688,2604.5,618.239990234375
33577.065,10.10135269165039,-20.165924072265625,-1.58340322971344,-0.03264869004487991,-0.013058765791356564,1.0265371799468994,48742.0,6.696908473968506,3.5110504627227783,-25.381235122680664,39.25121307373047,12.219429016113281,25.902252197265625,0.0,0.0,5.043642997741699,1992.94091796875,-595.98193359375,3298,0.0,0.0,0.0,0.1550397276878357,1.474479079246521,-28.613283157348633,3016.9599609375,1087.60009765625
33579.031,10.660026550292969,-20.832773208618164,-1.2644294500350952,-0.03301744908094406,-0.017690755426883698,1.0203983783721924,48742.0,6.696908473968506,3.5110504627227783,-25.381235122680664,39.25121307373047,12.219429016113281,24.442394256591797,0.0,0.0,5.050107002258301,2262.62890625,-185.09500122070312,3084,0.0,0.0,0.0,0.1550397276878357,1.474479079246521,-28.613283157348633,3335.259765625,68.8200454711914
33581.093,10.879401206970215,-21.304759979248047,-1.065658450126648,-0.029553906992077827,-0.015233139507472515,1.0145875215530396,48742.0,6.696908473968506,3.5110504627227783,-25.381235122680664,38.75977325439453,11.980443954467773,25.620582580566406,0.0,0.0,5.056583881378174,1895.6820068359375,-178.6133575439453,3202,0.0,0.0,0.0,0.23694588243961334,1.5143097639083862,-28.6197566986084,1965.0198974609375,932.4402465820312
33582.977,10.970487594604492,-21.73294448852539,-0.8469592928886414,-0.02495112270116806,-0.009823974221944809,1.009718656539917,48742.0,6.696908473968506,3.5110504627227783,-25.381235122680664,38.75977325439453,11.980443954467773,24.494190216064453,0.0,0.0,5.063060760498047,2232.885986328125,83.17866516113281,3040,0.0,0.0,0.0,0.23694588243961334,1.5143097639083862,-28.6197566986084,1683.1397705078125,1108.960205078125
33584.958,11.377642631530762,-22.412891387939453,-0.7740405797958374,-0.02208574116230011,-0.0042616743594408035,1.006259560585022,48742.0,6.696908473968506,3.5110504627227783,-25.381235122680664,38.238563537597656,11.723976135253906,25.493560791015625,0.0,0.0,5.069548606872559,1472.9833984375,-445.76708984375,3152,0.0,0.0,0.0,0.32381471991539,1.5570544004440308,-28.625242233276367,1050.43994140625,56.55989074707031
33586.923,12.011594772338867,-22.736135482788086,-0.7609944939613342,-0.019260458648204803,0.0009534264099784195,1.0049729347229004,48742.0,6.696908473968506,3.5110504627227783,-25.381235122680664,38.238563537597656,11.723976135253906,24.54007911682129,0.0,0.0,5.07603645324707,2082.93115234375,-518.6068725585938,3036,0.0,0.0,0.0,0.32381471991539,1.5570544004440308,-28.625242233276367,2097.10009765625,748.4000244140625
33588.912,12.537466049194336,-22.705154418945312,-0.6598696112632751,-0.017325442284345627,0.00493356678634882,1.0061795711517334,48742.0,6.696908473968506,3.5110504627227783,-25.381235122680664,37.70857238769531,11.435060501098633,25.475936889648438,0.0,0.0,5.0825347900390625,1876.255126953125,-776.4509887695312,3136,0.0,0.0,0.0,0.41214612126350403,1.605207085609436,-28.6303768157959,2004.2200927734375,1034.900146484375
33590.947,12.68468952178955,-23.227413177490234,-0.5520548224449158,-0.01711244508624077,0.0027268414851278067,1.005163311958313,48742.0,6.696908473968506,3.5110504627227783,-25.381235122680664,37.70857238769531,11.435060501098633,24.58388328552246,0.0,0.0,5.089033126831055,1780.479736328125,-297.8619384765625,3016,0.0,0.0,0.0,0.41214612126350403,1.605207085609436,-28.6303768157959,1666.3798828125,538.4199829101562
33592.855,12.541747093200684,-24.307870864868164,-0.5217332243919373,-0.01690641976892948,-0.0031272131018340588,1.0025520324707031,48742.0,6.696908473968506,3.5110504627227783,-25.381235122680664,37.140846252441406,11.150840759277344,25.464168548583984,0.0,0.0,5.095541000366211,688.8084716796875,-314.59393310546875,3118,0.0,0.0,0.0,0.5067679286003113,1.6525769233703613,-28.635204315185547,2853.679931640625,889.3801879882812
33594.828,12.55024528503418,-24.869564056396484,-0.4302249550819397,-0.016872607171535492,-0.008262073621153831,1.0023502111434937,48742.0,6.696908473968506,3.5110504627227783,-25.381235122680664,37.140846252441406,11.150840759277344,24.625864028930664,0.0,0.0,5.102048873901367,1419.4224853515625,-216.28431701660156,3006,0.0,0.0,0.0,0.5067679286003113,1.6525769233703613,-28.635204315185547,-189.77976989746094,-1140.880126953125
33596.81,12.876017570495605,-25.11054801940918,-0.2351822704076767,-0.01644560694694519,-0.011339829303324223,1.0010899305343628,48742.0,6.696908473968506,3.5110504627227783,-25.381235122680664,36.55440902709961,10.863533020019531,25.32870864868164,0.0,0.0,5.108564376831055,1096.01318359375,-761.6826782226562,3067,0.0,0.0,0.0,0.6045070290565491,1.7004616260528564,-28.63905143737793,2336.960205078125,-172.16012573242188
33598.766,13.428792953491211,-25.71980094909668,-0.21671360731124878,-0.014763141050934792,-0.01326296478509903,1.0014930963516235,48742.0,6.696908473968506,3.5110504627227783,-25.381235122680664,36.55440902709961,10.863533020019531,24.661977767944336,0.0,0.0,5.115079879760742,1168.25146484375,-799.3704833984375,2985,0.0,0.0,0.0,0.6045070290565491,1.7004616260528564,-28.63905143737793,2783.300048828125,-1734.4598388671875
33600.826,13.822956085205078,-26.70839500427246,-0.31035757064819336,-0.014072510413825512,-0.014660058543086052,1.0050444602966309,48742.0,6.696908473968506,3.5110504627227783,-25.381235122680664,35.929466247558594,10.555654525756836,25.468055725097656,0.0,0.0,5.1216044425964355,173.008056640625,-1016.62646484375,3093,0.0,0.0,0.0,0.70866459608078,1.751774787902832,-28.643468856811523,1245.5797119140625,-983.10009765625
33602.719,13.955424308776855,-27.360069274902344,-0.10934162139892578,-0.015126515179872513,-0.015361356548964977,1.0082536935806274,48742.0,6.696908473968506,3.5110504627227783,-25.381235122680664,35.929466247558594,10.555654525756836,24.70153045654297,0.0,0.0,5.128129005432129,796.6538696289062,-609.316650390625,2977,0.0,0.0,0.0,0.70866459608078,1.751774787902832,-28.643468856811523,-471.78009033203125,-1486.6800537109375
33604.702,14.088593482971191,-27.271541595458984,0.20787136256694794,-0.0161134023219347,-0.014870947226881981,1.0102120637893677,48742.0,6.696908473968506,3.5110504627227783,-25.381235122680664,35.29275131225586,10.242071151733398,25.16100311279297,0.0,0.0,5.134658336639404,792.0409545898438,-912.042724609375,2994,0.0,0.0,0.0,0.8147832751274109,1.8040385246276855,-28.645971298217773,1583.2398681640625,-2888.719482421875
33606.662,14.25025463104248,-27.08942222595215,0.348337322473526,-0.01797267235815525,-0.008875670842826366,1.0119329690933228,48742.0,6.696908473968506,3.5110504627227783,-25.381235122680664,35.29275131225586,10.242071151733398,24.729604721069336,0.0,0.0,5.14118766784668,1367.0888671875,-722.473388671875,2925,0.0,0.0,0.0,0.8147832751274109,1.8040385246276855,-28.645971298217773,-1699.1400146484375,-3205.919921875
33608.645,14.361465454101562,-27.343599319458008,0.28353917598724365,-0.021071041002869606,-0.000674600712954998,1.0134928226470947,48742.0,6.696908473968506,3.5110504627227783,-25.381235122680664,34.657920837402344,9.914766311645508,25.15628433227539,0.0,0.0,5.147721767425537,430.392578125,-995.8916015625,2984,0.0,0.0,0.0,0.9205881953239441,1.8585894107818604,-28.648292541503906,1259.079833984375,-2135.43994140625
33610.689,13.91038703918457,-27.60898208618164,0.2096588909626007,-0.0218281801789999,0.004177927039563656,1.0149176120758057,48742.0,6.696908473968506,3.5110504627227783,-25.381235122680664,34.657920837402344,9.914766311645508,24.75659942626953,0.0,0.0,5.1542558670043945,858.3037719726562,-261.0343322753906,2945,0.0,0.0,0.0,0.9205881953239441,1.8585894107818604,-28.648292541503906,357.0197448730469,-2082.31982421875
33612.595,13.175459861755371,-27.875247955322266,0.4460394084453583,-0.02016507461667061,0.007466617040336132,1.0162180662155151,48742.0,6.696908473968506,3.5110504627227783,-25.381235122680664,34.01076889038086,9.612101554870605,25.096630096435547,0.0,0.0,5.160793781280518,235.2647705078125,-210.30694580078125,2958,0.0,0.0,0.0,1.028447151184082,1.9090335369110107,-28.650135040283203,1650.8798828125,-970.6996459960938
33614.564,12.840299606323242,-28.670257568359375,0.6817156672477722,-0.01786247082054615,0.008538352325558662,1.0159406661987305,48742.0,6.696908473968506,3.5110504627227783,-25.381235122680664,34.01076889038086,9.612101554870605,24.780731201171875,0.0,0.0,5.167331695556641,204.81951904296875,-232.85952758789062,2891,0.0,0.0,0.0,1.028447151184082,1.9090335369110107,-28.650135040283203,1631.4598388671875,-1963.6396484375
33616.547,12.253560066223145,-29.231090545654297,0.9590038657188416,-0.01735091581940651,0.007737849839031696,1.0150290727615356,48742.0,6.696908473968506,3.5110504627227783,-25.381235122680664,33.3303337097168,9.332074165344238,24.799352645874023,0.0,0.0,5.173869609832764,-316.0645751953125,-208.18881225585938,2860,0.0,0.0,0.0,1.1418530941009521,1.9557048082351685,-28.65020179748535,489.8800048828125,-2211.359619140625
33618.506,11.332962989807129,-29.2828369140625,1.3217566013336182,-0.020351067185401917,0.0040344418957829475,1.0139133930206299,48742.0,6.696908473968506,3.5110504627227783,-25.381235122680664,33.3303337097168,9.332074165344238,24.794208526611328,0.0,0.0,5.180407524108887,568.3147583007812,390.3144226074219,2816,0.0,0.0,0.0,1.1418530941009521,1.9557048082351685,-28.65020179748535,438.2400207519531,-1235.8199462890625
33620.572,10.79637622833252,-29.249900817871094,1.4547781944274902,-0.0237206369638443,0.0005034827627241611,1.014630675315857,48742.0,6.696908473968506,3.5110504627227783,-25.381235122680664,32.653533935546875,9.09158706665039,24.466903686523438,0.0,0.0,5.186941623687744,27.647247314453125,-33.64363098144531,2761,0.0,0.0,0.0,1.2546526193618774,1.9957859516143799,-28.648357391357422,384.7999267578125,-21.219999313354492
33622.457,10.449987411499023,-29.46845245361328,1.3887977600097656,-0.027052409946918488,-0.0028834170661866665,1.0147120952606201,48742.0,6.696908473968506,3.5110504627227783,-25.381235122680664,32.653533935546875,9.09158706665039,24.79620933532715,0.0,0.0,5.193475723266602,313.8485107421875,56.03153991699219,2808,0.0,0.0,0.0,1.2546526193618774,1.9957859516143799,-28.648357391357422,132.83998107910156,-1054.26025390625
33624.439,9.774975776672363,-29.332509994506836,1.4513071775436401,-0.030423888936638832,-0.006118778605014086,1.0135769844055176,48742.0,6.696908473968506,3.5110504627227783,-25.381235122680664,31.979433059692383,8.879562377929688,24.484092712402344,0.0,0.0,5.200006484985352,-6.580322265625,212.92819213867188,2763,0.0,0.0,0.0,1.3670029640197754,2.031123399734497,-28.646596908569336,189.3796844482422,1272.89990234375
33626.403,8.386561393737793,-28.81414794921875,1.8475353717803955,-0.03238063305616379,-0.008354050107300282,1.0127661228179932,48742.0,6.696908473968506,3.5110504627227783,-25.381235122680664,31.979433059692383,8.879562377929688,24.798707962036133,0.0,0.0,5.206537246704102,863.564208984375,1115.260986328125,2754,0.0,0.0,0.0,1.3670029640197754,2.031123399734497,-28.646596908569336,1115.659912109375,-64.31967163085938
33628.385,6.769807815551758,-28.47648811340332,2.2933876514434814,-0.03050306811928749,-0.007451219484210014,1.011413335800171,48742.0,6.696908473968506,3.5110504627227783,-25.381235122680664,31.326217651367188,8.74125862121582,23.863094329833984,0.0,0.0,5.213057518005371,190.79275512695312,1404.554931640625,2588,0.0,0.0,0.0,1.4758719205856323,2.0541739463806152,-28.64139175415039,1261.340087890625,1090.9002685546875
33630.426,5.13954496383667,-28.408592224121094,2.3055315017700195,-0.027110552415251732,-0.006709602661430836,1.0077338218688965,48742.0,6.696908473968506,3.5110504627227783,-25.381235122680664,31.326217651367188,8.74125862121582,24.780517578125,0.0,0.0,5.219577789306641,488.5657043457031,1762.9541015625,2696,0.0,0.0,0.0,1.4758719205856323,2.0541739463806152,-28.64139175415039,979.4600219726562,1267.420166015625
33632.334,3.6676268577575684,-28.072969436645508,2.1950743198394775,-0.02425355650484562,-0.007959403097629547,1.0048809051513672,48742.0,6.696908473968506,3.5110504627227783,-25.381235122680664,30.680484771728516,8.677923202514648,23.91083526611328,0.0,0.0,5.226088523864746,158.54473876953125,1807.9814453125,2605,0.0,0.0,0.0,1.5834940671920776,2.064729928970337,-28.636550903320312,509.53997802734375,954.980224609375
33634.299,2.507749557495117,-27.37835121154785,2.1412999629974365,-0.02122410200536251,-0.005322141572833061,1.0031756162643433,48742.0,6.696908473968506,3.5110504627227783,-25.381235122680664,30.680484771728516,8.677923202514648,24.764493942260742,0.0,0.0,5.232599258422852,1016.28369140625,1795.4339599609375,2714,0.0,0.0,0.0,1.5834940671920776,2.064729928970337,-28.636550903320312,-13.100057601928711,972.2202758789062
33636.282,1.4519016742706299,-26.58869743347168,2.0295896530151367,-0.018188124522566795,-0.000403542973799631,1.000983476638794,48742.0,6.696908473968506,3.5110504627227783,-25.381235122680664,30.068157196044922,8.663741111755371,23.97869300842285,0.0,0.0,5.239100933074951,654.91357421875,1863.0255126953125,2633,0.0,0.0,0.0,1.6855489015579224,2.06709361076355,-28.632173538208008,993.8997802734375,1079.139892578125
33638.247,0.38433289527893066,-26.16547393798828,1.938359022140503,-0.016279196366667747,0.00401513185352087,1.0011193752288818,48742.0,6.696908473968506,3.5110504627227783,-25.381235122680664,30.068157196044922,8.663741111755371,24.751232147216797,0.0,0.0,5.245602607727051,902.820068359375,2042.5877685546875,2737,0.0,0.0,0.0,1.6855489015579224,2.06709361076355,-28.632173538208008,1261.340087890625,1090.9002685546875
33640.304,-0.9158666133880615,-26.02690315246582,1.7761614322662354,-0.017689581960439682,0.005906071048229933,1.0009046792984009,48742.0,6.696908473968506,3.5110504627227783,-25.381235122680664,29.470190048217773,8.702850341796875,24.137004852294922,0.0,0.0,5.2520976066589355,171.94580078125,2447.2890625,2683,0.0,0.0,0.0,1.785210132598877,2.060575485229492,-28.62874412536621,584.6798706054688,1808.440185546875
33642.199,-2.2701966762542725,-26.213178634643555,1.7382146120071411,-0.02221732586622238,0.006324106827378273,0.9990708827972412,48742.0,6.696908473968506,3.5110504627227783,-25.381235122680664,29.470190048217773,8.702850341796875,24.7436466217041,0.0,0.0,5.25859260559082,348.8450927734375,2661.70458984375,2760,0.0,0.0,0.0,1.785210132598877,2.060575485229492,-28.62874412536621,841.4799194335938,2650.400390625
33644.18,-3.664665937423706,-26.614992141723633,2.048635959625244,-0.023337792605161667,0.005865220911800861,0.9963215589523315,48742.0,6.696908473968506,3.5110504627227783,-25.381235122680664,28.862003326416016,8.808107376098633,23.94229507446289,0.0,0.0,5.265078544616699,-420.4484558105469,2995.710693359375,2627,0.0,0.0,0.0,1.8865748643875122,2.043032646179199,-28.62428092956543,-36.54010772705078,2318.400146484375
33646.142,-5.046225547790527,-26.108531951904297,2.3031210899353027,-0.022237639874219894,0.005323975812643766,0.9958757162094116,48742.0,6.696908473968506,3.5110504627227783,-25.381235122680664,28.862003326416016,8.808107376098633,24.729839324951172,0.0,0.0,5.271564483642578,792.8658447265625,3114.3193359375,2691,0.0,0.0,0.0,1.8865748643875122,2.043032646179199,-28.62428092956543,-506.2601623535156,2466.280029296875
33648.131,-6.143138885498047,-25.060781478881836,2.337247133255005,-0.019296813756227493,0.004579599015414715,0.9947625994682312,48742.0,6.696908473968506,3.5110504627227783,-25.381235122680664,28.289514541625977,8.973715782165527,23.670589447021484,0.0,0.0,5.27803897857666,840.7562255859375,3214.419677734375,2560,0.0,0.0,0.0,1.9819891452789307,2.0154311656951904,-28.618392944335938,788.759765625,2980.080322265625
33650.171,-6.871379375457764,-24.840152740478516,2.3220248222351074,-0.015568999573588371,0.004414157476276159,0.9958708882331848,48742.0,6.696908473968506,3.5110504627227783,-25.381235122680664,28.289514541625977,8.973715782165527,24.707460403442383,0.0,0.0,5.284513473510742,682.8758544921875,2922.944091796875,2686,0.0,0.0,0.0,1.9819891452789307,2.0154311656951904,-28.618392944335938,715.2598266601562,2454.3203125
33652.076,-7.668593406677246,-25.13165283203125,2.3584177494049072,-0.01523568108677864,0.003995802253484726,1.0048354864120483,48742.0,6.696908473968506,3.5110504627227783,-25.381235122680664,27.713951110839844,9.176103591918945,23.623685836791992,0.0,0.0,5.290975570678711,-262.952880859375,3276.4052734375,2551,0.0,0.0,0.0,2.0779166221618652,1.9816999435424805,-28.612369537353516,598.2597045898438,3700.020263671875
33654.041,-8.842268943786621,-25.636451721191406,2.427072525024414,-0.016224924474954605,0.0033961841836571693,1.016913890838623,48742.0,6.696908473968506,3.5110504627227783,-25.381235122680664,27.713951110839844,9.176103591918945,24.68424415588379,0.0,0.0,5.29743766784668,-66.9742431640625,3583.012451171875,2670,0.0,0.0,0.0,2.0779166221618652,1.9816999435424805,-28.612369537353516,456.81982421875,1284.6602783203125
33656.022,-10.125385284423828,-25.839153289794922,2.380845308303833,-0.01808672398328781,0.0028478146996349096,1.029052972793579,48742.0,6.696908473968506,3.5110504627227783,-25.381235122680664,27.123733520507812,9.437883377075195,23.588375091552734,0.0,0.0,5.303887844085693,-402.0022888183594,4093.1630859375,2544,0.0,0.0,0.0,2.176286220550537,1.9380698204040527,-28.606279373168945,-1091.699951171875,2620.22021484375
33657.987,-11.167739868164062,-25.410829544067383,2.3913235664367676,-0.022731076925992966,0.0001193130956380628,1.033562421798706,48742.0,6.696908473968506,3.5110504627227783,-25.381235122680664,27.123733520507812,9.437883377075195,24.660602569580078,0.0,0.0,5.310338020324707,578.1784057617188,3872.609375,2672,0.0,0.0,0.0,2.176286220550537,1.9380698204040527,-28.606279373168945,788.759765625,2980.080322265625
33660.046,-11.905415534973145,-24.663894653320312,2.522368907928467,-0.02859560213983059,-0.0034165536053478718,1.0347013473510742,48742.0,6.696908473968506,3.5110504627227783,-25.381235122680664,26.56792449951172,9.745527267456055,23.414199829101562,0.0,0.0,5.316774368286133,428.9488830566406,4031.6318359375,2507,0.0,0.0,0.0,2.2689208984375,1.886795997619629,-28.59935760498047,-1832.2393798828125,2211.580322265625
33661.94,-12.421670913696289,-23.436767578125,2.4386651515960693,-0.03383171930909157,-0.007166101597249508,1.033157467842102,48742.0,6.696908473968506,3.5110504627227783,-25.381235122680664,26.56792449951172,9.745527267456055,24.631946563720703,0.0,0.0,5.323210716247559,1390.018798828125,3712.2705078125,2663,0.0,0.0,0.0,2.2689208984375,1.886795997619629,-28.59935760498047,571.3798828125,1981.7403564453125
33663.921,-13.032588958740234,-22.518444061279297,2.413421392440796,-0.03775905817747116,-0.010928518138825893,1.0287522077560425,48742.0,6.696908473968506,3.5110504627227783,-25.381235122680664,26.069320678710938,10.083768844604492,23.39139747619629,0.0,0.0,5.3296332359313965,847.4212036132812,4179.3232421875,2517,0.0,0.0,0.0,2.3520216941833496,1.8304224014282227,-28.59246826171875,-577.9198608398438,1931.340087890625
33665.883,-13.660962104797363,-22.398670196533203,2.5590662956237793,-0.037102654576301575,-0.00984882190823555,1.0212351083755493,48742.0,6.696908473968506,3.5110504627227783,-25.381235122680664,26.069320678710938,10.083768844604492,24.60345458984375,0.0,0.0,5.336055755615234,640.427978515625,4032.990234375,2645,0.0,0.0,0.0,2.3520216941833496,1.8304224014282227,-28.59246826171875,311.3996887207031,2460.8203125
33667.866,-14.239675521850586,-22.1710147857666,2.591024160385132,-0.03438223525881767,-0.006804846692830324,1.0140612125396729,48742.0,6.696908473968506,3.5110504627227783,-25.381235122680664,25.578197479248047,10.44857120513916,23.212369918823242,0.0,0.0,5.34246301651001,313.4765625,4410.8740234375,2474,0.0,0.0,0.0,2.433875799179077,1.7696219682693481,-28.584747314453125,738.0597534179688,4627.2001953125
33669.915,-15.046706199645996,-21.50735855102539,2.526301145553589,-0.030786070972681046,-0.0047271279618144035,1.0083868503570557,48742.0,6.696908473968506,3.5110504627227783,-25.381235122680664,25.578197479248047,10.44857120513916,24.569942474365234,0.0,0.0,5.348870277404785,1108.367919921875,4429.5634765625,2645,0.0,0.0,0.0,2.433875799179077,1.7696219682693481,-28.584747314453125,162.73968505859375,2335.440185546875
33671.814,-15.843586921691895,-20.6092529296875,2.5615711212158203,-0.026657838374376297,-0.0026723474729806185,1.0020924806594849,48742.0,6.696908473968506,3.5110504627227783,-25.381235122680664,25.12128448486328,10.849184036254883,23.15053367614746,0.0,0.0,5.355261325836182,1007.69921875,4902.03662109375,2470,0.0,0.0,0.0,2.5100278854370117,1.7028532028198242,-28.57686996459961,837.1795654296875,4410.3798828125
33673.787,-16.553150177001953,-20.070083618164062,2.6183419227600098,-0.023900311440229416,-0.00042622044566087425,0.9990361928939819,48742.0,6.696908473968506,3.5110504627227783,-25.381235122680664,25.12128448486328,10.849184036254883,24.53546142578125,0.0,0.0,5.361652374267578,1162.05712890625,4642.52197265625,2630,0.0,0.0,0.0,2.5100278854370117,1.7028532028198242,-28.57686996459961,205.73980712890625,4128.7998046875
33675.765,-17.19879722595215,-19.600345611572266,2.6914470195770264,-0.020957499742507935,0.0017418755451217294,0.9987704753875732,48742.0,6.696908473968506,3.5110504627227783,-25.381235122680664,24.686141967773438,11.279536247253418,22.986228942871094,0.0,0.0,5.368026256561279,788.8160400390625,5078.74853515625,2435,0.0,0.0,0.0,2.5825512409210205,1.6311277151107788,-28.568275451660156,335.21978759765625,4269.7001953125
33677.727,-17.7637996673584,-18.99802017211914,2.7545948028564453,-0.017769498750567436,0.0006531463004648685,0.9957374334335327,48742.0,6.696908473968506,3.5110504627227783,-25.381235122680664,24.686141967773438,11.279536247253418,24.49664306640625,0.0,0.0,5.3744001388549805,1304.96240234375,4780.251953125,2609,0.0,0.0,0.0,2.5825512409210205,1.6311277151107788,-28.568275451660156,-160.64010620117188,5394.919921875
33679.783,-18.253337860107422,-18.21574592590332,2.646336555480957,-0.015902653336524963,-0.0016063571674749255,0.9932036995887756,48742.0,6.696908473968506,3.5110504627227783,-25.381235122680664,24.282194137573242,11.736433982849121,22.93116569519043,0.0,0.0,5.380756855010986,1193.7120361328125,5208.2939453125,2434,0.0,0.0,0.0,2.6498758792877197,1.5549781322479248,-28.55959129333496,392.479736328125,3652.4599609375
33681.683,-18.994340896606445,-16.99638557434082,2.597606897354126,-0.013798738829791546,-0.005799898412078619,0.9915158748626709,48742.0,6.696908473968506,3.5110504627227783,-25.381235122680664,24.282194137573242,11.736433982849121,24.457250595092773,0.0,0.0,5.387113571166992,2007.3916015625,5165.3671875,2623,0.0,0.0,0.0,2.6498758792877197,1.5549781322479248,-28.55959129333496,719.179931640625,7101.419921875
33683.671,-20.112640380859375,-15.942604064941406,2.651045083999634,-0.011337945237755775,-0.009635238908231258,0.9901089072227478,48742.0,6.696908473968506,3.5110504627227783,-25.381235122680664,23.930835723876953,12.241813659667969,22.819948196411133,0.0,0.0,5.393452167510986,1725.052001953125,6070.927734375,2420,0.0,0.0,0.0,2.7084357738494873,1.4707481861114502,-28.55051040649414,1244.9599609375,3427.68017578125
33685.636,-20.702503204345703,-14.867162704467773,2.645642042160034,-0.009759447537362576,-0.01020617876201868,0.9911550879478455,48742.0,6.696908473968506,3.5110504627227783,-25.381235122680664,23.930835723876953,12.241813659667969,24.415443420410156,0.0,0.0,5.3997907638549805,2166.1318359375,5384.04443359375,2612,0.0,0.0,0.0,2.7084357738494873,1.4707481861114502,-28.55051040649414,408.439697265625,5611.560546875
33687.617,-20.563507080078125,-14.108793258666992,2.6430931091308594,-0.008812285028398037,-0.00972320232540369,0.9964430928230286,48742.0,6.696908473968506,3.5110504627227783,-25.381235122680664,23.622547149658203,12.757347106933594,22.734622955322266,0.0,0.0,5.406110763549805,1764.623779296875,5280.53076171875,2410,0.0,0.0,0.0,2.759817361831665,1.3848259449005127,-28.541189193725586,1358.4598388671875,6875.7802734375
33689.645,-20.31847381591797,-13.760638236999512,2.655198335647583,-0.01036022137850523,-0.007901005446910858,1.0022083520889282,48742.0,6.696908473968506,3.5110504627227783,-25.381235122680664,23.622547149658203,12.757347106933594,24.372154235839844,0.0,0.0,5.412430763244629,1740.402587890625,4777.59814453125,2606,0.0,0.0,0.0,2.759817361831665,1.3848259449005127,-28.541189193725586,1434.919677734375,3478.38037109375
33691.57,-20.561542510986328,-13.235053062438965,2.588920831680298,-0.01412883959710598,-0.0057743871584534645,1.007569670677185,48742.0,6.696908473968506,3.5110504627227783,-25.381235122680664,23.338581085205078,13.269853591918945,22.704435348510742,0.0,0.0,5.418732166290283,1696.7435302734375,5641.39208984375,2413,0.0,0.0,0.0,2.8071448802948,1.2994080781936646,-28.531940460205078,-594.7796020507812,5528.7001953125
33693.537,-21.39232635498047,-12.288900375366211,2.3793463706970215,-0.016449976712465286,-0.002266065450385213,1.013688564300537,48742.0,6.696908473968506,3.5110504627227783,-25.381235122680664,23.338581085205078,13.269853591918945,24.329265594482422,0.0,0.0,5.4250335693359375,2367.066650390625,5822.41162109375,2633,0.0,0.0,0.0,2.8071448802948,1.2994080781936646,-28.531940460205078,234.0597686767578,6122.6201171875
33695.523,-21.920541763305664,-11.217941284179688,2.4640915393829346,-0.018450411036610603,0.0014158280100673437,1.017747402191162,48742.0,6.696908473968506,3.5110504627227783,-25.381235122680664,23.105701446533203,13.810245513916016,22.711240768432617,0.0,0.0,5.43131685256958,2411.7236328125,6161.07666015625,2429,0.0,0.0,0.0,2.8459582328796387,1.2093429565429688,-28.522966384887695,981.0598754882812,4326.919921875
33697.492,-22.143613815307617,-10.161561012268066,2.776195526123047,-0.020946577191352844,0.0051901028491556644,1.0174915790557861,48742.0,6.696908473968506,3.5110504627227783,-25.381235122680664,23.105701446533203,13.810245513916016,24.287986755371094,0.0,0.0,5.437600135803223,2733.90625,5560.3798828125,2581,0.0,0.0,0.0,2.8459582328796387,1.2093429565429688,-28.522966384887695,1150.3197021484375,3532.800048828125
33699.528,-22.324634552001953,-9.14998722076416,3.1034817695617676,-0.022527731955051422,0.007618254516273737,1.016431450843811,48742.0,6.696908473968506,3.5110504627227783,-25.381235122680664,22.92460823059082,14.357010841369629,22.170391082763672,0.0,0.0,5.443860054016113,2689.053466796875,6048.0869140625,2288,0.0,0.0,0.0,2.8761403560638428,1.1182152032852173,-28.511232376098633,1491.1395263671875,5881.2998046875
33701.447,-22.441497802734375,-8.192387580871582,3.3466057777404785,-0.023900248110294342,0.00966291781514883,1.015627145767212,48742.0,6.696908473968506,3.5110504627227783,-25.381235122680664,22.92460823059082,14.357010841369629,24.2301025390625,0.0,0.0,5.450119972229004,2928.03271484375,5607.423828125,2506,0.0,0.0,0.0,2.8761403560638428,1.1182152032852173,-28.511232376098633,3201.139892578125,4830.56005859375
33703.429,-22.341434478759766,-7.144326210021973,3.3887219429016113,-0.02459362894296646,0.011880699545145035,1.012024998664856,48742.0,6.696908473968506,3.5110504627227783,-25.381235122680664,22.792903900146484,14.901429176330566,21.871511459350586,0.0,0.0,5.456353664398193,3034.554443359375,5919.6953125,2217,0.0,0.0,0.0,2.8980913162231445,1.027478814125061,-28.498167037963867,2610.759765625,5343.6201171875
33705.398,-22.029497146606445,-5.967721939086914,3.5263876914978027,-0.024943286553025246,0.01300305686891079,1.0057129859924316,48742.0,6.696908473968506,3.5110504627227783,-25.381235122680664,22.792903900146484,14.901429176330566,24.1641788482666,0.0,0.0,5.462587356567383,3406.23046875,5305.6875,2476,0.0,0.0,0.0,2.8980913162231445,1.027478814125061,-28.498167037963867,3252.079833984375,8034.9208984375
33707.381,-21.71019172668457,-5.319921016693115,3.7504892349243164,-0.028545167297124863,0.009427293203771114,1.0001633167266846,48742.0,6.696908473968506,3.5110504627227783,-25.381235122680664,22.707292556762695,15.431611061096191,21.51176643371582,0.0,0.0,5.468791961669922,3029.74755859375,5729.427734375,2131,0.0,0.0,0.0,2.9123597145080566,0.9391151666641235,-28.483478546142578,1957.5599365234375,3461.140380859375
33709.389,-21.11058807373047,-4.705198287963867,3.725261688232422,-0.03338673338294029,0.0030520258005708456,0.9964009523391724,48742.0,6.696908473968506,3.5110504627227783,-25.381235122680664,22.707292556762695,15.431611061096191,24.088457107543945,0.0,0.0,5.474996566772461,3161.356689453125,5031.62548828125,2443,0.0,0.0,0.0,2.9123597145080566,0.9391151666641235,-28.483478546142578,2295.65966796875,5687.5400390625
33711.332,-20.493619918823242,-3.73104190826416,3.531040668487549,-0.03367990255355835,0.002932781120762229,0.9917531609535217,48742.0,6.696908473968506,3.5110504627227783,-25.381235122680664,22.6629581451416,15.935068130493164,21.568239212036133,0.0,0.0,5.481173038482666,3537.153076171875,5379.17041015625,2164,0.0,0.0,0.0,2.9197487831115723,0.855205774307251,-28.469520568847656,3599.66015625,6893.45947265625
33713.294,-20.13039207458496,-2.8826634883880615,3.3123817443847656,-0.032567162066698074,0.004213013220578432,0.9866476058959961,48742.0,6.696908473968506,3.5110504627227783,-25.381235122680664,22.6629581451416,15.935068130493164,24.01706314086914,0.0,0.0,5.487349510192871,3603.32861328125,5137.39794921875,2484,0.0,0.0,0.0,2.9197487831115723,0.855205774307251,-28.469520568847656,2633.300048828125,2540.539794921875
33715.276,-19.83484649658203,-1.9568071365356445,3.272663116455078,-0.031005095690488815,0.005076262168586254,0.9837121963500977,48742.0,6.696908473968506,3.5110504627227783,-25.381235122680664,22.66001319885254,16.42043685913086,21.663564682006836,0.0,0.0,5.493500232696533,3797.66357421875,5580.65966796875,2206,0.0,0.0,0.0,2.9202396869659424,0.7743108868598938,-28.456483840942383,2508.119873046875,4374.3603515625
33717.208,-19.421295166015625,-0.8542416095733643,3.3333098888397217,-0.027726246044039726,0.0072096255607903,0.9802334904670715,48742.0,6.696908473968506,3.5110504627227783,-25.381235122680664,22.66001319885254,16.42043685913086,23.951143264770508,0.0,0.0,5.499650955200195,4097.7900390625,5066.09619140625,2474,0.0,0.0,0.0,2.9202396869659424,0.7743108868598938,-28.456483840942383,3953.440185546875,6371.73974609375
33719.272,-18.733678817749023,0.20474965870380402,3.231334924697876,-0.027445601299405098,0.009324907325208187,0.9850347638130188,48742.0,6.696908473968506,3.5110504627227783,-25.381235122680664,22.706920623779297,16.876235961914062,21.610393524169922,0.0,0.0,5.505775451660156,4266.17529296875,5167.6259765625,2205,0.0,0.0,0.0,2.912421703338623,0.6983444094657898,-28.443517684936523,3595.240234375,5690.43994140625
33721.155,-17.865781784057617,1.3396964073181152,2.815617561340332,-0.02778194285929203,0.011766426265239716,0.9943244457244873,48742.0,6.696908473968506,3.5110504627227783,-25.381235122680664,22.706920623779297,16.876235961914062,23.885595321655273,0.0,0.0,5.511899948120117,4458.20263671875,4560.3798828125,2528,0.0,0.0,0.0,2.912421703338623,0.6983444094657898,-28.443517684936523,2611.459716796875,4757.68017578125
33723.139,-17.062957763671875,2.5461246967315674,2.4629573822021484,-0.02833505906164646,0.015968406572937965,1.0049173831939697,48742.0,6.696908473968506,3.5110504627227783,-25.381235122680664,22.810245513916016,17.286785125732422,22.088909149169922,0.0,0.0,5.518004417419434,4785.7705078125,4858.25390625,2355,0.0,0.0,0.0,2.895200729370117,0.6299198865890503,-28.433557510375977,2722.479736328125,4974.76025390625
33725.104,-16.52479362487793,3.5871362686157227,2.461124897003174,-0.03010069578886032,0.01931249350309372,1.0180583000183105,48742.0,6.696908473968506,3.5110504627227783,-25.381235122680664,22.810245513916016,17.286785125732422,23.838043212890625,0.0,0.0,5.52410888671875,4740.36474609375,4668.11181640625,2565,0.0,0.0,0.0,2.895200729370117,0.6299198865890503,-28.433557510375977,2994.079833984375,5369.48046875
33727.089,-15.948236465454102,4.289823055267334,2.4791154861450195,-0.03158388286828995,0.01778765395283699,1.022596001625061,48742.0,6.696908473968506,3.5110504627227783,-25.381235122680664,22.956663131713867,17.66911506652832,22.02062225341797,0.0,0.0,5.530193328857422,4723.80224609375,4896.93359375,2344,0.0,0.0,0.0,2.870797872543335,0.56619793176651,-28.42348289489746,5543.69970703125,5313.96044921875
33729.14,-15.591728210449219,5.342378616333008,2.2270569801330566,-0.03271174058318138,0.015230280347168446,1.023375391960144,48742.0,6.696908473968506,3.5110504627227783,-25.381235122680664,22.956663131713867,17.66911506652832,23.789764404296875,0.0,0.0,5.536277770996094,5034.2724609375,4721.7431640625,2587,0.0,0.0,0.0,2.870797872543335,0.56619793176651,-28.42348289489746,2550.57958984375,4204.3603515625
33731.036,-15.401337623596191,6.580655574798584,2.0442092418670654,-0.03371313959360123,0.011595934629440308,1.0235557556152344,49394.0,6.696908473968506,3.5110504627227783,-25.381235122680664,23.158920288085938,18.04049301147461,22.27233123779297,0.0,0.0,5.5423455238342285,5541.33740234375,5152.015625,2427,0.0,0.0,0.0,2.8370883464813232,0.5043016672134399,-28.41506576538086,4601.16015625,5598.26025390625
33733.003,-14.752717971801758,7.088245868682861,2.1765456199645996,-0.03339783102273941,0.004598327446728945,1.0206429958343506,49394.0,6.696908473968506,3.5110504627227783,-25.381235122680664,23.158920288085938,18.04049301147461,23.75139617919922,0.0,0.0,5.548413276672363,4917.7666015625,4432.51953125,2588,0.0,0.0,0.0,2.8370883464813232,0.5043016672134399,-28.41506576538086,4711.9599609375,3644.080078125
33734.982,-13.805089950561523,7.459975242614746,2.3276126384735107,-0.032278746366500854,-0.002808528719469905,1.0176409482955933,49394.0,6.696908473968506,3.5110504627227783,-25.381235122680664,23.381214141845703,18.38096809387207,22.01610565185547,0.0,0.0,5.554461479187012,5071.697265625,4372.54248046875,2362,0.0,0.0,0.0,2.800039291381836,0.4475557506084442,-28.405445098876953,5181.8798828125,3956.52001953125
33736.948,-12.937752723693848,8.100775718688965,2.316619873046875,-0.03111921437084675,-0.009552985429763794,1.0111274719238281,49394.0,6.696908473968506,3.5110504627227783,-25.381235122680664,23.381214141845703,18.38096809387207,23.705768585205078,0.0,0.0,5.56050968170166,5202.8994140625,4047.305908203125,2566,0.0,0.0,0.0,2.800039291381836,0.4475557506084442,-28.405445098876953,4596.81982421875,3302.7001953125
33739.031,-12.144987106323242,9.000480651855469,2.2479066848754883,-0.03000742755830288,-0.018279418349266052,1.004586935043335,49394.0,6.696908473968506,3.5110504627227783,-25.381235122680664,23.639034271240234,18.68935203552246,22.013957977294922,0.0,0.0,5.566539287567139,5764.0703125,4261.86376953125,2371,0.0,0.0,0.0,2.7570695877075195,0.396158367395401,-28.39606475830078,4966.97998046875,4103.50048828125
33740.895,-11.840353965759277,10.244083404541016,2.160325765609741,-0.029529284685850143,-0.02508336864411831,0.998577892780304,49394.0,6.696908473968506,3.5110504627227783,-25.381235122680664,23.639034271240234,18.68935203552246,23.66154670715332,0.0,0.0,5.572568893432617,6015.169921875,4350.97998046875,2580,0.0,0.0,0.0,2.7570695877075195,0.396158367395401,-28.39606475830078,5254.6796875,4165.35986328125
33742.879,-11.91869068145752,11.083016395568848,2.2398414611816406,-0.03045126236975193,-0.02431817166507244,0.9913994669914246,49394.0,6.696908473968506,3.5110504627227783,-25.381235122680664,23.946754455566406,18.995216369628906,21.967300415039062,0.0,0.0,5.578579902648926,6114.45458984375,4925.23681640625,2367,0.0,0.0,0.0,2.705782651901245,0.34518128633499146,-28.38667106628418,5991.0400390625,3996.780029296875
33744.851,-11.580114364624023,11.441515922546387,2.366347312927246,-0.03145141154527664,-0.02129979245364666,0.9874603152275085,49394.0,6.696908473968506,3.5110504627227783,-25.381235122680664,23.946754455566406,18.995216369628906,23.617206573486328,0.0,0.0,5.584590911865234,5577.11669921875,4332.3681640625,2550,0.0,0.0,0.0,2.705782651901245,0.34518128633499146,-28.38667106628418,6633.84033203125,4623.65966796875
33746.83,-10.511220932006836,11.619162559509277,2.3508594036102295,-0.03228212147951126,-0.015545167960226536,0.9844875931739807,49394.0,6.696908473968506,3.5110504627227783,-25.381235122680664,24.267969131469727,19.262109756469727,21.855619430541992,0.0,0.0,5.590582370758057,5757.21435546875,3864.49951171875,2340,0.0,0.0,0.0,2.652247190475464,0.3006986677646637,-28.37690544128418,6121.6201171875,4642.66015625
33748.899,-9.167130470275879,11.880611419677734,2.4657490253448486,-0.027364466339349747,-0.009176063351333141,0.9794791340827942,49394.0,6.696908473968506,3.5110504627227783,-25.381235122680664,24.267969131469727,19.262109756469727,23.570594787597656,0.0,0.0,5.596573829650879,5618.37646484375,3256.319091796875,2532,0.0,0.0,0.0,2.652247190475464,0.3006986677646637,-28.37690544128418,6460.9599609375,4309.2197265625
33750.777,-7.986234188079834,12.080986022949219,2.4714365005493164,-0.019490137696266174,-0.003010521410033107,0.9756302833557129,49394.0,6.696908473968506,3.5110504627227783,-25.381235122680664,24.592809677124023,19.461124420166016,21.73579978942871,0.0,0.0,5.602544784545898,5894.9814453125,3380.6923828125,2311,0.0,0.0,0.0,2.598107099533081,0.2675296366214752,-28.366735458374023,5897.48046875,4792.23974609375
33752.74,-7.4126715660095215,12.259834289550781,2.393479347229004,-0.016510117799043655,-0.0016341429436579347,0.9760609865188599,49394.0,6.696908473968506,3.5110504627227783,-25.381235122680664,24.592809677124023,19.461124420166016,23.52151870727539,0.0,0.0,5.608515739440918,5662.033203125,3600.897705078125,2535,0.0,0.0,0.0,2.598107099533081,0.2675296366214752,-28.366735458374023,6363.939453125,4018.60009765625
33754.724,-6.899211883544922,12.674342155456543,2.197016954421997,-0.017121464014053345,-0.0032089860178530216,0.9810464978218079,49394.0,6.696908473968506,3.5110504627227783,-25.381235122680664,24.93002700805664,19.63347625732422,21.889698028564453,0.0,0.0,5.614468574523926,6204.4482421875,3724.072021484375,2363,0.0,0.0,0.0,2.5419039726257324,0.23880459368228912,-28.35768699645996,6742.83984375,4132.7001953125
33756.686,-5.6884589195251465,12.84255599975586,1.9296302795410156,-0.019976941868662834,-0.007598462048918009,0.9889458417892456,49394.0,6.696908473968506,3.5110504627227783,-25.381235122680664,24.93002700805664,19.63347625732422,23.47913360595703,0.0,0.0,5.620421409606934,5792.04736328125,2890.22607421875,2585,0.0,0.0,0.0,2.5419039726257324,0.23880459368228912,-28.35768699645996,4954.2802734375,3020.02001953125
33758.753,-4.376004695892334,12.49166202545166,1.6241185665130615,-0.02376392111182213,-0.012687490321695805,0.99994295835495,49394.0,6.696908473968506,3.5110504627227783,-25.381235122680664,25.265827178955078,19.749465942382812,22.259506225585938,0.0,0.0,5.626360893249512,5652.3017578125,2721.47216796875,2476,0.0,0.0,0.0,2.4859371185302734,0.21947267651557922,-28.350915908813477,6057.1201171875,3413.19970703125
33760.639,-3.5032167434692383,12.020785331726074,1.6065200567245483,-0.025920595973730087,-0.014531050808727741,1.0053263902664185,49394.0,6.696908473968506,3.5110504627227783,-25.381235122680664,25.265827178955078,19.749465942382812,23.45038604736328,0.0,0.0,5.63230037689209,5239.8359375,2833.310302734375,2621,0.0,0.0,0.0,2.4859371185302734,0.21947267651557922,-28.350915908813477,8905.2001953125,5195.93994140625
33762.619,-2.9295504093170166,11.287725448608398,1.6584312915802002,-0.027326377108693123,-0.014400525018572807,1.0074872970581055,49394.0,6.696908473968506,3.5110504627227783,-25.381235122680664,25.574146270751953,19.8314266204834,22.2110652923584,0.0,0.0,5.63822603225708,5210.72265625,3045.36767578125,2466,0.0,0.0,0.0,2.4345510005950928,0.2058127522468567,-28.344036102294922,5265.759765625,2829.739990234375
33764.583,-2.449535608291626,10.650739669799805,1.715621829032898,-0.028640177100896835,-0.012795483693480492,1.0048797130584717,49394.0,6.696908473968506,3.5110504627227783,-25.381235122680664,25.574146270751953,19.8314266204834,23.420957565307617,0.0,0.0,5.64415168762207,4955.9931640625,2982.13330078125,2604,0.0,0.0,0.0,2.4345510005950928,0.2058127522468567,-28.344036102294922,5023.43994140625,3453.800048828125
33766.566,-1.7822728157043457,10.700087547302246,1.7780818939208984,-0.028647804632782936,-0.007000609766691923,1.0033600330352783,49394.0,6.696908473968506,3.5110504627227783,-25.381235122680664,25.868682861328125,19.881807327270508,22.103256225585938,0.0,0.0,5.650062561035156,5743.2314453125,2786.9501953125,2439,0.0,0.0,0.0,2.3854613304138184,0.19741593301296234,-28.33672332763672,7123.68017578125,3232.89990234375
33768.61,-0.7197962999343872,11.225580215454102,1.7185348272323608,-0.02748698554933071,0.0007124542607925832,1.002031683921814,49394.0,6.696908473968506,3.5110504627227783,-25.381235122680664,25.868682861328125,19.881807327270508,23.38890266418457,0.0,0.0,5.655973434448242,5958.25634765625,2293.38427734375,2600,0.0,0.0,0.0,2.3854613304138184,0.19741593301296234,-28.33672332763672,6538.77978515625,2843.059814453125
33770.516,0.34400248527526855,11.249870300292969,1.673144817352295,-0.02748938463628292,0.007633338216692209,0.9989126920700073,49394.0,6.696908473968506,3.5110504627227783,-25.381235122680664,26.175355911254883,19.87295913696289,22.157840728759766,0.0,0.0,5.661870956420898,5862.005859375,2124.858154296875,2458,0.0,0.0,0.0,2.3343489170074463,0.19889076054096222,-28.32988929748535,6578.1796875,3026.6201171875
33772.484,1.042734146118164,10.405935287475586,1.6311073303222656,-0.027828481048345566,0.013421137817203999,0.9962972402572632,49394.0,6.696908473968506,3.5110504627227783,-25.381235122680664,26.175355911254883,19.87295913696289,23.35969352722168,0.0,0.0,5.667768478393555,4854.244140625,2300.484375,2607,0.0,0.0,0.0,2.3343489170074463,0.19889076054096222,-28.32988929748535,5251.60009765625,3148.000244140625
33774.463,1.7258270978927612,9.588852882385254,1.5848678350448608,-0.029909705743193626,0.015243581496179104,0.995884895324707,49394.0,6.696908473968506,3.5110504627227783,-25.381235122680664,26.44317054748535,19.82665252685547,22.20077133178711,0.0,0.0,5.6736531257629395,4992.853515625,2168.074951171875,2473,0.0,0.0,0.0,2.289713144302368,0.20660822093486786,-28.323453903198242,7032.65966796875,3034.56005859375
33776.436,2.4687299728393555,9.448633193969727,1.5243511199951172,-0.0326797254383564,0.014440936036407948,0.9965407848358154,49394.0,6.696908473968506,3.5110504627227783,-25.381235122680664,26.44317054748535,19.82665252685547,23.33285140991211,0.0,0.0,5.679537773132324,5278.60498046875,2046.509765625,2617,0.0,0.0,0.0,2.289713144302368,0.20660822093486786,-28.323453903198242,6041.1796875,982.3796997070312
33778.491,3.009157657623291,9.317268371582031,1.5300060510635376,-0.03447997570037842,0.013543513603508472,0.9958763718605042,49394.0,6.696908473968506,3.5110504627227783,-25.381235122680664,26.70655632019043,19.750473022460938,22.211200714111328,0.0,0.0,5.6854095458984375,5502.59130859375,2048.742919921875,2481,0.0,0.0,0.0,2.2458159923553467,0.21930496394634247,-28.317224502563477,5060.5595703125,488.46014404296875
33780.376,3.2687900066375732,8.599044799804688,1.5817015171051025,-0.03519194573163986,0.012392849661409855,0.996177613735199,49394.0,6.696908473968506,3.5110504627227783,-25.381235122680664,26.70655632019043,19.750473022460938,23.30721664428711,0.0,0.0,5.691281318664551,4757.1728515625,2277.5283203125,2607,0.0,0.0,0.0,2.2458159923553467,0.21930496394634247,-28.317224502563477,8225.919921875,3227.47998046875
33782.358,3.8583943843841553,7.45565128326416,1.6637351512908936,-0.0349898524582386,0.00803425908088684,0.994662344455719,49394.0,6.375028133392334,2.622507095336914,-25.381235122680664,24.993988037109375,14.32587718963623,22.088544845581055,0.0,0.0,5.697139739990234,2725.472412109375,-2940.52783203125,2450,0.0,0.0,0.0,2.2093636989593506,0.23486082255840302,-28.31045913696289,5647.3994140625,2164.860107421875
33784.33,4.854238986968994,6.556084632873535,1.6843914985656738,-0.033787671476602554,0.0012871071230620146,0.9913086891174316,49394.0,6.375028133392334,2.622507095336914,-25.381235122680664,24.993988037109375,14.32587718963623,23.278343200683594,0.0,0.0,5.702998161315918,4057.8359375,673.8619995117188,2591,0.0,0.0,0.0,2.2093636989593506,0.23486082255840302,-28.31045913696289,6953.9794921875,-125.10016632080078
33786.31,5.618230819702148,5.875049591064453,1.525057315826416,-0.03148030862212181,-0.00045955655514262617,0.992212176322937,49394.0,6.375028133392334,2.622507095336914,-25.381235122680664,25.17268180847168,14.194957733154297,22.15804672241211,0.0,0.0,5.708844184875488,4280.404296875,615.325927734375,2475,0.0,0.0,0.0,2.1795811653137207,0.2566806674003601,-28.304237365722656,6063.92041015625,1439.9400634765625
33788.349,5.822763442993164,4.8601603507995605,1.377495527267456,-0.029141632840037346,0.0009942259639501572,0.9929608702659607,49394.0,6.375028133392334,2.622507095336914,-25.381235122680664,25.17268180847168,14.194957733154297,23.252704620361328,0.0,0.0,5.714690208435059,3743.759765625,1102.4296875,2625,0.0,0.0,0.0,2.1795811653137207,0.2566806674003601,-28.304237365722656,4895.599609375,2028.940185546875
33790.26,5.609967231750488,3.7722690105438232,1.6206495761871338,-0.025665609166026115,0.0040985094383358955,0.9935218095779419,49394.0,6.375028133392334,2.622507095336914,-25.381235122680664,25.297582626342773,14.062007904052734,22.0712890625,0.0,0.0,5.720522880554199,3638.23388671875,1327.69091796875,2454,0.0,0.0,0.0,2.158764600753784,0.27883920073509216,-28.297677993774414,5689.85986328125,-561.1403198242188
33792.219,5.449527740478516,2.906700372695923,1.9926278591156006,-0.02250940352678299,0.007507720962166786,0.9930539131164551,49394.0,6.052184581756592,1.846718192100525,-25.381235122680664,23.360519409179688,9.40727424621582,23.225013732910156,0.0,0.0,5.72635555267334,1838.109375,-2777.05859375,2547,0.0,0.0,0.0,2.158764600753784,0.27883920073509216,-28.297677993774414,6290.859375,1080.7200927734375
33794.206,5.708677291870117,2.058520793914795,1.964093565940857,-0.020554807037115097,0.01153911929577589,0.9934884309768677,49394.0,6.052184581756592,1.846718192100525,-25.381235122680664,23.441383361816406,9.268370628356934,21.804338455200195,0.0,0.0,5.73217248916626,3249.49951171875,235.41412353515625,2380,0.0,0.0,0.0,2.145287275314331,0.3019897937774658,-28.289796829223633,5542.419921875,1492.0401611328125
33796.166,6.291378974914551,0.8413863182067871,1.6583163738250732,-0.01894405111670494,0.014893092215061188,0.9940085411071777,49394.0,6.052184581756592,1.846718192100525,-25.381235122680664,23.441383361816406,9.268370628356934,23.189359664916992,0.0,0.0,5.73798942565918,2729.564697265625,9.522491455078125,2583,0.0,0.0,0.0,2.145287275314331,0.3019897937774658,-28.289796829223633,4868.14013671875,2536.519775390625
33798.227,6.859250545501709,-0.5725108981132507,1.5204075574874878,-0.018262246623635292,0.019006116315722466,0.994745671749115,49394.0,6.052184581756592,1.846718192100525,-25.381235122680664,23.457956314086914,9.09756851196289,22.10492706298828,0.0,0.0,5.7437944412231445,2384.822509765625,-218.257568359375,2470,0.0,0.0,0.0,2.1425251960754395,0.33045676350593567,-28.28377342224121,4702.68017578125,1018.6402587890625
33800.121,7.158989429473877,-1.6553221940994263,1.728728175163269,-0.016734527423977852,0.023364242166280746,0.9956666827201843,49394.0,6.052184581756592,1.846718192100525,-25.381235122680664,23.457956314086914,9.09756851196289,23.16482925415039,0.0,0.0,5.749599456787109,2458.28662109375,65.98272705078125,2572,0.0,0.0,0.0,2.1425251960754395,0.33045676350593567,-28.28377342224121,4420.80029296875,1195.1602783203125
33802.1,7.097759246826172,-2.3311121463775635,1.7863101959228516,-0.016203906387090683,0.02003324404358864,0.9940775632858276,49394.0,5.4074602127075195,1.0,-25.381235122680664,19.562923431396484,3.840665102005005,21.894994735717773,0.0,0.0,5.755390644073486,-843.344482421875,-4385.31884765625,2413,0.0,0.0,0.0,2.146973133087158,0.35988911986351013,-28.27672576904297,4702.68017578125,1018.6402587890625
33804.063,7.25540828704834,-3.263814687728882,1.6380200386047363,-0.016670504584908485,0.013244238682091236,0.992341160774231,49394.0,5.4074602127075195,1.0,-25.381235122680664,19.562923431396484,3.840665102005005,23.134124755859375,0.0,0.0,5.761181831359863,1745.3389892578125,-630.4482421875,2579,0.0,0.0,0.0,2.146973133087158,0.35988911986351013,-28.27672576904297,4304.66015625,361.0
33806.045,7.449617385864258,-4.459063529968262,1.621603012084961,-0.016901129856705666,0.004822895396500826,0.9907973408699036,49394.0,5.4074602127075195,1.0,-25.381235122680664,19.48579978942871,3.6640913486480713,21.984418869018555,0.0,0.0,5.766960144042969,1299.7313232421875,-845.916015625,2443,0.0,0.0,0.0,2.1598269939422607,0.3893181085586548,-28.270341873168945,1268.35986328125,-119.2198715209961
33808.087,7.231916904449463,-5.820820331573486,1.8215934038162231,-0.017453832551836967,0.0018037841655313969,0.9893689155578613,49394.0,5.4074602127075195,1.0,-25.381235122680664,19.48579978942871,3.6640913486480713,23.107379913330078,0.0,0.0,5.772738456726074,1028.429931640625,-371.8984680175781,2554,0.0,0.0,0.0,2.1598269939422607,0.3893181085586548,-28.270341873168945,2358.0,513.1799926757812
33809.996,7.079380035400391,-7.403676509857178,1.9645390510559082,-0.017739688977599144,0.0027411149349063635,0.9887111186981201,49394.0,5.4074602127075195,1.0,-25.381235122680664,19.338768005371094,3.49813175201416,21.724626541137695,0.0,0.0,5.778501510620117,492.8470458984375,-547.2542724609375,2371,0.0,0.0,0.0,2.1843323707580566,0.41697806119918823,-28.262670516967773,2013.320068359375,-1865.3800048828125
33811.961,6.913476467132568,-8.617843627929688,1.961661458015442,-0.018429338932037354,0.005035126116126776,0.9894602298736572,49394.0,3.471360921859741,1.0,-25.381235122680664,7.722171306610107,3.49813175201416,23.0728759765625,0.0,0.0,5.78426456451416,-9757.4228515625,-387.8740234375,2533,0.0,0.0,0.0,2.1843323707580566,0.41697806119918823,-28.262670516967773,2095.039794921875,-1128.6201171875
33813.943,6.915977954864502,-9.367746353149414,1.9812638759613037,-0.018065672367811203,0.006204497534781694,0.9910029172897339,49394.0,3.471360921859741,1.0,-25.381235122680664,7.528532981872559,3.3344759941101074,21.693561553955078,0.0,0.0,5.790012359619141,-983.5377807617188,-661.8432006835938,2365,0.0,0.0,0.0,2.2166054248809814,0.44425398111343384,-28.25501823425293,1620.019775390625,-2200.2001953125
33815.906,7.516855239868164,-10.439119338989258,1.9107078313827515,-0.015586884692311287,0.009252849966287613,0.9931148290634155,49394.0,3.471360921859741,1.0,-25.381235122680664,7.528532981872559,3.3344759941101074,23.03845977783203,0.0,0.0,5.795760154724121,-1240.11767578125,-1078.014892578125,2535,0.0,0.0,0.0,2.2166054248809814,0.44425398111343384,-28.25501823425293,949.4398803710938,-1489.6197509765625
33817.972,7.845775127410889,-11.57564926147461,1.7485802173614502,-0.013354301452636719,0.013088773004710674,0.9969726800918579,49394.0,3.471360921859741,1.0,-25.381235122680664,7.279784202575684,3.1448073387145996,21.848316192626953,0.0,0.0,5.801494598388672,-1683.3387451171875,-1094.0865478515625,2411,0.0,0.0,0.0,2.258063554763794,0.4758654236793518,-28.248411178588867,-2763.88037109375,-3644.659423828125
33819.859,7.593181610107422,-12.578629493713379,1.6504318714141846,-0.011719880625605583,0.009243798442184925,1.001333475112915,49394.0,3.471360921859741,1.0,-25.381235122680664,7.279784202575684,3.1448073387145996,23.010284423828125,0.0,0.0,5.807229042053223,-1547.0618896484375,-477.81103515625,2563,0.0,0.0,0.0,2.258063554763794,0.4758654236793518,-28.248411178588867,-466.3399658203125,-2076.340087890625
33821.839,7.281182765960693,-13.474100112915039,1.6307553052902222,-0.011672123335301876,0.002829300006851554,1.0045322179794312,49394.0,1.8590692281723022,1.0,-25.381235122680664,-2.688678503036499,2.9745168685913086,21.914031982421875,0.0,0.0,5.81295108795166,-10572.3662109375,-539.7186279296875,2433,0.0,0.0,0.0,2.3071823120117188,0.5042471885681152,-28.24232292175293,-586.6200561523438,-660.3800048828125
33823.804,6.744055271148682,-14.089778900146484,1.844732403755188,-0.012662151828408241,-0.006569077260792255,1.0082210302352905,49394.0,1.8590692281723022,1.0,-25.381235122680664,-2.688678503036499,2.9745168685913086,22.985198974609375,0.0,0.0,5.818673133850098,-2978.527587890625,-162.585205078125,2536,0.0,0.0,0.0,2.3071823120117188,0.5042471885681152,-28.24232292175293,-356.679931640625,-452.2200012207031
