timestamp,gyro.x,gyro.y,gyro.z,acc.x,acc.y,acc.z,controller.actuatorThrust,controller.pitch,controller.roll,controller.yaw,pid_attitude.pitch_output,pid_attitude.roll_output,pid_attitude.yaw_output,pid_attitude.pitch_outI,pid_attitude.roll_outI,pid_attitude.yaw_outI,pid_rate.pitch_output,pid_rate.roll_output,pid_rate.yaw_output,pid_rate.pitch_outI,pid_rate.roll_outI,pid_rate.yaw_outI,stateEstimate.pitch,stateEstimate.roll,stateEstimate.yaw,snn_control.torque_pitch,snn_control.torque_roll
55495.409,22.23685646057129,3.295511245727539,-8.036211013793945,-0.016534801572561264,0.00792576465755701,1.1497076749801636,52000.0,-0.1849660724401474,1.0,55.4894905090332,40.94856262207031,20.77945327758789,8.109016418457031,0.0,0.0,0.14324215054512024,5881.6787109375,-1112.708740234375,1937,0.0,0.0,0.0,-7.009726524353027,-2.4632420539855957,54.161861419677734,6804.64013671875,-873.4201049804688
55497.257,23.401613235473633,1.5395997762680054,-7.7468953132629395,-0.017341192811727524,0.008519607596099377,1.1431949138641357,52000.0,-0.1849660724401474,1.0,55.4894905090332,40.918983459472656,20.213069915771484,13.704461097717285,0.0,0.0,0.14595921337604523,5029.671875,-1776.636474609375,2574,0.0,0.0,0.0,-7.004796504974365,-2.368844985961914,54.13096237182617,8220.380859375,285.20037841796875
55499.263,24.740802764892578,-0.30763548612594604,-7.293735504150391,-0.016703806817531586,0.005308657884597778,1.1380773782730103,52000.0,-0.1849660724401474,1.0,55.4894905090332,40.918983459472656,20.213069915771484,8.299844741821289,0.0,0.0,0.14867627620697021,4706.2744140625,-1683.552001953125,1871,0.0,0.0,0.0,-7.004796504974365,-2.368844985961914,54.13096237182617,6646.2607421875,-796.4598999023438
55501.231,26.537044525146484,-1.1916489601135254,-6.997110366821289,-0.01584586314857006,0.0004704887396655977,1.133111834526062,52000.0,-0.1849660724401474,1.0,55.4894905090332,40.82455062866211,19.573633193969727,13.286358833312988,0.0,0.0,0.15144839882850647,5211.099609375,-2871.2705078125,2434,0.0,0.0,0.0,-6.989058017730713,-2.2622721195220947,54.10342788696289,5987.60009765625,-1045.2601318359375
55503.267,28.339513778686523,-1.453364610671997,-6.828563213348389,-0.0153941810131073,-0.002727020997554064,1.1297016143798828,52000.0,-0.1849660724401474,1.0,55.4894905090332,40.82455062866211,19.573633193969727,8.470596313476562,0.0,0.0,0.15422052145004272,5709.3916015625,-2666.73388671875,1835,0.0,0.0,0.0,-6.989058017730713,-2.2622721195220947,54.10342788696289,6483.140625,-391.73974609375
55505.193,29.663097381591797,-2.202277898788452,-6.625423908233643,-0.013842146843671799,-0.003395942272618413,1.1294279098510742,52000.0,-0.1849660724401474,1.0,55.4894905090332,40.70583724975586,18.860822677612305,13.170620918273926,0.0,0.0,0.15704454481601715,5124.81396484375,-3147.63671875,2375,0.0,0.0,0.0,-6.969272136688232,-2.143470525741577,54.077476501464844,6609.56103515625,-1531.39990234375
55507.141,30.687376022338867,-3.4592411518096924,-6.422556400299072,-0.012518010102212429,-0.005804921966046095,1.126058578491211,52000.0,-0.1849660724401474,1.0,55.4894905090332,40.70583724975586,18.860822677612305,8.631952285766602,0.0,0.0,0.15986856818199158,4644.2685546875,-2542.19189453125,1806,0.0,0.0,0.0,-6.969272136688232,-2.143470525741577,54.077476501464844,5223.080078125,-1673.4400634765625
55509.155,31.620588302612305,-3.8400704860687256,-6.057818412780762,-0.01225095521658659,-0.009696869179606438,1.1239595413208008,52000.0,-0.1849660724401474,1.0,55.4894905090332,40.54823684692383,18.103376388549805,12.894272804260254,0.0,0.0,0.16273966431617737,5102.4033203125,-3295.57568359375,2274,0.0,0.0,0.0,-6.943005561828613,-2.0172293186187744,54.0539436340332,4833.0595703125,-2082.840087890625
55511.141,32.5099983215332,-3.405822277069092,-5.537071704864502,-0.011451954953372478,-0.007115610875189304,1.1232997179031372,52000.0,-0.1849660724401474,1.0,55.4894905090332,40.54823684692383,18.103376388549805,8.778891563415527,0.0,0.0,0.16561076045036316,5897.046875,-2828.05078125,1717,0.0,0.0,0.0,-6.943005561828613,-2.0172293186187744,54.0539436340332,4794.69970703125,-2041.259521484375
55513.043,33.760616302490234,-3.6125130653381348,-5.180782794952393,-0.009825706481933594,-0.0012405639281496406,1.124480128288269,52000.0,-0.1849660724401474,1.0,55.4894905090332,40.396217346191406,17.28907012939453,12.403266906738281,0.0,0.0,0.16852186620235443,5248.5224609375,-4019.425048828125,2110,0.0,0.0,0.0,-6.91766881942749,-1.8815116882324219,54.033935546875,5826.47900390625,-2935.69921875
55515.05,35.42158126831055,-4.45456600189209,-5.113460063934326,-0.008564792573451996,0.005149382166564465,1.1247495412826538,52000.0,-0.1849660724401474,1.0,55.4894905090332,40.396217346191406,17.28907012939453,8.904762268066406,0.0,0.0,0.1714329719543457,4759.7080078125,-3965.600341796875,1682,0.0,0.0,0.0,-6.91766881942749,-1.8815116882324219,54.033935546875,5445.67919921875,-1834.640380859375
55516.997,36.58987045288086,-4.602291584014893,-4.991944789886475,-0.008920629508793354,0.0089817950502038,1.124098539352417,52000.0,0.13787777721881866,1.0,55.4894905090332,42.15785598754883,16.402496337890625,12.36208438873291,0.0,0.0,0.1743822544813156,6843.7705078125,-4569.25341796875,2082,0.0,0.0,0.0,-6.888431549072266,-1.733749508857727,54.01485061645508,4960.11962890625,-3702.89990234375
55519.079,36.95703125,-4.243599891662598,-4.679792881011963,-0.01017831265926361,0.01234844047576189,1.1223077774047852,52000.0,0.13787777721881866,1.0,55.4894905090332,42.15785598754883,16.402496337890625,9.025171279907227,0.0,0.0,0.17733153700828552,5956.15771484375,-3358.55078125,1644,0.0,0.0,0.0,-6.888431549072266,-1.733749508857727,54.01485061645508,5384.939453125,-3231.359619140625
55520.949,36.79210662841797,-3.981472969055176,-4.458537578582764,-0.011948071420192719,0.015862323343753815,1.1176503896713257,52000.0,0.13787777721881866,1.0,55.4894905090332,41.99971008300781,15.50756549835205,12.108987808227539,0.0,0.0,0.18031485378742218,5780.7216796875,-3740.186767578125,1988,0.0,0.0,0.0,-6.8620734214782715,-1.5845941305160522,53.99782943725586,6832.88037109375,-3853.839599609375
55522.919,36.52566909790039,-3.6627564430236816,-4.400826930999756,-0.014853185042738914,0.018543241545557976,1.1135836839675903,52000.0,0.13787777721881866,1.0,55.4894905090332,41.99971008300781,15.50756549835205,9.133264541625977,0.0,0.0,0.18329817056655884,5989.57861328125,-2952.887451171875,1624,0.0,0.0,0.0,-6.8620734214782715,-1.5845941305160522,53.99782943725586,3951.6396484375,-3887.559814453125
55524.935,36.4649658203125,-3.001497507095337,-4.392082214355469,-0.017555464059114456,0.020968634635210037,1.109858751296997,52000.0,0.13787777721881866,1.0,55.4894905090332,41.86833190917969,14.619206428527832,12.192258834838867,0.0,0.0,0.18631525337696075,6227.43505859375,-3897.60595703125,1990,0.0,0.0,0.0,-6.840177536010742,-1.4365344047546387,53.9809455871582,5411.66015625,-3814.7998046875
55526.954,36.53374099731445,-2.2844290733337402,-4.338804244995117,-0.01980230212211609,0.01737070642411709,1.107221007347107,52000.0,0.13787777721881866,1.0,55.4894905090332,41.86833190917969,14.619206428527832,9.240601539611816,0.0,0.0,0.18933233618736267,6475.38916015625,-3338.76171875,1629,0.0,0.0,0.0,-6.840177536010742,-1.4365344047546387,53.9809455871582,6700.88134765625,-4073.2392578125
55528.892,36.5766487121582,-1.4934158325195312,-4.307616710662842,-0.021158434450626373,0.012869485653936863,1.105028748512268,52000.0,0.13787777721881866,1.0,55.4894905090332,41.77531051635742,13.73342514038086,12.28927230834961,0.0,0.0,0.1923830807209015,6565.77685546875,-4122.99951171875,1991,0.0,0.0,0.0,-6.824673652648926,-1.2889043092727661,53.96411895751953,7277.2998046875,-5643.6591796875
55530.8,36.32898712158203,-0.5829992294311523,-4.266989707946777,-0.020947696641087532,0.007617270573973656,1.1017171144485474,52000.0,0.13787777721881866,1.0,55.4894905090332,41.77531051635742,13.73342514038086,9.347662925720215,0.0,0.0,0.1954338252544403,6861.658203125,-3203.588134765625,1633,0.0,0.0,0.0,-6.824673652648926,-1.2889043092727661,53.96411895751953,6421.80029296875,-2958.439208984375
55532.796,36.06525802612305,0.5306409001350403,-4.155427932739258,-0.018906624987721443,-0.0003504985070321709,1.0988271236419678,52000.0,0.13787777721881866,1.0,55.4894905090332,41.730098724365234,12.867593765258789,12.348034858703613,0.0,0.0,0.19851769506931305,7140.431640625,-3931.226318359375,1980,0.0,0.0,0.0,-6.817138671875,-1.1445990800857544,53.94755935668945,6345.720703125,-4058.9990234375
55534.808,36.0941047668457,1.922378420829773,-4.2432026863098145,-0.01724666729569435,-0.007024868857115507,1.0950820446014404,52000.0,0.13787777721881866,1.0,55.4894905090332,41.730098724365234,12.867593765258789,9.4531888961792,0.0,0.0,0.2016015648841858,7591.67578125,-3505.611572265625,1643,0.0,0.0,0.0,-6.817138671875,-1.1445990800857544,53.94755935668945,6451.62060546875,-5989.13916015625
55536.737,36.2401237487793,3.5783731937408447,-4.280797958374023,-0.01575668714940548,-0.010296529158949852,1.0941964387893677,52000.0,0.13787777721881866,1.0,55.4894905090332,41.756507873535156,12.004477500915527,12.608948707580566,0.0,0.0,0.20472025871276855,8062.03466796875,-4392.197265625,2026,0.0,0.0,0.0,-6.821539878845215,-1.0007461309432983,53.93014144897461,8236.162109375,-6042.3193359375
55538.818,36.13842010498047,5.145724773406982,-4.128371715545654,-0.014490255154669285,-0.012943505309522152,1.0944533348083496,52000.0,0.13787777721881866,1.0,55.4894905090332,41.756507873535156,12.004477500915527,9.563933372497559,0.0,0.0,0.20783895254135132,8210.849609375,-3543.8134765625,1643,0.0,0.0,0.0,-6.821539878845215,-1.0007461309432983,53.93014144897461,6992.400390625,-5323.458984375
55540.692,35.581363677978516,6.738607406616211,-4.084845542907715,-0.015172534622251987,-0.017411744222044945,1.0933595895767212,52000.0,0.13787777721881866,1.0,55.4894905090332,41.85849380493164,11.16171646118164,12.625134468078613,0.0,0.0,0.21099144220352173,8560.71484375,-3877.22607421875,2005,0.0,0.0,0.0,-6.838537693023682,-0.8602860569953918,53.913246154785156,6503.240234375,-1927.89990234375
55542.66,34.9765510559082,8.591723442077637,-4.080092430114746,-0.017896488308906555,-0.017751798033714294,1.0967233180999756,52000.0,0.13787777721881866,1.0,55.4894905090332,41.85849380493164,11.16171646118164,9.671609878540039,0.0,0.0,0.21414393186569214,8957.3720703125,-3118.61572265625,1650,0.0,0.0,0.0,-6.838537693023682,-0.8602860569953918,53.913246154785156,6575.02001953125,-3506.679931640625
55544.671,34.153045654296875,10.270196914672852,-4.032464504241943,-0.02075076475739479,-0.01577654667198658,1.0987995862960815,52000.0,0.13787777721881866,1.0,55.4894905090332,42.04774475097656,10.35371208190918,12.72110652923584,0.0,0.0,0.21733008325099945,9248.482421875,-3558.2744140625,2010,0.0,0.0,0.0,-6.870079517364502,-0.7256185412406921,53.89641571044922,7688.0400390625,-5260.57958984375
55546.737,32.863731384277344,11.530693054199219,-3.8108158111572266,-0.020931197330355644,-0.011452097445726395,1.0978140830993652,52000.0,0.13787777721881866,1.0,55.4894905090332,42.04774475097656,10.35371208190918,9.77896499633789,0.0,0.0,0.22051623463630676,8982.138671875,-2409.517333984375,1630,0.0,0.0,0.0,-6.870079517364502,-0.7256185412406921,53.89641571044922,7782.720703125,-4480.99951171875
55548.64,31.32599449157715,12.217289924621582,-3.6769754886627197,-0.019729044288396835,-0.006395390257239342,1.095017433166504,52000.0,0.13787777721881866,1.0,55.4894905090332,42.28311538696289,9.6091947555542,12.557831764221191,0.0,0.0,0.223733052611351,8866.53515625,-2662.60595703125,1948,0.0,0.0,0.0,-6.909307956695557,-0.6015323996543884,53.881080627441406,10952.701171875,-1388.959716796875
55550.545,29.78485679626465,12.944436073303223,-3.9009599685668945,-0.0191455390304327,-0.00040412048110738397,1.0912575721740723,52000.0,0.13787777721881866,1.0,55.4894905090332,42.28311538696289,9.6091947555542,9.877408981323242,0.0,0.0,0.22694987058639526,8829.4921875,-1870.4962158203125,1653,0.0,0.0,0.0,-6.909307956695557,-0.6015323996543884,53.881080627441406,8509.4599609375,-5839.9599609375
55552.545,28.106374740600586,14.521709442138672,-4.0861334800720215,-0.019334934651851654,-0.00010683285654522479,1.08863365650177,52000.0,0.13787777721881866,1.0,55.4894905090332,42.57318878173828,8.941244125366211,12.943541526794434,0.0,0.0,0.23020052909851074,9964.7451171875,-2116.8701171875,2043,0.0,0.0,0.0,-6.957653522491455,-0.4902072846889496,53.864158630371094,7851.46044921875,-2686.899658203125
55554.696,26.116905212402344,16.22620964050293,-3.941713333129883,-0.01973017118871212,-0.000793165119830519,1.087149977684021,52000.0,0.13787777721881866,1.0,55.4894905090332,42.57318878173828,8.941244125366211,9.985442161560059,0.0,0.0,0.23345118761062622,10098.287109375,-1084.2470703125,1671,0.0,0.0,0.0,-6.957653522491455,-0.4902072846889496,53.864158630371094,9699.3408203125,-3062.6396484375
55556.482,23.875221252441406,17.606685638427734,-3.97127628326416,-0.0189629178494215,0.0020729433745145798,1.086039423942566,52000.0,0.13787777721881866,1.0,55.4894905090332,42.936622619628906,8.374561309814453,12.96599006652832,0.0,0.0,0.23673474788665771,10389.4267578125,-1068.8480224609375,2032,0.0,0.0,0.0,-7.018226146697998,-0.3957602381706238,53.84770965576172,9162.3212890625,-3094.279541015625
55558.499,21.853906631469727,18.523366928100586,-3.994199514389038,-0.018607525154948235,0.0028713038191199303,1.084621787071228,52000.0,0.13787777721881866,1.0,55.4894905090332,42.936622619628906,8.374561309814453,10.090703010559082,0.0,0.0,0.2400183081626892,9906.51171875,-505.9158935546875,1690,0.0,0.0,0.0,-7.018226146697998,-0.3957602381706238,53.84770965576172,11053.9814453125,-2023.8798828125
55560.457,20.1348934173584,18.78288459777832,-3.8641469478607178,-0.01885252073407173,0.002321884734556079,1.0832855701446533,52000.0,0.13787777721881866,1.0,55.4894905090332,43.327735900878906,7.898158550262451,12.98359489440918,0.0,0.0,0.24333380162715912,9804.5634765625,-903.552001953125,2021,0.0,0.0,0.0,-7.08341121673584,-0.3163596987724304,53.83174514770508,11053.9814453125,-2023.8798828125
55562.546,18.30189323425293,18.664138793945312,-4.015795707702637,-0.018986184149980545,0.0008003237890079618,1.081672191619873,52000.0,0.13787777721881866,1.0,55.4894905090332,43.327735900878906,7.898158550262451,10.193121910095215,0.0,0.0,0.24664929509162903,9209.7236328125,-185.81005859375,1705,0.0,0.0,0.0,-7.08341121673584,-0.3163596987724304,53.83174514770508,11526.921875,-1677.51953125
55564.402,16.28611946105957,18.228090286254883,-4.097874164581299,-0.019762305542826653,-0.0020020988304167986,1.0800302028656006,52000.0,0.13787777721881866,1.0,55.4894905090332,43.705543518066406,7.517823219299316,13.246923446655273,0.0,0.0,0.24999849498271942,9246.36328125,-88.666015625,2081,0.0,0.0,0.0,-7.146378993988037,-0.2529706060886383,53.81489181518555,11239.44140625,-1428.0198974609375
55566.333,14.069249153137207,17.5527286529541,-3.998161792755127,-0.021315669640898705,-0.002904256572946906,1.078791618347168,52000.0,0.13787777721881866,1.0,55.4894905090332,43.705543518066406,7.517823219299316,10.300939559936523,0.0,0.0,0.2533476948738098,8682.21875,679.938720703125,1715,0.0,0.0,0.0,-7.146378993988037,-0.2529706060886383,53.81489181518555,8320.201171875,-1461.320068359375
55568.371,11.758219718933105,16.82682991027832,-3.9910006523132324,-0.021471789106726646,-0.0010585210984572768,1.0766870975494385,52000.0,0.13787777721881866,1.0,55.4894905090332,44.050235748291016,7.246004104614258,13.262252807617188,0.0,0.0,0.2567295730113983,8845.658203125,852.5753784179688,2070,0.0,0.0,0.0,-7.203827857971191,-0.2076673060655594,53.79854965209961,10382.259765625,-352.6797790527344
55570.287,9.29049301147461,15.946208953857422,-4.184017658233643,-0.020588098093867302,0.001961433794349432,1.0755454301834106,52000.0,0.13787777721881866,1.0,55.4894905090332,44.050235748291016,7.246004104614258,10.405756950378418,0.0,0.0,0.2601114511489868,8339.0,1544.12158203125,1750,0.0,0.0,0.0,-7.203827857971191,-0.2076673060655594,53.79854965209961,8926.30078125,-318.2395935058594
55572.277,6.861936569213867,14.77132797241211,-4.521660327911377,-0.01904311403632164,0.003962578251957893,1.0751054286956787,52000.0,0.13787777721881866,1.0,55.4894905090332,44.34402084350586,7.0912184715271,13.731669425964355,0.0,0.0,0.26353004574775696,8206.48046875,1739.720458984375,2190,0.0,0.0,0.0,-7.2527923583984375,-0.181869775056839,53.78019332885742,9156.9404296875,-286.019775390625
55574.27,4.7671613693237305,13.259625434875488,-4.705647945404053,-0.01709934137761593,0.0030412739142775536,1.075280785560608,52000.0,0.13787777721881866,1.0,55.4894905090332,44.34402084350586,7.0912184715271,10.52273178100586,0.0,0.0,0.2669486403465271,7506.76953125,1919.6898193359375,1827,0.0,0.0,0.0,-7.2527923583984375,-0.181869775056839,53.78019332885742,7735.56103515625,567.4400024414062
55576.211,2.7212438583374023,11.833512306213379,-4.561653137207031,-0.015666892752051353,0.001364786410704255,1.0752108097076416,52000.0,0.13787777721881866,1.0,55.4894905090332,44.56540298461914,7.037552833557129,13.875609397888184,0.0,0.0,0.27040424942970276,7556.28857421875,2141.63525390625,2212,0.0,0.0,0.0,-7.289689064025879,-0.1729254275560379,53.761688232421875,8451.720703125,272.20037841796875
55578.233,0.4931957423686981,10.448559761047363,-4.236854553222656,-0.013704062439501286,7.114505569916219e-05,1.07440984249115,52000.0,0.13787777721881866,1.0,55.4894905090332,44.56540298461914,7.037552833557129,10.640673637390137,0.0,0.0,0.2738598585128784,7213.38037109375,2652.68994140625,1785,0.0,0.0,0.0,-7.289689064025879,-0.1729254275560379,53.761688232421875,8714.12109375,2094.22021484375
55580.166,-2.058560609817505,8.57459545135498,-4.025630950927734,-0.01148438174277544,-8.622398308943957e-05,1.0755611658096313,52000.0,0.13787777721881866,1.0,55.4894905090332,44.70642852783203,7.097804069519043,13.597260475158691,0.0,0.0,0.2773481011390686,6692.451171875,3332.4599609375,2114,0.0,0.0,0.0,-7.313193321228027,-0.18296730518341064,53.7453727722168,7884.82080078125,2455.60009765625
55582.134,-4.447775363922119,6.510551929473877,-4.073915481567383,-0.00980635080486536,-0.0002734552545007318,1.0774978399276733,52000.0,0.13787777721881866,1.0,55.4894905090332,44.70642852783203,7.097804069519043,10.745542526245117,0.0,0.0,0.2808363437652588,6134.51318359375,3523.74853515625,1778,0.0,0.0,0.0,-7.313193321228027,-0.18296730518341064,53.7453727722168,7884.82080078125,2455.60009765625
55584.142,-6.684765815734863,4.529754161834717,-4.165131568908691,-0.009450039826333523,-0.0013005344662815332,1.0785385370254517,52000.0,0.13787777721881866,1.0,55.4894905090332,44.74939727783203,7.270029544830322,13.798136711120605,0.0,0.0,0.28435826301574707,5938.50146484375,3900.13134765625,2155,0.0,0.0,0.0,-7.32035493850708,-0.2116716206073761,53.7285270690918,8213.0615234375,1862.5206298828125
55586.077,-8.983711242675781,2.2045488357543945,-4.349342346191406,-0.011118099093437195,0.0004126867279410362,1.0789991617202759,52000.0,0.13787777721881866,1.0,55.4894905090332,44.74939727783203,7.270029544830322,10.853660583496094,0.0,0.0,0.28788018226623535,5299.18701171875,4162.26953125,1824,0.0,0.0,0.0,-7.32035493850708,-0.2116716206073761,53.7285270690918,6950.7001953125,4334.900390625
55588.125,-11.305452346801758,-0.6526321172714233,-4.814531326293945,-0.014215962029993534,0.0021466482430696487,1.0807123184204102,52000.0,0.13787777721881866,1.0,55.4894905090332,44.67060089111328,7.553061485290527,14.357854843139648,0.0,0.0,0.29144078493118286,4400.7119140625,4782.3564453125,2300,0.0,0.0,0.0,-7.307222366333008,-0.2588435411453247,53.70918655395508,6326.68017578125,5476.85986328125
55590.041,-13.934541702270508,-3.955012321472168,-5.1932244300842285,-0.017113322392106056,0.0034548304975032806,1.083750605583191,52000.0,0.13787777721881866,1.0,55.4894905090332,44.67060089111328,7.553061485290527,10.976824760437012,0.0,0.0,0.29500138759613037,3630.5537109375,5194.95703125,1940,0.0,0.0,0.0,-7.307222366333008,-0.2588435411453247,53.70918655395508,6576.400390625,3416.460205078125
55592.006,-16.679702758789062,-7.155813694000244,-5.231907367706299,-0.01915000006556511,0.0062234546057879925,1.0862319469451904,52000.0,0.13787777721881866,1.0,55.4894905090332,44.43863296508789,7.963685989379883,14.751030921936035,0.0,0.0,0.2986036539077759,3017.845703125,6063.34814453125,2397,0.0,0.0,0.0,-7.268560886383057,-0.3272809386253357,53.6883544921875,4620.95947265625,4725.38037109375
55593.998,-19.07494354248047,-9.922203063964844,-5.30982780456543,-0.0204270351678133,0.00679587759077549,1.0880091190338135,52000.0,0.13787777721881866,1.0,55.4894905090332,44.43863296508789,7.963685989379883,11.10902214050293,0.0,0.0,0.3022059202194214,3102.673583984375,5852.22509765625,1970,0.0,0.0,0.0,-7.268560886383057,-0.3272809386253357,53.6883544921875,3789.219482421875,6096.8203125
55595.952,-21.145845413208008,-12.516844749450684,-5.641849040985107,-0.021365724503993988,0.00573545740917325,1.0885112285614014,52000.0,0.13787777721881866,1.0,55.4894905090332,44.07965850830078,8.482098579406738,15.148408889770508,0.0,0.0,0.3058528006076813,2519.209228515625,6386.17822265625,2494,0.0,0.0,0.0,-7.2087321281433105,-0.41368305683135986,53.66605758666992,3789.219482421875,6096.8203125
55598.126,-22.96550941467285,-15.203619956970215,-6.003869533538818,-0.023677702993154526,0.005487516988068819,1.0856432914733887,52000.0,0.13787777721881866,1.0,55.4894905090332,44.07965850830078,8.482098579406738,11.250097274780273,0.0,0.0,0.30949968099594116,2316.324462890625,6081.88916015625,2070,0.0,0.0,0.0,-7.2087321281433105,-0.41368305683135986,53.66605758666992,4335.37939453125,5264.16015625
55599.908,-24.655075073242188,-17.733020782470703,-6.481265544891357,-0.024937357753515244,0.005921040195971727,1.0820626020431519,52000.0,0.13787777721881866,1.0,55.4894905090332,43.59798049926758,9.08597469329834,15.850878715515137,0.0,0.0,0.3131973445415497,1621.435791015625,6781.2392578125,2679,0.0,0.0,0.0,-7.128452301025391,-0.5143290758132935,53.64065933227539,3126.879638671875,6983.2802734375
55601.879,-26.416534423828125,-19.44883155822754,-7.244449615478516,-0.024420497938990593,0.0023698422592133284,1.0792039632797241,52000.0,0.13787777721881866,1.0,55.4894905090332,43.59798049926758,9.08597469329834,11.409881591796875,0.0,0.0,0.3168950080871582,2335.51416015625,6646.470703125,2238,0.0,0.0,0.0,-7.128452301025391,-0.5143290758132935,53.64065933227539,2152.219970703125,5144.62060546875
55603.889,-28.145071029663086,-20.63497543334961,-8.06564712524414,-0.024013986811041832,-0.00224490137770772,1.0768064260482788,52000.0,0.13787777721881866,1.0,55.4894905090332,43.04659652709961,9.781122207641602,17.13341522216797,0.0,0.0,0.320655882358551,2058.597412109375,7506.69140625,3023,0.0,0.0,0.0,-7.03655481338501,-0.6301870942115784,53.60905838012695,2152.219970703125,5144.62060546875
55605.82,-29.452587127685547,-22.25727081298828,-8.578937530517578,-0.023585151880979538,-0.0070789591409265995,1.073716640472412,52000.0,0.13787777721881866,1.0,55.4894905090332,43.04659652709961,9.781122207641602,11.607009887695312,0.0,0.0,0.32441675662994385,1901.677490234375,6865.6953125,2422,0.0,0.0,0.0,-7.03655481338501,-0.6301870942115784,53.60905838012695,2279.7197265625,5435.400390625
55607.855,-30.711416244506836,-24.084436416625977,-8.729401588439941,-0.023469941690564156,-0.0072905621491372585,1.0721065998077393,52000.0,0.13787777721881866,1.0,55.4894905090332,42.41276931762695,10.540712356567383,17.75593376159668,0.0,0.0,0.32824552059173584,903.5054931640625,7701.63232421875,3178,0.0,0.0,0.0,-6.930916786193848,-0.7567853331565857,53.57510757446289,3655.1796875,6762.30029296875
55609.776,-31.911090850830078,-25.221160888671875,-8.64723014831543,-0.023627666756510735,-0.005540588870644569,1.072719693183899,52000.0,0.13787777721881866,1.0,55.4894905090332,42.41276931762695,10.540712356567383,11.818371772766113,0.0,0.0,0.33207428455352783,1726.197998046875,7267.5283203125,2455,0.0,0.0,0.0,-6.930916786193848,-0.7567853331565857,53.57510757446289,2540.73974609375,7428.32080078125
55611.767,-32.695316314697266,-25.945615768432617,-8.553460121154785,-0.023604663088917732,-0.002328983275219798,1.0714150667190552,52000.0,0.13787777721881866,1.0,55.4894905090332,41.73511505126953,11.343008995056152,17.765056610107422,0.0,0.0,0.3359687030315399,1316.843017578125,7795.6396484375,3158,0.0,0.0,0.0,-6.81797456741333,-0.8905014395713806,53.542274475097656,2540.73974609375,7428.32080078125
55613.757,-33.187599182128906,-26.456003189086914,-8.778024673461914,-0.022863179445266724,0.0009787878952920437,1.06895911693573,52000.0,0.13787777721881866,1.0,55.4894905090332,41.73511505126953,11.343008995056152,12.02315902709961,0.0,0.0,0.339863121509552,1909.076171875,7048.80322265625,2496,0.0,0.0,0.0,-6.81797456741333,-0.8905014395713806,53.542274475097656,805.4600830078125,6472.3408203125
55615.7,-33.49529266357422,-27.00171661376953,-9.041105270385742,-0.022092357277870178,0.0053639463149011135,1.0693438053131104,52000.0,0.13787777721881866,1.0,55.4894905090332,41.03190612792969,12.1600341796875,18.246788024902344,0.0,0.0,0.3438262939453125,1167.836669921875,7691.8369140625,3274,0.0,0.0,0.0,-6.700772762298584,-1.0266722440719604,53.507911682128906,1664.5400390625,6722.14013671875
55617.716,-33.831459045410156,-28.02120590209961,-9.044816017150879,-0.022004837170243263,0.010965951718389988,1.0707918405532837,52000.0,0.13787777721881866,1.0,55.4894905090332,41.03190612792969,12.1600341796875,12.237262725830078,0.0,0.0,0.347789466381073,1186.988037109375,7150.8486328125,2553,0.0,0.0,0.0,-6.700772762298584,-1.0266722440719604,53.507911682128906,1120.33984375,7291.76025390625
55619.653,-34.09611129760742,-28.85613250732422,-9.082498550415039,-0.02125944197177887,0.012009591795504093,1.0719996690750122,52000.0,0.13787777721881866,1.0,55.4894905090332,40.28451156616211,12.986157417297363,18.401578903198242,0.0,0.0,0.351820707321167,527.51611328125,7880.42138671875,3298,0.0,0.0,0.0,-6.576207160949707,-1.1643595695495605,53.473876953125,1120.33984375,7291.76025390625
55621.624,-34.16061782836914,-28.998268127441406,-9.199204444885254,-0.019592247903347015,0.011022196151316166,1.0732710361480713,52000.0,0.13787777721881866,1.0,55.4894905090332,40.28451156616211,12.986157417297363,12.449533462524414,0.0,0.0,0.355851948261261,1586.3348388671875,7120.39599609375,2597,0.0,0.0,0.0,-6.576207160949707,-1.1643595695495605,53.473876953125,3321.23974609375,8296.359375
55623.658,-34.59953308105469,-28.98583221435547,-9.336471557617188,-0.016336778178811073,0.009297674521803856,1.0736277103424072,52000.0,0.13787777721881866,1.0,55.4894905090332,39.532073974609375,13.824483871459961,18.744417190551758,0.0,0.0,0.3599526882171631,1026.93505859375,8221.5361328125,3369,0.0,0.0,0.0,-6.450801372528076,-1.3040807247161865,53.43912124633789,406.84002685546875,6387.00048828125
55625.574,-35.35614776611328,-28.871673583984375,-9.3679780960083,-0.01306486502289772,0.007909533567726612,1.0730276107788086,52000.0,0.13787777721881866,1.0,55.4894905090332,39.532073974609375,13.824483871459961,12.666269302368164,0.0,0.0,0.3640534281730652,1684.6790771484375,7944.55615234375,2644,0.0,0.0,0.0,-6.450801372528076,-1.3040807247161865,53.43912124633789,1769.1798095703125,7158.6806640625
55627.587,-35.93902587890625,-28.498016357421875,-9.192388534545898,-0.013946982100605965,0.004606510512530804,1.0721051692962646,52000.0,0.46168532967567444,1.0,55.4894905090332,40.733707427978516,14.694997787475586,18.816913604736328,0.0,0.0,0.36822208762168884,3016.82177734375,8685.1484375,3361,0.0,0.0,0.0,-6.327266216278076,-1.4491662979125977,53.4051628112793,1234.5,7576.12060546875
55629.513,-35.93901443481445,-28.245498657226562,-9.01943588256836,-0.016472352668642998,0.0016607542056590319,1.069528579711914,52000.0,0.46168532967567444,1.0,55.4894905090332,40.733707427978516,14.694997787475586,12.87835693359375,0.0,0.0,0.3723907470703125,2062.61962890625,7595.09033203125,2627,0.0,0.0,0.0,-6.327266216278076,-1.4491662979125977,53.4051628112793,1234.5,7576.12060546875
55631.513,-35.74043273925781,-28.394649505615234,-8.89830493927002,-0.019338147714734077,-0.000878885097336024,1.0649608373641968,52000.0,0.46168532967567444,1.0,55.4894905090332,39.99860763549805,15.560763359069824,18.767383575439453,0.0,0.0,0.3766244351863861,1077.40576171875,8195.5693359375,3319,0.0,0.0,0.0,-6.204749584197998,-1.5934604406356812,53.372650146484375,-204.40011596679688,6617.98046875
55633.496,-35.53368377685547,-28.48024559020996,-8.795615196228027,-0.0219440720975399,-0.0009490266675129533,1.0590786933898926,52000.0,0.46168532967567444,1.0,55.4894905090332,39.99860763549805,15.560763359069824,13.081900596618652,0.0,0.0,0.3808581233024597,1663.5572509765625,7509.10546875,2625,0.0,0.0,0.0,-6.204749584197998,-1.5934604406356812,53.372650146484375,2288.659912109375,6668.7802734375
55635.447,-35.15403747558594,-28.158178329467773,-8.654258728027344,-0.02514212764799595,-0.0016949097625911236,1.053939938545227,52000.0,0.46168532967567444,1.0,55.4894905090332,39.273109436035156,16.4102840423584,18.741756439208984,0.0,0.0,0.3851543068885803,1364.66650390625,8087.0546875,3287,0.0,0.0,0.0,-6.083832740783691,-1.7350472211837769,53.34140396118164,592.2998657226562,6982.8603515625
55637.458,-34.91194152832031,-27.639476776123047,-8.606287956237793,-0.028068210929632187,-0.002243808703497052,1.0501008033752441,52000.0,0.46168532967567444,1.0,55.48458480834961,39.273109436035156,16.4102840423584,12.39002799987793,0.0,0.0,0.389440655708313,2134.071044921875,7516.76220703125,2519,0.0,0.0,0.0,-6.083832740783691,-1.7350472211837769,53.34140396118164,732.3598022460938,8337.1005859375
55639.407,-34.76572799682617,-26.92331886291504,-8.706707954406738,-0.03154173493385315,-0.0020558484829962254,1.0488429069519043,52000.0,0.46168532967567444,1.0,55.479679107666016,38.581153869628906,17.248985290527344,18.0343017578125,0.0,0.0,0.39377984404563904,1766.8270263671875,8321.5712890625,3208,0.0,0.0,0.0,-5.968507289886475,-1.874830722808838,53.310081481933594,732.3598022460938,8337.1005859375
55641.355,-34.43985366821289,-26.026641845703125,-8.906728744506836,-0.032432232052087784,0.0009093551198020577,1.0509105920791626,52000.0,0.46168532967567444,1.0,55.47477340698242,38.581153869628906,17.248985290527344,12.527763366699219,0.0,0.0,0.39810922741889954,2555.6845703125,7508.919921875,2572,0.0,0.0,0.0,-5.968507289886475,-1.874830722808838,53.310081481933594,1005.5198364257812,7599.220703125
55643.397,-34.15617370605469,-25.195743560791016,-8.978484153747559,-0.030705852434039116,0.006727544590830803,1.053950309753418,52000.0,0.46168532967567444,1.0,55.46986770629883,37.93043899536133,18.06742286682129,18.344005584716797,0.0,0.0,0.40249335765838623,2045.3419189453125,8234.60546875,3278,0.0,0.0,0.0,-5.8600544929504395,-2.011237144470215,53.277809143066406,1263.079833984375,8026.36083984375
55645.316,-34.039485931396484,-24.48088836669922,-8.7735013961792,-0.02810036763548851,0.012187579646706581,1.054168939590454,52000.0,0.46168532967567444,1.0,55.464962005615234,37.93043899536133,18.06742286682129,12.671287536621094,0.0,0.0,0.406867653131485,2553.573974609375,7728.5234375,2573,0.0,0.0,0.0,-5.8600544929504395,-2.011237144470215,53.277809143066406,2739.19970703125,7575.68017578125
55647.339,-34.04658126831055,-23.622150421142578,-8.535555839538574,-0.02522217109799385,0.01606551930308342,1.0537033081054688,52000.0,0.46168532967567444,1.0,55.46005630493164,37.31550216674805,18.875606536865234,18.145103454589844,0.0,0.0,0.4112929105758667,2236.853515625,8549.7861328125,3201,0.0,0.0,0.0,-5.757565021514893,-2.1459343433380127,53.24742889404297,1417.33984375,6615.0009765625
55649.258,-33.822181701660156,-22.62163543701172,-8.531646728515625,-0.023162975907325745,0.017196882516145706,1.053140640258789,52000.0,0.46168532967567444,1.0,55.45515060424805,37.31550216674805,18.875606536865234,12.80354118347168,0.0,0.0,0.41570836305618286,2954.46630859375,7736.36865234375,2560,0.0,0.0,0.0,-5.757565021514893,-2.1459343433380127,53.24742889404297,1417.33984375,6615.0009765625
55651.282,-33.05131149291992,-21.701223373413086,-8.660736083984375,-0.02170117385685444,0.017854008823633194,1.0526602268218994,52000.0,0.46168532967567444,1.0,55.45024490356445,36.74512481689453,19.657699584960938,18.376134872436523,0.0,0.0,0.42017585039138794,2519.111328125,7914.7685546875,3244,0.0,0.0,0.0,-5.662502288818359,-2.2762832641601562,53.21650314331055,2341.879638671875,8316.2802734375
55653.238,-32.22590637207031,-20.646507263183594,-8.466872215270996,-0.019902687519788742,0.019437553361058235,1.0530226230621338,52000.0,0.46168532967567444,1.0,55.44533920288086,36.74512481689453,19.657699584960938,12.939152717590332,0.0,0.0,0.42463353276252747,3205.829833984375,7163.4873046875,2568,0.0,0.0,0.0,-5.662502288818359,-2.2762832641601562,53.21650314331055,1831.8997802734375,7724.240234375
55655.197,-31.776763916015625,-19.325471878051758,-8.225235939025879,-0.018018214032053947,0.022021817043423653,1.0540146827697754,52000.0,0.46168532967567444,1.0,55.440433502197266,36.23054504394531,20.404582977294922,18.2197208404541,0.0,0.0,0.42914003133773804,3140.6025390625,8050.5078125,3173,0.0,0.0,0.0,-5.576739311218262,-2.400763988494873,53.187191009521484,1653.7799072265625,6959.240234375
55657.197,-31.060422897338867,-18.09081268310547,-8.207489013671875,-0.019016245380043983,0.01917034201323986,1.0556508302688599,52000.0,0.46168532967567444,1.0,55.43552780151367,36.23054504394531,20.404582977294922,13.065159797668457,0.0,0.0,0.43363669514656067,3646.954345703125,7182.4931640625,2552,0.0,0.0,0.0,-5.576739311218262,-2.400763988494873,53.187191009521484,1599.15966796875,8175.08056640625
55659.2,-30.048885345458984,-17.337852478027344,-8.126664161682129,-0.021079039201140404,0.013019510544836521,1.0574824810028076,52000.0,0.46168532967567444,1.0,55.41086196899414,35.76552200317383,21.113122940063477,14.740144729614258,0.0,0.0,0.438142329454422,2980.103271484375,7447.056640625,2744,0.0,0.0,0.0,-5.499235153198242,-2.5188539028167725,53.15803909301758,2643.300048828125,7880.38037109375
55661.112,-28.982662200927734,-16.46021270751953,-7.913247108459473,-0.022268665954470634,0.006404205225408077,1.0574325323104858,52000.0,0.46168532967567444,1.0,55.38619613647461,35.76552200317383,21.113122940063477,9.495019912719727,0.0,0.0,0.4425986409187317,3554.026123046875,6714.70068359375,2088,0.0,0.0,0.0,-5.499235153198242,-2.5188539028167725,53.15803909301758,2734.919677734375,7826.56005859375
55663.111,-28.051055908203125,-14.846518516540527,-7.835226058959961,-0.022398944944143295,0.0011172431986778975,1.05672025680542,52000.0,0.46168532967567444,1.0,55.36153030395508,35.36138916015625,21.778034210205078,14.487822532653809,0.0,0.0,0.4470623731613159,3984.400634765625,7274.3408203125,2678,0.0,0.0,0.0,-5.43187952041626,-2.6296722888946533,53.129661560058594,3012.16015625,7837.62060546875
55665.049,-27.124034881591797,-13.132445335388184,-7.950930118560791,-0.022656623274087906,-0.0021688726264983416,1.0560911893844604,52000.0,0.46168532967567444,1.0,55.33686447143555,35.36138916015625,21.778034210205078,9.378173828125,0.0,0.0,0.4514767825603485,4619.89599609375,6640.044921875,2079,0.0,0.0,0.0,-5.43187952041626,-2.6296722888946533,53.129661560058594,2302.179931640625,6126.72021484375
55667.109,-26.02936363220215,-12.02932357788086,-7.977617263793945,-0.022238370031118393,-0.00031659557134844363,1.055006504058838,52000.0,0.46168532967567444,1.0,55.312198638916016,35.0246696472168,22.39447784423828,14.549764633178711,0.0,0.0,0.4559005796909332,4024.1044921875,6904.9072265625,2703,0.0,0.0,0.0,-5.375759601593018,-2.7324130535125732,53.10029602050781,2779.419921875,8288.4599609375
55669.001,-24.850393295288086,-11.140812873840332,-8.099740982055664,-0.021377675235271454,0.003133761929348111,1.0546433925628662,52000.0,0.46168532967567444,1.0,55.287532806396484,35.0246696472168,22.39447784423828,9.26717472076416,0.0,0.0,0.4602750539779663,4248.96240234375,6202.5029296875,2084,0.0,0.0,0.0,-5.375759601593018,-2.7324130535125732,53.10029602050781,3709.1796875,7174.08056640625
55670.979,-23.566255569458008,-9.600995063781738,-8.459861755371094,-0.02087395451962948,0.005424897652119398,1.054390788078308,52000.0,0.46168532967567444,1.0,55.26286697387695,34.74494552612305,22.948984146118164,14.84748363494873,0.0,0.0,0.46466344594955444,4716.6630859375,6430.06103515625,2796,0.0,0.0,0.0,-5.329139232635498,-2.8248307704925537,53.06867218017578,3257.579833984375,6030.46044921875
55672.982,-22.378629684448242,-7.816542148590088,-8.669031143188477,-0.020584581419825554,0.0058981264010071754,1.0544511079788208,52000.0,0.46168532967567444,1.0,55.23820114135742,34.74494552612305,22.948984146118164,9.169655799865723,0.0,0.0,0.46900251507759094,5377.599609375,5908.4228515625,2140,0.0,0.0,0.0,-5.329139232635498,-2.8248307704925537,53.06867218017578,2755.2998046875,5508.32080078125
55674.986,-21.161399841308594,-6.675530910491943,-8.676461219787598,-0.022170668467879295,0.00729370629414916,1.056829571723938,52000.0,0.46168532967567444,1.0,55.21353530883789,34.53566360473633,23.444568634033203,14.999187469482422,0.0,0.0,0.47335824370384216,4877.81640625,6149.66162109375,2841,0.0,0.0,0.0,-5.2942585945129395,-2.907428026199341,53.03567123413086,4144.599609375,6618.580078125
55676.949,-19.568199157714844,-6.030200958251953,-8.661709785461426,-0.024528607726097107,0.008806121535599232,1.0598154067993164,52000.0,0.46168532967567444,1.0,55.18886947631836,34.53566360473633,23.444568634033203,9.080333709716797,0.0,0.0,0.47766464948654175,4759.8173828125,5257.0146484375,2129,0.0,0.0,0.0,-5.2942585945129395,-2.907428026199341,53.03567123413086,4510.359375,6843.14013671875
55678.892,-17.763147354125977,-5.006483554840088,-8.80079174041748,-0.026689251884818077,0.009908654727041721,1.0630189180374146,50916.0,0.46168532967567444,1.0,55.16420364379883,34.3684196472168,23.8568172454834,15.048616409301758,0.0,0.0,0.4819892644882202,5046.64599609375,5198.392578125,2861,0.0,0.0,0.0,-5.266384601593018,-2.9761362075805664,53.00190353393555,3672.559814453125,5781.92138671875
55680.838,-16.334980010986328,-3.227977991104126,-8.988395690917969,-0.02872989885509014,0.012513945810496807,1.0648757219314575,50916.0,0.46168532967567444,1.0,55.1395378112793,34.3684196472168,23.8568172454834,8.995549201965332,0.0,0.0,0.48626452684402466,6004.9453125,4957.642578125,2158,0.0,0.0,0.0,-5.266384601593018,-2.9761362075805664,53.00190353393555,4099.69921875,5900.060546875
55682.858,-15.124963760375977,-1.5757161378860474,-9.025202751159668,-0.02849069982767105,0.014842003583908081,1.0655597448349,50916.0,0.46168532967567444,1.0,55.114871978759766,34.28376770019531,24.20337677001953,15.244132041931152,0.0,0.0,0.4905610978603363,6081.9130859375,5251.658203125,2912,0.0,0.0,0.0,-5.252276420593262,-3.033895969390869,52.96658706665039,4963.419921875,5337.00048828125
55684.79,-13.691902160644531,-0.4449714720249176,-9.023106575012207,-0.027438361197710037,0.017494695261120796,1.0634809732437134,50916.0,0.46168532967567444,1.0,55.090206146240234,34.28376770019531,24.20337677001953,8.920001983642578,0.0,0.0,0.4948083460330963,5923.8779296875,4609.4970703125,2153,0.0,0.0,0.0,-5.252276420593262,-3.033895969390869,52.96658706665039,3923.23974609375,4759.50048828125
55686.848,-12.336010932922363,0.6010030508041382,-9.025030136108398,-0.027332600206136703,0.014842371456325054,1.0638986825942993,50916.0,0.46168532967567444,1.0,55.0655403137207,34.250492095947266,24.482646942138672,15.252793312072754,0.0,0.0,0.49907782673835754,5987.24853515625,4715.33203125,2913,0.0,0.0,0.0,-5.246730327606201,-3.0804409980773926,52.93080520629883,5901.7197265625,7143.0205078125
55688.751,-10.67851448059082,1.2823846340179443,-9.163301467895508,-0.027431651949882507,0.010686430148780346,1.0655605792999268,50916.0,0.46168532967567444,1.0,55.04087448120117,34.250492095947266,24.482646942138672,8.847192764282227,0.0,0.0,0.5032979846000671,5840.966796875,4031.05419921875,2161,0.0,0.0,0.0,-5.246730327606201,-3.0804409980773926,52.93080520629883,5470.2998046875,5975.19970703125
55690.731,-8.697532653808594,1.769288182258606,-9.140853881835938,-0.027000775560736656,0.006620145868510008,1.0660266876220703,50916.0,0.46168532967567444,1.0,55.01620864868164,34.24464416503906,24.67876625061035,15.318050384521484,0.0,0.0,0.5075418949127197,5762.8818359375,3667.794677734375,2935,0.0,0.0,0.0,-5.245755195617676,-3.1131279468536377,52.89426040649414,5510.06005859375,5108.65966796875
55692.717,-6.919273376464844,2.6496477127075195,-8.99813461303711,-0.025245537981390953,0.003110096324235201,1.0662882328033447,50916.0,0.46168532967567444,1.0,54.99154281616211,34.24464416503906,24.67876625061035,8.778910636901855,0.0,0.0,0.5117364525794983,6194.4130859375,3406.01318359375,2133,0.0,0.0,0.0,-5.245755195617676,-3.1131279468536377,52.89426040649414,5078.31982421875,4085.019775390625
55694.747,-5.36995267868042,3.5261449813842773,-8.97244644165039,-0.026775700971484184,0.000825951574370265,1.0664386749267578,50916.0,0.46168532967567444,1.0,54.96687698364258,34.2807502746582,24.797542572021484,15.205552101135254,0.0,0.0,0.515954315662384,6355.48876953125,3452.216796875,2901,0.0,0.0,0.0,-5.251773357391357,-3.1329236030578613,52.85795974731445,5798.6201171875,5244.06005859375
55696.69,-3.723933696746826,4.087565898895264,-8.90608024597168,-0.02970380336046219,-0.0012424070155248046,1.0663143396377563,50916.0,0.46168532967567444,1.0,54.94221115112305,34.2807502746582,24.797542572021484,8.709110260009766,0.0,0.0,0.5201228260993958,6176.31298828125,3043.70751953125,2113,0.0,0.0,0.0,-5.251773357391357,-3.1329236030578613,52.85795974731445,5756.259765625,4501.0
55698.616,-1.902159571647644,4.7761945724487305,-8.790986061096191,-0.03284180536866188,-0.0031008608639240265,1.0669296979904175,50916.0,0.46168532967567444,1.0,54.917545318603516,34.349910736083984,24.83470344543457,15.05908489227295,0.0,0.0,0.524313747882843,6437.25830078125,2672.068359375,2862,0.0,0.0,0.0,-5.263299942016602,-3.139117479324341,52.82208251953125,5551.4599609375,3958.2001953125
55700.603,-0.18368813395500183,5.714573383331299,-8.73857593536377,-0.0328519269824028,-0.00015382797573693097,1.066315770149231,50916.0,0.46168532967567444,1.0,54.892879486083984,34.349910736083984,24.83470344543457,8.636716842651367,0.0,0.0,0.5284553170204163,6713.455078125,2463.905029296875,2085,0.0,0.0,0.0,-5.263299942016602,-3.139117479324341,52.82208251953125,6266.9599609375,4538.8203125
55702.688,1.5155603885650635,6.741183757781982,-8.808053016662598,-0.031160537153482437,0.005644956137984991,1.0631650686264038,50916.0,0.46168532967567444,1.0,54.86821365356445,34.46510696411133,24.785619735717773,15.067448616027832,0.0,0.0,0.5326202511787415,7037.29931640625,2179.2607421875,2865,0.0,0.0,0.0,-5.282499313354492,-3.13093638420105,52.78575897216797,5902.65966796875,3788.5400390625
55704.534,3.098210334777832,7.6699090003967285,-8.996315002441406,-0.029485099017620087,0.010797400958836079,1.0600690841674805,50916.0,0.46168532967567444,1.0,54.84354782104492,34.46510696411133,24.785619735717773,8.566947937011719,0.0,0.0,0.5367358326911926,7016.796875,2066.123046875,2107,0.0,0.0,0.0,-5.282499313354492,-3.13093638420105,52.78575897216797,5899.1201171875,3174.00048828125
55706.561,4.237626075744629,8.554354667663574,-9.11093521118164,-0.02968968264758587,0.01474667340517044,1.0574750900268555,50916.0,0.46168532967567444,1.0,54.81888198852539,34.62242889404297,24.66753387451172,15.273150444030762,0.0,0.0,0.5408777594566345,7257.8427734375,2121.361572265625,2926,0.0,0.0,0.0,-5.308719635009766,-3.1112558841705322,52.7479133605957,6330.5400390625,4341.8203125
55708.473,5.391903877258301,9.339550018310547,-9.081116676330566,-0.030788160860538483,0.016714129596948624,1.055449366569519,50916.0,0.7835654616355896,1.0,54.79421615600586,36.5537109375,24.66753387451172,8.506266593933105,0.0,0.0,0.5449703931808472,8921.3466796875,2025.636474609375,2110,0.0,0.0,0.0,-5.308719635009766,-3.1112558841705322,52.7479133605957,6365.92041015625,1502.43994140625
55710.591,6.9943037033081055,9.862460136413574,-8.944988250732422,-0.030736900866031647,0.017204387113451958,1.0554087162017822,50916.0,0.7835654616355896,1.0,54.76955032348633,36.742916107177734,24.482088088989258,15.136494636535645,0.0,0.0,0.5490885376930237,7524.8935546875,1282.2835693359375,2889,0.0,0.0,0.0,-5.340253829956055,-3.080348253250122,52.710487365722656,7025.22021484375,2003.1199951171875
55712.473,8.793564796447754,9.963664054870605,-8.918956756591797,-0.030271414667367935,0.016574377194046974,1.052689552307129,50916.0,0.7835654616355896,1.0,54.7448844909668,36.742916107177734,24.482088088989258,8.44301986694336,0.0,0.0,0.5531573295593262,7081.89013671875,1003.83203125,2083,0.0,0.0,0.0,-5.340253829956055,-3.080348253250122,52.710487365722656,7304.92041015625,2211.4404296875
55714.435,10.44491195678711,10.030517578125,-9.15428638458252,-0.029520969837903976,0.015349872410297394,1.0493478775024414,50916.0,0.7835654616355896,1.0,54.720218658447266,36.9351806640625,24.215641021728516,15.232722282409668,0.0,0.0,0.5572534203529358,7239.1923828125,627.263671875,2926,0.0,0.0,0.0,-5.372297763824463,-3.035940408706665,52.67218017578125,7330.740234375,1711.3800048828125
55716.438,11.756158828735352,10.532820701599121,-9.388897895812988,-0.02920040674507618,0.012345953844487667,1.046393632888794,50916.0,0.7835654616355896,1.0,54.695552825927734,36.9351806640625,24.215641021728516,8.385015487670898,0.0,0.0,0.5613001585006714,7496.92822265625,885.4872436523438,2132,0.0,0.0,0.0,-5.372297763824463,-3.035940408706665,52.67218017578125,8623.62109375,1833.8402099609375
55718.482,13.15340805053711,11.050575256347656,-9.414666175842285,-0.029093576595187187,0.009821678511798382,1.0436198711395264,50916.0,0.7835654616355896,1.0,54.6708869934082,37.151214599609375,23.888309478759766,15.404621124267578,0.0,0.0,0.5653766989707947,7780.609375,316.7996826171875,2978,0.0,0.0,0.0,-5.408303737640381,-2.981384754180908,52.63260269165039,7331.7001953125,2080.97998046875
55720.315,14.632081031799316,11.070362091064453,-9.228470802307129,-0.03045419417321682,0.006883897352963686,1.0431338548660278,50916.0,0.7835654616355896,1.0,54.64622116088867,37.151214599609375,23.888309478759766,8.3345947265625,0.0,0.0,0.5694039463996887,7248.07666015625,279.4296875,2107,0.0,0.0,0.0,-5.408303737640381,-2.981384754180908,52.63260269165039,6857.720703125,2723.56005859375
55722.344,15.953357696533203,10.753239631652832,-9.127044677734375,-0.032401639968156815,0.004201773554086685,1.0433640480041504,50916.0,0.7835654616355896,1.0,54.62155532836914,37.36212158203125,23.496679306030273,15.136683464050293,0.0,0.0,0.5734586119651794,7137.64208984375,-153.1817626953125,2911,0.0,0.0,0.0,-5.443454742431641,-2.9161131381988525,52.5942268371582,8514.8408203125,626.47998046875
55724.264,16.96226692199707,10.27315616607666,-9.218681335449219,-0.03415496274828911,0.0019172936445102096,1.045308232307434,50916.0,0.7835654616355896,1.0,54.59688949584961,37.36212158203125,23.496679306030273,8.2769193649292,0.0,0.0,0.5774639248847961,6785.22900390625,223.47998046875,2099,0.0,0.0,0.0,-5.443454742431641,-2.9161131381988525,52.5942268371582,7965.22021484375,891.6200561523438
55726.313,17.765735626220703,9.834650039672852,-9.386707305908203,-0.035053811967372894,-0.00038044946268200874,1.048091173171997,50916.0,0.7835654616355896,1.0,54.57222366333008,37.5519905090332,23.0651798248291,15.232270240783691,0.0,0.0,0.581498384475708,6921.52099609375,-131.3094482421875,2954,0.0,0.0,0.0,-5.475099563598633,-2.8441965579986572,52.55500411987305,9972.740234375,735.0202026367188
55728.257,18.659740447998047,9.386998176574707,-9.462121963500977,-0.03510094806551933,-0.003225295804440975,1.0489634275436401,50916.0,0.7835654616355896,1.0,54.54755783081055,37.5519905090332,23.0651798248291,8.224285125732422,0.0,0.0,0.5854834914207458,6705.10693359375,-9.6876220703125,2122,0.0,0.0,0.0,-5.475099563598633,-2.8441965579986572,52.55500411987305,5730.0595703125,37.579647064208984
55730.357,19.789203643798828,8.738201141357422,-9.519121170043945,-0.0353141687810421,-0.004162654280662537,1.0482187271118164,50916.0,0.7835654616355896,1.0,54.522891998291016,37.71563720703125,22.588058471679688,15.23692512512207,0.0,0.0,0.5894983410835266,6604.2138671875,-785.110107421875,2970,0.0,0.0,0.0,-5.502373695373535,-2.764676570892334,52.515464782714844,7500.640625,-396.5999450683594
55732.219,20.932252883911133,7.904980182647705,-9.576403617858887,-0.035594239830970764,-0.006081759929656982,1.0495129823684692,50916.0,0.7835654616355896,1.0,54.498226165771484,37.71563720703125,22.588058471679688,8.173511505126953,0.0,0.0,0.5934638381004333,6218.1767578125,-608.916015625,2129,0.0,0.0,0.0,-5.502373695373535,-2.764676570892334,52.515464782714844,7811.14111328125,850.5800170898438
55734.139,21.70979118347168,6.851500511169434,-9.416136741638184,-0.03445059433579445,-0.01041762251406908,1.0496193170547485,50916.0,0.7835654616355896,1.0,54.47356033325195,37.83390808105469,22.068492889404297,15.048728942871094,0.0,0.0,0.5974575877189636,6001.40625,-919.0225830078125,2935,0.0,0.0,0.0,-5.522086143493652,-2.678082227706909,52.4766845703125,9881.6796875,120.02009582519531
55736.164,21.940380096435547,5.779854774475098,-9.305900573730469,-0.031672049313783646,-0.011400294490158558,1.047931432723999,50916.0,0.7835654616355896,1.0,54.44889450073242,37.83390808105469,22.068492889404297,8.118141174316406,0.0,0.0,0.6014019846916199,5738.32861328125,-153.72476196289062,2090,0.0,0.0,0.0,-5.522086143493652,-2.678082227706909,52.4766845703125,8177.640625,502.7200622558594
55738.1,21.930984497070312,4.700169086456299,-9.44051456451416,-0.02874648943543434,-0.009794694371521473,1.0456979274749756,50916.0,0.7835654616355896,1.1817562580108643,54.42422866821289,37.898040771484375,22.634544372558594,14.933266639709473,0.0,0.0,0.6053739786148071,5628.06689453125,537.1193237304688,2924,0.0,0.0,0.0,-5.532774925231934,-2.590667963027954,52.438236236572266,7849.4609375,913.2799682617188
55740.068,22.123537063598633,3.635535717010498,-9.485190391540527,-0.026440178975462914,-0.006881279405206442,1.0424162149429321,50916.0,0.7835654616355896,1.1817562580108643,54.39956283569336,37.898040771484375,22.634544372558594,8.060735702514648,0.0,0.0,0.6092966198921204,5431.5625,-67.76332092285156,2105,0.0,0.0,0.0,-5.532774925231934,-2.590667963027954,52.438236236572266,8050.66064453125,-819.6801147460938
55742.077,22.753223419189453,2.464594841003418,-9.333965301513672,-0.023845598101615906,-0.0032999017275869846,1.0397124290466309,50916.0,0.7835654616355896,1.1817562580108643,54.37489700317383,37.90666198730469,22.087295532226562,14.714960098266602,0.0,0.0,0.6132450699806213,5183.94921875,-982.590576171875,2885,0.0,0.0,0.0,-5.534211158752441,-2.4994595050811768,52.40067672729492,7055.74072265625,438.2004089355469
55744.005,23.3493709564209,0.7975410223007202,-9.191045761108398,-0.02079875022172928,0.001235596719197929,1.0383131504058838,50916.0,0.7835654616355896,1.1817562580108643,54.3502311706543,37.90666198730469,22.087295532226562,7.997950553894043,0.0,0.0,0.6171441674232483,4555.3408203125,-636.4219970703125,2062,0.0,0.0,0.0,-5.534211158752441,-2.4994595050811768,52.40067672729492,6915.9609375,-164.6600341796875
55746.13,23.490964889526367,-0.8458108901977539,-9.162101745605469,-0.019209597259759903,0.00596811855211854,1.0358155965805054,50916.0,0.7835654616355896,1.1817562580108643,54.325565338134766,37.83434295654297,21.517562866210938,14.409106254577637,0.0,0.0,0.6210663914680481,4261.5263671875,-829.5051879882812,2828,0.0,0.0,0.0,-5.522158622741699,-2.4045040607452393,52.36445999145508,7539.380859375,-964.179931640625
55747.955,23.568767547607422,-2.248676300048828,-9.160652160644531,-0.018807601183652878,0.009856023825705051,1.0380140542984009,50916.0,0.7835654616355896,1.1817562580108643,54.300899505615234,37.83434295654297,21.517562866210938,7.927056312561035,0.0,0.0,0.6249392628669739,4285.7001953125,-366.0326843261719,2050,0.0,0.0,0.0,-5.522158622741699,-2.4045040607452393,52.36445999145508,5237.43994140625,58.08003234863281
55749.946,23.7769775390625,-3.6455435752868652,-9.238537788391113,-0.01881893165409565,0.008059210143983364,1.0414706468582153,50916.0,0.7835654616355896,1.1817562580108643,54.2762336730957,37.69526672363281,20.94063377380371,14.311257362365723,0.0,0.0,0.6288349628448486,3955.501953125,-1014.3057861328125,2825,0.0,0.0,0.0,-5.498978614807129,-2.308349370956421,52.328392028808594,5680.9599609375,-443.2998352050781
55751.928,23.834402084350586,-4.742272853851318,-9.240443229675293,-0.019002249464392662,0.0026031637098640203,1.0458041429519653,50916.0,0.7835654616355896,1.1817562580108643,54.25156784057617,37.69526672363281,20.94063377380371,7.855216026306152,0.0,0.0,0.6326813101768494,4120.40234375,-477.1336669921875,2051,0.0,0.0,0.0,-5.498978614807129,-2.308349370956421,52.328392028808594,5810.2001953125,-715.9000854492188
55753.878,23.71067237854004,-5.8405866622924805,-9.087367057800293,-0.021206306293606758,-0.0011798851191997528,1.049136996269226,50916.0,0.7835654616355896,1.1817562580108643,54.22690200805664,37.505577087402344,20.370439529418945,14.088178634643555,0.0,0.0,0.6365488171577454,3783.744140625,-835.88330078125,2781,0.0,0.0,0.0,-5.467364311218262,-2.2133169174194336,52.29315948486328,5760.80029296875,-931.5198364257812
55755.923,23.780336380004883,-7.647980213165283,-8.923874855041504,-0.02567564882338047,-0.002706511877477169,1.0507086515426636,50916.0,0.7835654616355896,1.1817562580108643,54.20223617553711,37.505577087402344,20.370439529418945,7.77830696105957,0.0,0.0,0.6403669714927673,3123.095703125,-563.7325439453125,2004,0.0,0.0,0.0,-5.467364311218262,-2.2133169174194336,52.29315948486328,6519.80078125,-169.98001098632812
55757.826,23.717899322509766,-9.825037002563477,-8.88830280303955,-0.0303186122328043,-0.005226266570389271,1.053333044052124,50916.0,0.7835654616355896,1.1817562580108643,54.17757034301758,37.22612380981445,19.80216407775879,13.771648406982422,0.0,0.0,0.6442036032676697,2267.7802734375,-966.7390747070312,2719,0.0,0.0,0.0,-5.420788288116455,-2.1186044216156006,52.25925064086914,6192.30078125,-213.65943908691406
55759.792,23.60417938232422,-11.753474235534668,-8.993678092956543,-0.03435565158724785,-0.009368433617055416,1.0524792671203613,50916.0,0.7835654616355896,1.1817562580108643,54.15290451049805,37.22612380981445,19.80216407775879,7.693393707275391,0.0,0.0,0.647990882396698,2374.568603515625,-485.0123596191406,2002,0.0,0.0,0.0,-5.420788288116455,-2.1186044216156006,52.25925064086914,4932.69970703125,-1016.1600341796875
55761.819,23.376083374023438,-13.55414867401123,-9.08750057220459,-0.03643982112407684,-0.012903336435556412,1.050731897354126,50916.0,0.7835654616355896,1.1817562580108643,54.128238677978516,36.861328125,19.24700927734375,13.761275291442871,0.0,0.0,0.6517974734306335,1871.97412109375,-864.6551513671875,2741,0.0,0.0,0.0,-5.359989166259766,-2.026078701019287,52.22492980957031,5086.51953125,-776.3397827148438
55763.746,22.90036964416504,-15.57895565032959,-9.169266700744629,-0.03740640729665756,-0.0158388614654541,1.0486791133880615,50916.0,0.7835654616355896,1.1817562580108643,54.103572845458984,36.861328125,19.24700927734375,7.6108927726745605,0.0,0.0,0.6555547714233398,1673.75048828125,-191.21875,2013,0.0,0.0,0.0,-5.359989166259766,-2.026078701019287,52.22492980957031,3961.39990234375,-814.640380859375
55765.784,22.290756225585938,-17.748640060424805,-9.191136360168457,-0.038481246680021286,-0.01319738570600748,1.045499324798584,50916.0,0.7835654616355896,1.1817562580108643,54.07890701293945,36.39824676513672,18.71868324279785,13.66562557220459,0.0,0.0,0.659331202507019,822.867431640625,-474.845458984375,2742,0.0,0.0,0.0,-5.282809257507324,-1.9380242824554443,52.19068145751953,4442.1591796875,-656.4400634765625
55767.688,21.565582275390625,-19.375307083129883,-9.041251182556152,-0.03939029201865196,-0.00681705866008997,1.042283535003662,50916.0,0.7835654616355896,1.1817562580108643,54.05424118041992,36.39824676513672,18.71868324279785,7.527896404266357,0.0,0.0,0.663058340549469,1333.440673828125,116.8455810546875,1988,0.0,0.0,0.0,-5.282809257507324,-1.9380242824554443,52.19068145751953,1319.619873046875,-2321.5400390625
55769.672,20.965389251708984,-20.600549697875977,-8.971514701843262,-0.03845220059156418,-0.0005932538188062608,1.0379482507705688,50916.0,0.7835654616355896,1.1817562580108643,54.02957534790039,35.86836242675781,18.215476989746094,13.358197212219238,0.0,0.0,0.666802167892456,973.8267822265625,-339.74676513671875,2679,0.0,0.0,0.0,-5.194494724273682,-1.8541568517684937,52.15767288208008,2233.5,-2616.979736328125
55771.683,20.38381004333496,-22.407686233520508,-8.945127487182617,-0.03548850491642952,0.004048993345350027,1.0357922315597534,50916.0,0.7835654616355896,1.1817562580108643,54.00490951538086,35.86836242675781,18.215476989746094,7.437396049499512,0.0,0.0,0.6704966425895691,663.7491455078125,110.93441772460938,1965,0.0,0.0,0.0,-5.194494724273682,-1.8541568517684937,52.15767288208008,1180.3997802734375,335.52001953125
55773.618,19.803434371948242,-24.5339298248291,-8.87673282623291,-0.032100461423397064,0.0060220081359148026,1.033224105834961,50916.0,0.7835654616355896,1.1817562580108643,53.98024368286133,35.24239730834961,17.736713409423828,13.123355865478516,0.0,0.0,0.6742061972618103,-457.8861083984375,-233.79908752441406,2640,0.0,0.0,0.0,-5.09016752243042,-1.7743626832962036,52.12546157836914,1824.0797119140625,-1043.8597412109375
55775.635,18.994205474853516,-26.254697799682617,-8.922739028930664,-0.030783988535404205,0.002633786527439952,1.0324610471725464,50916.0,0.7835654616355896,1.1817562580108643,53.9555778503418,35.24239730834961,17.736713409423828,7.342043876647949,0.0,0.0,0.6778664588928223,57.5789794921875,418.2978210449219,1951,0.0,0.0,0.0,-5.09016752243042,-1.7743626832962036,52.12546157836914,1954.73974609375,-298.5800476074219
55777.581,17.93788719177246,-27.73801612854004,-9.004441261291504,-0.029901957139372826,-0.002424662234261632,1.0356054306030273,50916.0,0.7835654616355896,1.1817562580108643,53.930912017822266,34.53978729248047,17.307714462280273,13.08665943145752,0.0,0.0,0.6815424561500549,-619.1804809570312,375.9635925292969,2650,0.0,0.0,0.0,-4.9730658531188965,-1.7028627395629883,52.092926025390625,1904.1798095703125,786.8004150390625
55779.533,16.726242065429688,-29.420623779296875,-8.882133483886719,-0.029126636683940887,-0.007159318774938583,1.037734031677246,50916.0,0.7835654616355896,1.1817562580108643,53.906246185302734,34.53978729248047,17.307714462280273,7.248569965362549,0.0,0.0,0.6851691007614136,-494.0811767578125,995.95458984375,1935,0.0,0.0,0.0,-4.9730658531188965,-1.7028627395629883,52.092926025390625,-433.480224609375,345.2601623535156
55781.563,15.742785453796387,-31.536956787109375,-8.691043853759766,-0.029015321284532547,-0.011593645438551903,1.0400716066360474,50916.0,0.7835654616355896,1.1817562580108643,53.8815803527832,33.74736785888672,16.935670852661133,12.721797943115234,0.0,0.0,0.6888085007667542,-1850.0025634765625,637.4925537109375,2569,0.0,0.0,0.0,-4.840995788574219,-1.6408554315567017,52.0618896484375,11.919960021972656,-779.2200317382812
55783.487,15.05665111541748,-33.56730651855469,-8.659075736999512,-0.0312193613499403,-0.013018457219004631,1.0417509078979492,50916.0,0.7835654616355896,1.1817562580108643,53.85691452026367,33.74736785888672,16.935670852661133,7.146027565002441,0.0,0.0,0.6923985481262207,-1495.7530517578125,796.4536743164062,1896,0.0,0.0,0.0,-4.840995788574219,-1.6408554315567017,52.0618896484375,805.8399658203125,-1554.4600830078125
