timestamp,gyro.x,gyro.y,gyro.z,acc.x,acc.y,acc.z,controller.actuatorThrust,controller.pitch,controller.roll,controller.yaw,pid_attitude.pitch_output,pid_attitude.roll_output,pid_attitude.yaw_output,pid_attitude.pitch_outI,pid_attitude.roll_outI,pid_attitude.yaw_outI,pid_rate.pitch_output,pid_rate.roll_output,pid_rate.yaw_output,pid_rate.pitch_outI,pid_rate.roll_outI,pid_rate.yaw_outI,stateEstimate.pitch,stateEstimate.roll,stateEstimate.yaw,snn_control.torque_pitch,snn_control.torque_roll
92503.259,11.410017013549805,99.2851333618164,-0.8376085758209229,-0.018398812040686607,-0.0023026037961244583,0.9994674921035767,48309.0,1.9660413265228271,2.0683722496032715,111.32198333740234,4.690494537353516,11.86591911315918,13.22866153717041,0.0,0.0,2.1646053791046143,14801.849609375,-43.48997497558594,1687,0.0,0.0,0.0,1.184292197227478,0.09071914106607437,109.47797393798828,16127.80078125,768.7800903320312
92505.265,11.675840377807617,97.36461639404297,-0.8810153007507324,-0.01683606579899788,0.0003114437568001449,0.9999818801879883,48309.0,1.9660413265228271,2.0683722496032715,111.32198333740234,7.040017604827881,11.586089134216309,13.729486465454102,0.0,0.0,2.1682989597320557,15982.4462890625,-422.7026672363281,1753,0.0,0.0,0.0,0.7927051186561584,0.13735736906528473,109.47522735595703,16249.2177734375,-221.63995361328125
92507.205,12.012280464172363,94.8805923461914,-0.890427827835083,-0.014120473526418209,0.003030094550922513,0.9974451065063477,48309.0,1.9660413265228271,2.0683722496032715,111.32198333740234,7.040017604827881,11.586089134216309,13.252528190612793,0.0,0.0,2.171992540359497,13425.0732421875,-316.2587585449219,1697,0.0,0.0,0.0,0.7927051186561584,0.13735736906528473,109.47522735595703,16127.80078125,768.7800903320312
92509.196,12.167215347290039,92.74983978271484,-0.9449818134307861,-0.010417545214295387,0.0049873096868395805,0.9961943626403809,48309.0,1.9660413265228271,2.0683722496032715,111.32198333740234,9.271974563598633,11.292462348937988,13.754739761352539,0.0,0.0,2.175691604614258,15379.1748046875,-467.6341857910156,1763,0.0,0.0,0.0,0.4207121729850769,0.18629510700702667,109.47247314453125,16249.2177734375,-221.63995361328125
92511.122,11.908208847045898,90.88320922851562,-0.8278830647468567,-0.009084685705602169,0.0018907433841377497,0.9954691529273987,48309.0,1.9660413265228271,2.0683722496032715,111.32198333740234,9.271974563598633,11.292462348937988,13.27645206451416,0.0,0.0,2.1793906688690186,13623.3046875,101.89290618896484,1692,0.0,0.0,0.0,0.4207121729850769,0.18629510700702667,109.47247314453125,16334.62109375,570.3002319335938
92513.14,11.623662948608398,88.44548797607422,-0.7383562922477722,-0.009359529241919518,-0.0027901374269276857,0.9923566579818726,48309.0,1.9660413265228271,2.0683722496032715,111.32198333740234,11.396864891052246,11.016744613647461,13.579813957214355,0.0,0.0,2.1830930709838867,14741.732421875,-84.4166259765625,1718,0.0,0.0,0.0,0.06656390428543091,0.23224805295467377,109.47081756591797,15318.419921875,-610.9199829101562
92515.088,11.593048095703125,85.16195678710938,-0.9813822507858276,-0.010893594473600388,-0.007654060609638691,0.9880680441856384,48309.0,1.9660413265228271,2.0683722496032715,111.32198333740234,11.396864891052246,11.016744613647461,13.293789863586426,0.0,0.0,2.186795473098755,12021.1748046875,-63.48439025878906,1713,0.0,0.0,0.0,0.06656390428543091,0.23224805295467377,109.47081756591797,16589.337890625,999.9395751953125
92517.038,11.361227989196777,81.72347259521484,-1.4618116617202759,-0.014214844442903996,-0.003092647297307849,0.9845483303070068,48309.0,1.9660413265228271,2.0683722496032715,111.32198333740234,13.360395431518555,10.748031616210938,14.092911720275879,0.0,0.0,2.19050669670105,13156.365234375,-119.64912414550781,1866,0.0,0.0,0.0,-0.26069122552871704,0.27703365683555603,109.46642303466797,16015.23828125,69.15953063964844
92519.007,11.057782173156738,78.37403106689453,-1.7264550924301147,-0.017179811373353004,0.006213292013853788,0.9831807613372803,48309.0,1.9660413265228271,1.7358912229537964,111.32198333740234,13.360395431518555,8.753145217895508,13.327579498291016,0.0,0.0,2.1942179203033447,11248.0830078125,-1614.2760009765625,1806,0.0,0.0,0.0,-0.26069122552871704,0.27703365683555603,109.46642303466797,13732.5390625,-2815.480224609375
92520.995,10.792314529418945,74.8799057006836,-1.7068188190460205,-0.019240569323301315,0.015099252574145794,0.9826213717460632,48309.0,1.9660413265228271,1.7358912229537964,111.32198333740234,15.159956932067871,8.488603591918945,14.285517692565918,0.0,0.0,2.19793963432312,12235.0556640625,-344.86212158203125,1919,0.0,0.0,0.0,-0.5606181025505066,0.3211239278316498,109.46115112304688,13454.478515625,-700.12060546875
92523.025,10.490621566772461,70.98721313476562,-1.6877027750015259,-0.02138339728116989,0.024006426334381104,0.9812729358673096,48309.0,1.9660413265228271,1.7358912229537964,111.32198333740234,15.159956932067871,8.488603591918945,13.366654396057129,0.0,0.0,2.2016613483428955,10002.5556640625,-74.03298950195312,1806,0.0,0.0,0.0,-0.5606181025505066,0.3211239278316498,109.46115112304688,11418.359375,695.7396850585938
92524.972,10.095548629760742,66.60292053222656,-1.8368114233016968,-0.02206774801015854,0.029652660712599754,0.9795712232589722,48309.0,1.9660413265228271,1.7358912229537964,111.32198333740234,16.760318756103516,8.2332763671875,14.410221099853516,0.0,0.0,2.2053945064544678,10416.5341796875,-174.5315704345703,1949,0.0,0.0,0.0,-0.8273451924324036,0.3636784851551056,109.45540618896484,8666.7607421875,2241.5595703125
92526.904,9.498063087463379,62.31976318359375,-1.9592288732528687,-0.02229463867843151,0.03163991868495941,0.9776188135147095,48309.0,1.9660413265228271,1.7358912229537964,111.32198333740234,16.760318756103516,8.2332763671875,13.408590316772461,0.0,0.0,2.20912766456604,8649.6435546875,258.3961181640625,1844,0.0,0.0,0.0,-0.8273451924324036,0.3636784851551056,109.45540618896484,14953.80078125,696.8994140625
92528.884,8.831018447875977,58.06367874145508,-1.914097785949707,-0.022940155118703842,0.03201928734779358,0.9741107821464539,48960.0,2.395857334136963,1.4034103155136108,111.32198333740234,20.733375549316406,6.012587547302246,14.510168075561523,0.0,0.0,2.2128729820251465,11607.2939453125,-1587.997802734375,1970,0.0,0.0,0.0,-1.059705376625061,0.40131232142448425,109.4493408203125,9146.01953125,-410.5202331542969
92530.853,7.934466361999512,53.53697204589844,-1.9058912992477417,-0.023645732551813126,0.031533900648355484,0.9704031348228455,48960.0,2.395857334136963,1.4034103155136108,111.32198333740234,20.733375549316406,6.012587547302246,13.452473640441895,0.0,0.0,2.216618299484253,7745.51904296875,384.1322326660156,1843,0.0,0.0,0.0,-1.059705376625061,0.40131232142448425,109.4493408203125,7407.1591796875,1510.960205078125
92532.909,6.873662948608398,48.80414962768555,-1.9185184240341187,-0.026903903111815453,0.026535462588071823,0.9678860306739807,48960.0,2.395857334136963,1.4034103155136108,111.32198333740234,21.906173706054688,5.8372483253479,14.584443092346191,0.0,0.0,2.2203760147094727,7936.53369140625,508.6359558105469,1980,0.0,0.0,0.0,-1.2551718950271606,0.43053561449050903,109.44310760498047,9737.6201171875,1261.400146484375
92534.828,5.933340072631836,43.637847900390625,-1.9835729598999023,-0.031831443309783936,0.02071624994277954,0.9646007418632507,48960.0,2.395857334136963,1.4034103155136108,111.32198333740234,21.906173706054688,5.8372483253479,13.497387886047363,0.0,0.0,2.2241337299346924,5956.87451171875,690.828369140625,1857,0.0,0.0,0.0,-1.2551718950271606,0.43053561449050903,109.44310760498047,10631.1611328125,1028.1397705078125
92536.787,5.72031307220459,38.347476959228516,-1.9344596862792969,-0.031596917659044266,0.02066124975681305,0.9658675193786621,48960.0,2.395857334136963,1.4034103155136108,111.32198333740234,22.829689025878906,5.693308353424072,14.683226585388184,0.0,0.0,2.2279045581817627,5901.43359375,47.76456069946289,1994,0.0,0.0,0.0,-1.4090911149978638,0.45452556014060974,109.43657684326172,7502.57958984375,-2217.280029296875
92538.745,5.518957614898682,33.36543273925781,-1.9784941673278809,-0.02841828018426895,0.021507760509848595,0.9709423184394836,48960.0,2.395857334136963,1.4034103155136108,111.32198333740234,22.829689025878906,5.693308353424072,13.544114112854004,0.0,0.0,2.231675386428833,4692.7353515625,177.169189453125,1862,0.0,0.0,0.0,-1.4090911149978638,0.45452556014060974,109.43657684326172,10781.4609375,1761.079833984375
92540.734,4.702949523925781,29.056978225708008,-2.216865301132202,-0.023183733224868774,0.02467520721256733,0.9773784875869751,48960.0,2.395857334136963,1.4034103155136108,111.32198333740234,23.524709701538086,5.572214126586914,14.975772857666016,0.0,0.0,2.235461950302124,5177.17822265625,651.5750732421875,2063,0.0,0.0,0.0,-1.5249277353286743,0.4747079610824585,109.4286880493164,5332.3994140625,-1424.7603759765625
92542.776,3.7319719791412354,25.217466354370117,-2.1456940174102783,-0.017413809895515442,0.02951192855834961,0.983486533164978,48960.0,2.395857334136963,1.4034103155136108,111.32198333740234,23.524709701538086,5.572214126586914,13.599020004272461,0.0,0.0,2.239248514175415,4431.6923828125,1004.2694091796875,1889,0.0,0.0,0.0,-1.5249277353286743,0.4747079610824585,109.4286880493164,6281.77978515625,-173.0801239013672
92544.713,2.7025437355041504,21.160608291625977,-1.8161289691925049,-0.014314163476228714,0.025331685319542885,0.9895082712173462,48960.0,2.395857334136963,1.4034103155136108,111.32198333740234,24.024662017822266,5.498984336853027,14.783506393432617,0.0,0.0,2.2430481910705566,4110.11328125,1136.6148681640625,1991,0.0,0.0,0.0,-1.608253002166748,0.48691290616989136,109.42216491699219,4669.37939453125,2037.780029296875
92546.638,1.6750915050506592,16.098434448242188,-1.706724762916565,-0.012704184278845787,0.017223291099071503,0.995556652545929,48960.0,2.395857334136963,1.4034103155136108,111.32198333740234,24.024662017822266,5.498984336853027,13.645758628845215,0.0,0.0,2.2468478679656982,2221.8330078125,1344.173095703125,1842,0.0,0.0,0.0,-1.608253002166748,0.48691290616989136,109.42216491699219,5775.85986328125,2478.85986328125
92548.629,0.950269341468811,10.380793571472168,-1.8151109218597412,-0.012780196964740753,0.00799213070422411,1.0004117488861084,48960.0,2.395857334136963,1.4034103155136108,111.32198333740234,24.265073776245117,5.477633953094482,14.900686264038086,0.0,0.0,2.2506613731384277,1088.95751953125,1206.7086181640625,2005,0.0,0.0,0.0,-1.6483216285705566,0.4904713034629822,109.41525268554688,3695.61962890625,2727.580078125
92550.596,0.2544955611228943,5.145260334014893,-1.8974504470825195,-0.013287266716361046,0.0028832382522523403,0.9994713664054871,48960.0,2.395857334136963,1.4034103155136108,111.32198333740234,24.265073776245117,5.477633953094482,13.69485855102539,0.0,0.0,2.2544748783111572,484.900390625,1305.301025390625,1871,0.0,0.0,0.0,-1.6483216285705566,0.4904713034629822,109.41525268554688,4747.7197265625,177.72021484375
92552.631,-0.5693917274475098,0.4886375963687897,-1.9386345148086548,-0.01288230624049902,0.0013612796319648623,0.9967097640037537,48960.0,2.395857334136963,1.4034103155136108,111.32198333740234,24.268604278564453,5.496561050415039,15.104464530944824,0.0,0.0,2.2583038806915283,223.76806640625,1542.003662109375,2045,0.0,0.0,0.0,-1.6489101648330688,0.4873167872428894,109.40748596191406,3014.27978515625,2136.93994140625
92554.569,-1.6137784719467163,-4.198917388916016,-1.886289119720459,-0.012099292129278183,0.001147662871517241,0.9932629466056824,48960.0,2.395857334136963,1.4034103155136108,111.32198333740234,24.268604278564453,5.496561050415039,13.749116897583008,0.0,0.0,2.2621328830718994,-505.21337890625,1849.841064453125,1876,0.0,0.0,0.0,-1.6489101648330688,0.4873167872428894,109.40748596191406,3229.97998046875,1860.360107421875
92556.525,-3.223806619644165,-8.745400428771973,-1.4140386581420898,-0.011605123989284039,0.0018737326608970761,0.9908859133720398,48960.0,2.395857334136963,1.4034103155136108,111.32198333740234,24.05050277709961,5.578556060791016,14.831457138061523,0.0,0.0,2.2659738063812256,-1277.673095703125,2589.37158203125,1949,0.0,0.0,0.0,-1.6125596761703491,0.47365090250968933,109.40152740478516,2812.439697265625,1449.02001953125
92558.484,-4.726553440093994,-12.999123573303223,-0.984146773815155,-0.011020297184586525,0.007957924157381058,0.9883224368095398,48960.0,2.395857334136963,1.4034103155136108,111.32198333740234,24.05050277709961,5.578556060791016,13.792550086975098,0.0,0.0,2.2698147296905518,-1532.5855712890625,2672.826171875,1773,0.0,0.0,0.0,-1.6125596761703491,0.47365090250968933,109.40152740478516,878.5800170898438,3237.26025390625
92560.479,-5.668609142303467,-17.169649124145508,-1.3261163234710693,-0.010317422449588776,0.01567726768553257,0.9872629642486572,48960.0,2.395857334136963,1.4034103155136108,111.32198333740234,23.630538940429688,5.711416244506836,14.855568885803223,0.0,0.0,2.273667335510254,-2473.7333984375,2513.19140625,1941,0.0,0.0,0.0,-1.5425657033920288,0.4515076279640198,109.39567565917969,-71.40003204345703,3466.5
92562.477,-6.413819313049316,-21.11820411682129,-1.9189761877059937,-0.011819782666862011,0.016649147495627403,0.9888282418251038,48960.0,2.395857334136963,1.4034103155136108,111.32198333740234,23.630538940429688,5.711416244506836,13.835366249084473,0.0,0.0,2.277519941329956,-2584.56591796875,2377.6923828125,1890,0.0,0.0,0.0,-1.5425657033920288,0.4515076279640198,109.39567565917969,-1315.35986328125,3331.260498046875
92564.445,-6.864243507385254,-24.912717819213867,-2.0865228176116943,-0.01484000962227583,0.01425135787576437,0.9915826916694641,48960.0,2.395857334136963,1.4034103155136108,111.32198333740234,23.02861785888672,5.874040126800537,15.486675262451172,0.0,0.0,2.28139066696167,-3579.94091796875,2370.528076171875,2108,0.0,0.0,0.0,-1.4422457218170166,0.4244036078453064,109.3865737915039,-1258.219970703125,3445.56005859375
92566.384,-7.341560363769531,-28.757848739624023,-1.8344132900238037,-0.01887563243508339,0.008797208778560162,0.9936413764953613,48960.0,2.395857334136963,1.4034103155136108,111.32198333740234,23.02861785888672,5.874040126800537,13.89771842956543,0.0,0.0,2.285261392593384,-3743.23291015625,2340.328369140625,1887,0.0,0.0,0.0,-1.4422457218170166,0.4244036078453064,109.3865737915039,-1411.56005859375,5186.1806640625
92568.372,-8.15227222442627,-32.40522003173828,-1.487959861755371,-0.02253093756735325,0.0017016434576362371,0.9955317378044128,48960.0,2.718701124191284,1.4034103155136108,111.32198333740234,24.189544677734375,6.07379150390625,15.149955749511719,0.0,0.0,2.2891459465026855,-3097.1845703125,2891.7568359375,1996,0.0,0.0,0.0,-1.312889814376831,0.3911117613315582,109.37967681884766,-2717.479736328125,5575.38037109375
92570.334,-9.098977088928223,-35.568572998046875,-1.195649266242981,-0.023481257259845734,0.0038120883982628584,0.9956002831459045,48960.0,2.718701124191284,1.4034103155136108,111.32198333740234,24.189544677734375,6.07379150390625,13.946869850158691,0.0,0.0,2.2930305004119873,-4079.368896484375,2985.94384765625,1817,0.0,0.0,0.0,-1.312889814376831,0.3911117613315582,109.37967681884766,-3205.5595703125,2248.260009765625
92572.357,-10.138263702392578,-38.33697509765625,-1.0234277248382568,-0.022795146331191063,0.009784650057554245,0.9961609244346619,48960.0,2.718701124191284,1.4034103155136108,111.32198333740234,23.272804260253906,6.3161301612854,14.871838569641113,0.0,0.0,2.2969253063201904,-5023.482421875,3429.37744140625,1907,0.0,0.0,0.0,-1.160099744796753,0.35072195529937744,109.37458801269531,-3853.599609375,3556.940185546875
92574.305,-11.231840133666992,-41.13652801513672,-0.9415828585624695,-0.020301075652241707,0.01833130419254303,0.9966508150100708,48960.0,2.718701124191284,1.4034103155136108,111.32198333740234,23.272804260253906,6.3161301612854,13.98519229888916,0.0,0.0,2.3008201122283936,-4779.22314453125,3452.3779296875,1791,0.0,0.0,0.0,-1.160099744796753,0.35072195529937744,109.37458801269531,-4297.5400390625,6306.9404296875
92576.259,-12.000221252441406,-44.16021728515625,-0.9106587171554565,-0.01763201504945755,0.027566848322749138,0.9959332942962646,48960.0,2.718701124191284,1.4034103155136108,111.32198333740234,22.21538734436035,6.592896938323975,14.824552536010742,0.0,0.0,2.3047242164611816,-6352.55419921875,3572.829345703125,1888,0.0,0.0,0.0,-0.9838632941246033,0.3045941889286041,109.3699722290039,-4866.599609375,5071.07958984375
92578.223,-12.060565948486328,-47.108055114746094,-0.852509081363678,-0.016205374151468277,0.033088088035583496,0.9961624145507812,48960.0,2.718701124191284,1.4034103155136108,111.32198333740234,22.21538734436035,6.592896938323975,14.020694732666016,0.0,0.0,2.3086283206939697,-5944.7783203125,2843.278076171875,1784,0.0,0.0,0.0,-0.9838632941246033,0.3045941889286041,109.3699722290039,-7316.4794921875,4608.9794921875
92580.217,-11.808110237121582,-49.72629928588867,-0.837091326713562,-0.014876848086714745,0.03672696650028229,0.9952954053878784,48960.0,2.718701124191284,1.4034103155136108,111.32198333740234,21.02499008178711,6.859468460083008,14.799304008483887,0.0,0.0,2.3125410079956055,-7161.67724609375,2810.72412109375,1876,0.0,0.0,0.0,-0.7854637503623962,0.26016560196876526,109.36569213867188,-5736.89990234375,3164.240478515625
92582.222,-11.940446853637695,-51.6277961730957,-0.8906754851341248,-0.013382523320615292,0.04035531356930733,0.9957115650177002,48960.0,2.718701124191284,1.4034103155136108,111.32198333740234,21.02499008178711,6.859468460083008,14.054201126098633,0.0,0.0,2.316453695297241,-6016.54345703125,2919.239013671875,1793,0.0,0.0,0.0,-0.7854637503623962,0.26016560196876526,109.36569213867188,-7135.11962890625,5716.73974609375
92584.195,-12.301596641540527,-53.0849723815918,-0.8378549814224243,-0.011706920340657234,0.04324035346508026,0.9972296357154846,48960.0,2.718701124191284,1.4034103155136108,111.32198333740234,19.7543888092041,7.133844375610352,14.81624698638916,0.0,0.0,2.3203747272491455,-7045.4189453125,3391.95947265625,1878,0.0,0.0,0.0,-0.5736971497535706,0.214436337351799,109.36150360107422,-6735.720703125,5220.080078125
92586.12,-12.680883407592773,-54.8139762878418,-0.5834777355194092,-0.01263964269310236,0.03920207917690277,0.9974751472473145,48960.0,2.718701124191284,1.4034103155136108,111.32198333740234,19.7543888092041,7.133844375610352,14.087174415588379,0.0,0.0,2.32429575920105,-6555.69091796875,3256.675048828125,1760,0.0,0.0,0.0,-0.5736971497535706,0.214436337351799,109.36150360107422,-6356.939453125,3818.980224609375
92588.114,-13.08291244506836,-56.801151275634766,-0.29855936765670776,-0.015116916038095951,0.03228611499071121,0.9966091513633728,48960.0,2.718701124191284,1.4034103155136108,111.32198333740234,18.39872169494629,7.432295799255371,14.439090728759766,0.0,0.0,2.3282206058502197,-8267.49609375,3602.642578125,1768,0.0,0.0,0.0,-0.34775257110595703,0.16469435393810272,109.35958099365234,-6010.93994140625,4736.400390625
92590.067,-13.161916732788086,-58.443817138671875,-0.02209913358092308,-0.01911833882331848,0.024590976536273956,0.9957602024078369,48960.0,2.718701124191284,1.4034103155136108,111.32198333740234,18.39872169494629,7.432295799255371,14.106559753417969,0.0,0.0,2.3321454524993896,-7238.7666015625,3148.383544921875,1695,0.0,0.0,0.0,-0.34775257110595703,0.16469435393810272,109.35958099365234,-4985.02001953125,1479.4403076171875
92592.103,-12.776762962341309,-59.60451126098633,0.4016595482826233,-0.022026706486940384,0.02430739440023899,0.996727466583252,48960.0,2.718701124191284,1.4034103155136108,111.32198333740234,16.981874465942383,7.727169990539551,13.928200721740723,0.0,0.0,2.3360681533813477,-8326.5478515625,3007.880859375,1623,0.0,0.0,0.0,-0.11161138862371445,0.11554858088493347,109.36058807373047,-6335.25927734375,3667.820068359375
92594.045,-11.997918128967285,-60.432586669921875,0.7396880388259888,-0.023277420550584793,0.029238726943731308,0.9967171549797058,48960.0,2.718701124191284,1.4034103155136108,111.32198333740234,16.981874465942383,7.727169990539551,14.108362197875977,0.0,0.0,2.3399908542633057,-7138.66650390625,2374.629638671875,1604,0.0,0.0,0.0,-0.11161138862371445,0.11554858088493347,109.36058807373047,-5849.8408203125,4503.35986328125
92595.999,-11.179130554199219,-60.708763122558594,0.6087220907211304,-0.024509446695446968,0.03293333202600479,0.9997003078460693,48960.0,2.718701124191284,1.4034103155136108,111.32198333740234,15.542177200317383,7.978599548339844,13.742194175720215,0.0,0.0,2.343909502029419,-8061.8935546875,2448.140869140625,1576,0.0,0.0,0.0,0.12833823263645172,0.07364372164011002,109.36263275146484,-6667.47998046875,2171.620361328125
92597.954,-10.532483100891113,-60.48780822753906,0.44661614298820496,-0.023854002356529236,0.03621935471892357,1.0013482570648193,48960.0,2.718701124191284,1.4034103155136108,111.32198333740234,15.542177200317383,7.978599548339844,14.103931427001953,0.0,0.0,2.3478281497955322,-6576.12841796875,2291.676025390625,1638,0.0,0.0,0.0,0.12833823263645172,0.07364372164011002,109.36263275146484,-6938.779296875,2917.340087890625
92599.944,-10.167252540588379,-60.04000473022461,0.5288921594619751,-0.023288840427994728,0.03940138593316078,1.0032057762145996,48960.0,2.718701124191284,1.4034103155136108,111.32198333740234,14.120067596435547,8.201940536499023,13.769521713256836,0.0,0.0,2.351743221282959,-7618.71875,2648.96337890625,1588,0.0,0.0,0.0,0.3653564155101776,0.03642025962471962,109.364501953125,-6174.02001953125,2853.5
92601.958,-10.09054946899414,-59.35693359375,0.813471257686615,-0.023585837334394455,0.042185455560684204,1.009142518043518,48960.0,2.718701124191284,1.4034103155136108,111.32198333740234,14.120067596435547,8.201940536499023,14.100546836853027,0.0,0.0,2.3556582927703857,-6273.2265625,2686.345458984375,1594,0.0,0.0,0.0,0.3653564155101776,0.03642025962471962,109.364501953125,-5643.26025390625,5010.92041015625
92603.926,-10.058378219604492,-58.84217834472656,1.1234086751937866,-0.024830883368849754,0.036493245512247086,1.0148124694824219,48960.0,2.718701124191284,1.4034103155136108,111.32198333740234,12.729564666748047,8.424283027648926,13.307662010192871,0.0,0.0,2.3595645427703857,-7573.70263671875,2915.028564453125,1462,0.0,0.0,0.0,0.59710693359375,-0.0006368091562762856,109.36890411376953,-6879.359375,3569.08056640625
92605.852,-9.597574234008789,-58.544742584228516,1.2652463912963867,-0.028220755979418755,0.026259765028953552,1.0206069946289062,48960.0,2.718701124191284,1.4034103155136108,111.32198333740234,12.729564666748047,8.424283027648926,14.08194637298584,0.0,0.0,2.3634707927703857,-6649.2001953125,2357.67578125,1538,0.0,0.0,0.0,0.59710693359375,-0.0006368091562762856,109.36890411376953,-5849.8408203125,4503.35986328125
92607.83,-8.896551132202148,-57.991817474365234,1.2584543228149414,-0.03233501315116882,0.01408917736262083,1.0256373882293701,48960.0,2.718701124191284,1.4034103155136108,111.32198333740234,11.365484237670898,8.630657196044922,13.166149139404297,0.0,0.0,2.3673667907714844,-7602.31787109375,2258.093994140625,1428,0.0,0.0,0.0,0.8244538903236389,-0.035032473504543304,109.37398529052734,-6879.359375,3569.08056640625
92609.803,-8.08640193939209,-57.147247314453125,1.2885931730270386,-0.03702922910451889,0.0018308706348761916,1.0302530527114868,48960.0,2.718701124191284,1.0709292888641357,111.32198333740234,11.365484237670898,6.635770797729492,14.059250831604004,0.0,0.0,2.371262788772583,-6233.833984375,104.54931640625,1532,0.0,0.0,0.0,0.8244538903236389,-0.035032473504543304,109.37398529052734,-5748.70068359375,2711.360107421875
92611.843,-6.95585298538208,-56.148101806640625,1.2517602443695068,-0.037275318056344986,-0.007970725186169147,1.0340907573699951,48960.0,2.718701124191284,1.0709292888641357,111.32198333740234,10.050150871276855,6.807070255279541,13.11996841430664,0.0,0.0,2.375148296356201,-7151.833984375,1345.00146484375,1424,0.0,0.0,0.0,1.0436760187149048,-0.06358243525028229,109.37919616699219,-7112.6591796875,2000.42041015625
92613.779,-5.7075276374816895,-55.0978889465332,1.1664361953735352,-0.03429049998521805,-0.0141921266913414,1.0358073711395264,48960.0,2.718701124191284,1.0709292888641357,111.32198333740234,10.050150871276855,6.807070255279541,14.035757064819336,0.0,0.0,2.3790338039398193,-5969.5009765625,940.9456787109375,1544,0.0,0.0,0.0,1.0436760187149048,-0.06358243525028229,109.37919616699219,-6288.7197265625,2385.599853515625
92615.738,-4.526462554931641,-53.705440521240234,1.0433539152145386,-0.030348675325512886,-0.01675444468855858,1.0371613502502441,48960.0,2.718701124191284,1.0709292888641357,111.32198333740234,8.791662216186523,6.924429893493652,13.231795310974121,0.0,0.0,2.3829104900360107,-6636.59912109375,919.8548583984375,1462,0.0,0.0,0.0,1.2534241676330566,-0.08314239978790283,109.38365936279297,-6244.22021484375,1604.64013671875
92617.695,-3.6216888427734375,-51.024658203125,0.9160691499710083,-0.02859422378242016,-0.014520096592605114,1.041468620300293,48960.0,2.718701124191284,1.0709292888641357,111.32198333740234,8.791662216186523,6.924429893493652,14.016731262207031,0.0,0.0,2.386787176132202,-4324.35986328125,903.3375854492188,1572,0.0,0.0,0.0,1.2534241676330566,-0.08314239978790283,109.38365936279297,-7053.2392578125,2652.16015625
92619.677,-2.953122854232788,-47.57988357543945,0.8076672554016113,-0.029009394347667694,-0.009517628699541092,1.0485577583312988,48960.0,2.718701124191284,1.0709292888641357,111.32198333740234,7.680832386016846,6.999943256378174,13.378472328186035,0.0,0.0,2.3906567096710205,-4234.4013671875,1048.170166015625,1508,0.0,0.0,0.0,1.4385623931884766,-0.09572798013687134,109.38720703125,-6244.22021484375,1604.64013671875
92621.701,-2.3259143829345703,-45.00379180908203,0.9546271562576294,-0.030786775052547455,-0.0028641633689403534,1.053185224533081,48960.0,2.718701124191284,1.0709292888641357,111.32198333740234,7.680832386016846,6.999943256378174,14.00318431854248,0.0,0.0,2.394526243209839,-3666.375244140625,928.4720458984375,1565,0.0,0.0,0.0,1.4385623931884766,-0.09572798013687134,109.38720703125,-6187.580078125,593.6000366210938
92623.657,-1.5453782081604004,-43.229454040527344,1.1184195280075073,-0.03248857334256172,0.0055443476885557175,1.054875135421753,48960.0,2.718701124191284,1.0709292888641357,111.32198333740234,6.67755126953125,7.033986568450928,13.149492263793945,0.0,0.0,2.398386240005493,-4904.49267578125,727.035400390625,1443,0.0,0.0,0.0,1.6057759523391724,-0.10140178352594376,109.3919448852539,-6503.37939453125,2120.280029296875
92625.592,-0.8819258809089661,-41.3911018371582,1.0849299430847168,-0.03113885410130024,0.011270228773355484,1.0540026426315308,48960.0,2.718701124191284,1.0709292888641357,111.32198333740234,6.67755126953125,7.033986568450928,13.982477188110352,0.0,0.0,2.4022462368011475,-3828.2685546875,689.7977905273438,1547,0.0,0.0,0.0,1.6057759523391724,-0.10140178352594376,109.3919448852539,-6037.64013671875,2112.2001953125
92627.579,-0.3030221164226532,-39.025272369384766,1.099300742149353,-0.02782580442726612,0.013422557152807713,1.0493193864822388,48960.0,2.718701124191284,1.0709292888641357,111.32198333740234,5.774099349975586,7.03410530090332,13.146728515625,0.0,0.0,2.406096935272217,-3890.89453125,666.4800415039062,1445,0.0,0.0,0.0,1.7563512325286865,-0.10142157971858978,109.3965835571289,-5682.740234375,2396.50048828125
92629.538,0.5500574111938477,-35.97080993652344,1.2426693439483643,-0.023941120132803917,0.011715078726410866,1.0465376377105713,48960.0,2.718701124191284,1.0709292888641357,111.32198333740234,5.774099349975586,7.03410530090332,13.962346076965332,0.0,0.0,2.409947633743286,-2238.658203125,332.7977294921875,1526,0.0,0.0,0.0,1.7563512325286865,-0.10142157971858978,109.3965835571289,-5592.56005859375,-148.21990966796875
92631.582,1.3313326835632324,-32.99213409423828,1.432860016822815,-0.020657483488321304,0.010675577446818352,1.0464593172073364,48960.0,2.718701124191284,1.0709292888641357,111.32198333740234,5.012721061706543,6.996725082397461,12.894591331481934,0.0,0.0,2.4137866497039795,-2533.93798828125,235.8172607421875,1375,0.0,0.0,0.0,1.8832476139068604,-0.09519164264202118,109.40250396728516,-5708.6201171875,211.08016967773438
92633.514,2.0734012126922607,-30.51116180419922,1.6607415676116943,-0.019007157534360886,0.00762952072545886,1.047454833984375,48960.0,2.718701124191284,1.0709292888641357,111.32198333740234,5.012721061706543,6.996725082397461,13.934501647949219,0.0,0.0,2.417625665664673,-1964.0367431640625,181.947021484375,1472,0.0,0.0,0.0,1.8832476139068604,-0.09519164264202118,109.40250396728516,-6025.49951171875,1882.119873046875
92635.466,2.7936606407165527,-27.907236099243164,1.9879385232925415,-0.019027957692742348,0.0012509278021752834,1.0538902282714844,48960.0,2.718701124191284,1.0709292888641357,111.32198333740234,4.373289108276367,6.929749488830566,12.467644691467285,0.0,0.0,2.4214484691619873,-2056.72265625,29.9873046875,1257,0.0,0.0,0.0,1.9898196458816528,-0.0840289294719696,109.41062927246094,-4530.0,-843.8399658203125
92637.428,3.1833276748657227,-24.581192016601562,2.2539002895355225,-0.019675549119710922,-0.006923452951014042,1.0588387250900269,48960.0,2.718701124191284,1.0709292888641357,111.32198333740234,4.373289108276367,6.929749488830566,13.89339542388916,0.0,0.0,2.4252712726593018,-536.652587890625,269.7129821777344,1396,0.0,0.0,0.0,1.9898196458816528,-0.0840289294719696,109.41062927246094,-5155.5400390625,2109.320556640625
92639.419,3.6024019718170166,-20.875104904174805,2.5019121170043945,-0.020238306373357773,-0.0136040598154068,1.0626612901687622,48960.0,2.718701124191284,1.0,111.32198333740234,3.903614044189453,6.426043510437012,12.06057357788086,0.0,0.0,2.4290735721588135,-118.414794921875,-268.5389099121094,1147,0.0,0.0,0.0,2.068098783493042,-0.07100731134414673,109.4207763671875,-2787.340087890625,-666.4800415039062
92641.435,4.416809558868408,-16.987165451049805,2.4923043251037598,-0.023072177544236183,-0.014012203551828861,1.061638355255127,48960.0,2.718701124191284,1.0,111.32198333740234,3.903614044189453,6.426043510437012,13.840117454528809,0.0,0.0,2.432875871658325,953.421630859375,-309.4205627441406,1361,0.0,0.0,0.0,2.068098783493042,-0.07100731134414673,109.4207763671875,-2631.899658203125,907.7598266601562
92643.395,5.183330535888672,-13.17234992980957,2.3010010719299316,-0.02591538056731224,-0.010773347690701485,1.0552427768707275,48960.0,2.718701124191284,1.0,111.32198333740234,3.621906280517578,6.308555603027344,12.16055965423584,0.0,0.0,2.436659574508667,1217.2642822265625,-494.222900390625,1183,0.0,0.0,0.0,2.1150500774383545,-0.05142595246434212,109.4300765991211,-2662.419921875,359.34014892578125
92645.327,5.571513652801514,-9.54305362701416,2.2247583866119385,-0.02917962148785591,-0.005621934309601784,1.0484404563903809,48960.0,2.718701124191284,1.0,111.32198333740234,3.621906280517578,6.308555603027344,13.79188346862793,0.0,0.0,2.440443277359009,1833.800048828125,-180.58103942871094,1388,0.0,0.0,0.0,2.1150500774383545,-0.05142595246434212,109.4300765991211,-2544.099609375,-140.59986877441406
92647.311,5.866979122161865,-5.893621921539307,2.2873499393463135,-0.03197728097438812,0.00022766075562685728,1.0417070388793945,48960.0,2.718701124191284,1.0,111.32198333740234,3.5180482864379883,6.169159412384033,12.138545036315918,0.0,0.0,2.444208860397339,2302.84423828125,-280.8192138671875,1182,0.0,0.0,0.0,2.132359743118286,-0.028193289414048195,109.4392318725586,-1921.5198974609375,-285.87994384765625
92649.277,6.388130187988281,-2.3301806449890137,2.314812421798706,-0.03175249695777893,0.005849629174917936,1.038526177406311,48960.0,2.718701124191284,1.0,111.32198333740234,3.5180482864379883,6.169159412384033,13.74448299407959,0.0,0.0,2.447974443435669,2850.760986328125,-423.7088928222656,1371,0.0,0.0,0.0,2.132359743118286,-0.028193289414048195,109.4392318725586,-501.59991455078125,-180.46006774902344
92651.31,6.865019798278809,1.312300682067871,2.3764572143554688,-0.030121490359306335,0.008339405059814453,1.036818504333496,48960.0,2.718701124191284,1.0,111.32198333740234,3.5857958793640137,6.001837730407715,12.031745910644531,0.0,0.0,2.451720952987671,3517.38623046875,-612.6357421875,1158,0.0,0.0,0.0,2.1210684776306152,-0.00030627005617134273,109.44871520996094,-170.01992797851562,-67.0798110961914
92653.26,6.663638114929199,5.206574440002441,2.3190195560455322,-0.028861328959465027,0.012102926149964333,1.0379648208618164,48960.0,2.718701124191284,1.0,111.32198333740234,3.5857958793640137,6.001837730407715,13.695075988769531,0.0,0.0,2.455467462539673,4239.560546875,51.766197204589844,1365,0.0,0.0,0.0,2.1210684776306152,-0.00030627005617134273,109.44871520996094,704.5000610351562,-1940.10009765625
92655.214,6.3936944007873535,9.011409759521484,2.241952419281006,-0.02801516279578209,0.015332497656345367,1.0395634174346924,48960.0,2.718701124191284,1.0,111.32198333740234,3.836418628692627,5.842288494110107,12.084508895874023,0.0,0.0,2.459196090698242,4968.767578125,0.08496856689453125,1181,0.0,0.0,0.0,2.0792980194091797,0.026285259053111076,109.45763397216797,-108.67996215820312,384.9801940917969
92657.189,6.729259967803955,12.572385787963867,2.3548922538757324,-0.027939502149820328,0.018692724406719208,1.0407512187957764,48960.0,2.718701124191284,1.0,111.32198333740234,3.836418628692627,5.842288494110107,13.64902114868164,0.0,0.0,2.4629247188568115,5132.052734375,-384.7198791503906,1355,0.0,0.0,0.0,2.0792980194091797,0.026285259053111076,109.45763397216797,2889.079833984375,294.48004150390625
92659.175,7.25317907333374,16.29300308227539,2.4804952144622803,-0.029345842078328133,0.018517253920435905,1.0432748794555664,48960.0,3.0415449142456055,1.0,111.32198333740234,6.198489189147949,5.660887718200684,11.85753345489502,0.0,0.0,2.4666335582733154,7935.740234375,-767.8335571289062,1125,0.0,0.0,0.0,2.0084633827209473,0.05651864781975746,109.4675521850586,2494.10009765625,-1297.4000244140625
92661.168,7.449477672576904,19.957170486450195,2.379725217819214,-0.030635466799139977,0.017678963020443916,1.0426069498062134,48960.0,3.0415449142456055,1.0,111.32198333740234,6.198489189147949,5.660887718200684,13.596929550170898,0.0,0.0,2.4703423976898193,6671.47265625,-415.5124206542969,1346,0.0,0.0,0.0,2.0084633827209473,0.05651864781975746,109.4675521850586,3332.199951171875,633.9600830078125
92663.162,7.638330936431885,23.423736572265625,2.222708225250244,-0.030647942796349525,0.01825902983546257,1.042238473892212,48960.0,3.0415449142456055,1.0,111.32198333740234,6.7940497398376465,5.470373153686523,11.978038787841797,0.0,0.0,2.4740333557128906,7579.263671875,-609.719482421875,1170,0.0,0.0,0.0,1.909203290939331,0.0882711410522461,109.47651672363281,3742.85986328125,-422.079833984375
92665.086,7.532261848449707,27.129980087280273,2.14634108543396,-0.029336603358387947,0.02047210931777954,1.0416767597198486,48960.0,3.0415449142456055,1.0,111.32198333740234,6.7940497398376465,5.470373153686523,13.55052375793457,0.0,0.0,2.477724313735962,7868.287109375,-229.73147583007812,1368,0.0,0.0,0.0,1.909203290939331,0.0882711410522461,109.47651672363281,3978.6796875,-706.039794921875
92667.083,7.179378032684326,30.8985652923584,2.1184005737304688,-0.028804278001189232,0.01741359382867813,1.0404512882232666,48960.0,3.0415449142456055,1.0,111.32198333740234,7.566489219665527,5.291436195373535,11.986852645874023,0.0,0.0,2.481397867202759,9175.525390625,-152.73114013671875,1184,0.0,0.0,0.0,1.7804633378982544,0.11809393763542175,109.48517608642578,3557.77978515625,-1890.380126953125
92669.039,7.1453328132629395,34.32906723022461,2.058195114135742,-0.03065490908920765,0.010909474454820156,1.0379703044891357,48960.0,3.471360921859741,1.0,111.32198333740234,10.1453857421875,5.291436195373535,13.505914688110352,0.0,0.0,2.4850714206695557,11178.216796875,-252.5505828857422,1373,0.0,0.0,0.0,1.7804633378982544,0.11809393763542175,109.48517608642578,3818.119873046875,-921.139892578125
92671.046,7.450464248657227,37.26569366455078,2.027432680130005,-0.03348192572593689,0.010351690463721752,1.0351771116256714,48960.0,3.471360921859741,1.0,111.32198333740234,11.071399688720703,5.109785079956055,11.983654975891113,0.0,0.0,2.4887282848358154,10147.5439453125,-716.1887817382812,1194,0.0,0.0,0.0,1.6261276006698608,0.14836916327476501,109.49360656738281,3771.859375,-507.55975341796875
92673.025,7.564902305603027,39.907447814941406,2.1134817600250244,-0.03518328443169594,0.010933578945696354,1.0342143774032593,48960.0,3.471360921859741,1.0,111.32198333740234,11.071399688720703,5.109785079956055,13.462645530700684,0.0,0.0,2.492385149002075,9628.142578125,-454.09613037109375,1361,0.0,0.0,0.0,1.6261276006698608,0.14836916327476501,109.49360656738281,6761.98046875,1286.679931640625
92674.979,7.168665885925293,42.450645446777344,2.147557497024536,-0.03626425564289093,0.010995330289006233,1.0351356267929077,48960.0,3.471360921859741,1.0,111.32198333740234,12.121383666992188,4.93480110168457,11.825751304626465,0.0,0.0,2.4960238933563232,10880.6904296875,-169.14039611816406,1161,0.0,0.0,0.0,1.4511303901672363,0.1775331199169159,109.50267028808594,5656.24072265625,-1937.2203369140625
92676.944,6.60206937789917,44.90009689331055,2.1255340576171875,-0.03792261332273483,0.012148832902312279,1.0360474586486816,48960.0,3.471360921859741,1.0,111.32198333740234,12.121383666992188,4.93480110168457,13.41554069519043,0.0,0.0,2.4996626377105713,10390.310546875,174.85714721679688,1354,0.0,0.0,0.0,1.4511303901672363,0.1775331199169159,109.50267028808594,8785.78125,-558.739990234375
92678.929,6.030378341674805,47.375701904296875,2.2055482864379883,-0.03612634539604187,0.012489648535847664,1.0359811782836914,48960.0,3.471360921859741,1.0,111.32198333740234,13.287383079528809,4.786509990692139,11.713724136352539,0.0,0.0,2.503282308578491,11830.6669921875,130.9696807861328,1140,0.0,0.0,0.0,1.2567970752716064,0.20224836468696594,109.51209259033203,7590.00048828125,3126.640380859375
92680.904,5.63144063949585,49.79340362548828,2.1380269527435303,-0.033628687262535095,0.01218807976692915,1.0354384183883667,48960.0,3.471360921859741,1.0,111.32198333740234,13.287383079528809,4.786509990692139,13.366246223449707,0.0,0.0,2.506901979446411,11275.39453125,172.46365356445312,1347,0.0,0.0,0.0,1.2567970752716064,0.20224836468696594,109.51209259033203,8469.900390625,-3668.599609375
92682.917,5.598637580871582,51.898921966552734,1.995359182357788,-0.029753539711236954,0.011653565801680088,1.034197211265564,48960.0,3.471360921859741,1.0,111.32198333740234,14.556400299072266,4.648960590362549,11.787313461303711,0.0,0.0,2.5105042457580566,12499.19921875,-221.0113067626953,1175,0.0,0.0,0.0,1.0452942848205566,0.2251732498407364,109.52083587646484,10189.3212890625,-750.02001953125
92684.811,5.064089298248291,53.69361114501953,1.748558521270752,-0.02471674606204033,0.012440599501132965,1.0309702157974243,48960.0,3.471360921859741,1.0,111.32198333740234,14.556400299072266,4.648960590362549,13.320991516113281,0.0,0.0,2.514106512069702,11583.521484375,338.6418762207031,1388,0.0,0.0,0.0,1.0452942848205566,0.2251732498407364,109.52083587646484,10189.3212890625,-750.02001953125
92686.792,3.9006471633911133,55.45478057861328,1.4401193857192993,-0.019597163423895836,0.01558075100183487,1.0302430391311646,48960.0,3.471360921859741,1.0,111.32198333740234,15.90318489074707,4.549872398376465,12.121798515319824,0.0,0.0,2.517695426940918,13034.6552734375,895.649169921875,1281,0.0,0.0,0.0,0.8208301067352295,0.24168793857097626,109.52748107910156,10389.2197265625,-599.69970703125
92688.759,2.7717108726501465,57.368534088134766,1.5285617113113403,-0.015017484314739704,0.017184587195515633,1.0314205884933472,48960.0,3.471360921859741,1.0,111.32198333740234,15.90318489074707,4.549872398376465,13.288297653198242,0.0,0.0,2.521284341812134,12426.076171875,1113.426513671875,1411,0.0,0.0,0.0,0.8208301067352295,0.24168793857097626,109.52748107910156,10066.12109375,-2051.639892578125
92690.789,1.8460711240768433,59.04063415527344,1.8646856546401978,-0.01291755773127079,0.018565651029348373,1.032171607017517,48960.0,3.7942049503326416,1.0,111.32198333740234,19.267070770263672,4.498659610748291,11.763191223144531,0.0,0.0,2.5248565673828125,15523.146484375,1053.7083740234375,1187,0.0,0.0,0.0,0.583026647567749,0.25022339820861816,109.53592681884766,10375.939453125,1116.440185546875
92692.734,1.020464539527893,59.82830810546875,1.9197205305099487,-0.01289181038737297,0.020222563296556473,1.0347520112991333,48960.0,3.7942049503326416,1.0,111.32198333740234,19.267070770263672,4.498659610748291,13.244768142700195,0.0,0.0,2.528428792953491,12455.0634765625,1140.934326171875,1359,0.0,0.0,0.0,0.583026647567749,0.25022339820861816,109.53592681884766,10375.939453125,1116.440185546875
92694.688,0.2296467423439026,60.134342193603516,1.8300362825393677,-0.015395931899547577,0.015293652191758156,1.0381672382354736,48960.0,3.7942049503326416,1.0,111.32198333740234,20.719039916992188,4.487880706787109,11.736215591430664,0.0,0.0,2.5319840908050537,13446.50390625,1223.76416015625,1188,0.0,0.0,0.0,0.34103190898895264,0.25201988220214844,109.54428100585938,10531.1796875,730.0200805664062
92696.651,-0.5753397941589355,60.459590911865234,1.690339207649231,-0.01869072951376438,0.009059264324605465,1.0404146909713745,48960.0,3.7942049503326416,1.0,111.32198333740234,20.719039916992188,4.487880706787109,13.201753616333008,0.0,0.0,2.535539388656616,12420.7373046875,1363.222900390625,1381,0.0,0.0,0.0,0.34103190898895264,0.25201988220214844,109.54428100585938,10523.9189453125,-851.2799682617188
92698.633,-1.609392523765564,61.44742965698242,1.64570951461792,-0.02221587486565113,0.002925737528130412,1.0404146909713745,48960.0,3.7942049503326416,1.0,111.32198333740234,22.203670501708984,4.52753210067749,11.822992324829102,0.0,0.0,2.539079427719116,14402.013671875,1725.81689453125,1221,0.0,0.0,0.0,0.0935930386185646,0.24541132152080536,109.55191802978516,14962.259765625,1659.480224609375
92700.664,-2.9433400630950928,62.71711730957031,1.6012001037597656,-0.02483208291232586,-0.005379348061978817,1.042542576789856,48960.0,3.7942049503326416,1.0,111.32198333740234,22.203670501708984,4.52753210067749,13.16301155090332,0.0,0.0,2.542619466781616,13690.3876953125,2121.091064453125,1387,0.0,0.0,0.0,0.0935930386185646,0.24541132152080536,109.55191802978516,14962.259765625,1659.480224609375
92702.611,-4.072390079498291,63.18480682373047,1.486531138420105,-0.026029231026768684,-0.013897034339606762,1.04310142993927,48960.0,3.7942049503326416,1.0,111.32198333740234,23.72947883605957,4.634841442108154,11.900233268737793,0.0,0.0,2.5461456775665283,14532.26171875,2233.3544921875,1249,0.0,0.0,0.0,-0.16070812940597534,0.22752639651298523,109.55891418457031,14962.259765625,1659.480224609375
92704.547,-5.009697914123535,62.9679069519043,1.492689609527588,-0.026879454031586647,-0.017501886934041977,1.0412315130233765,48960.0,3.7942049503326416,1.0,111.32198333740234,23.72947883605957,4.634841442108154,13.128087043762207,0.0,0.0,2.5496718883514404,12841.9365234375,2149.6611328125,1396,0.0,0.0,0.0,-0.16070812940597534,0.22752639651298523,109.55891418457031,14691.8984375,502.0401306152344
92706.538,-5.8083038330078125,62.55873489379883,1.592430830001831,-0.027244316413998604,-0.020372429862618446,1.0369536876678467,48960.0,3.7942049503326416,1.0,111.32198333740234,25.23859977722168,4.786896228790283,11.81143856048584,0.0,0.0,2.5531835556030273,13994.55859375,2302.275390625,1226,0.0,0.0,0.0,-0.41222840547561646,0.20218399167060852,109.56620788574219,14308.5380859375,969.320068359375
92708.494,-6.73512601852417,61.471527099609375,1.50625479221344,-0.025568541139364243,-0.016238411888480186,1.0352380275726318,48960.0,3.7942049503326416,1.0,111.32198333740234,25.23859977722168,4.786896228790283,13.091347694396973,0.0,0.0,2.5566952228546143,12191.1162109375,2423.42041015625,1390,0.0,0.0,0.0,-0.41222840547561646,0.20218399167060852,109.56620788574219,16469.0390625,1597.940185546875
92710.555,-7.976770877838135,59.59244155883789,1.5182685852050781,-0.02246914617717266,-0.0035339565947651863,1.0321859121322632,48960.0,4.33195686340332,1.0,111.32198333740234,29.898456573486328,4.981735706329346,11.858922004699707,0.0,0.0,2.5601930618286133,15509.2119140625,3021.13916015625,1240,0.0,0.0,0.0,-0.6511193513870239,0.16971071064472198,109.57303619384766,14377.5400390625,3832.5
92712.47,-9.17248821258545,58.31405258178711,1.7392160892486572,-0.019662760198116302,0.003726310795173049,1.0318809747695923,48960.0,4.33195686340332,1.0,111.32198333740234,29.898456573486328,4.981735706329346,13.057374000549316,0.0,0.0,2.5636909008026123,12273.083984375,3019.921875,1358,0.0,0.0,0.0,-0.6511193513870239,0.16971071064472198,109.57303619384766,14377.5400390625,3832.5
92714.425,-10.255902290344238,57.558250427246094,1.7836445569992065,-0.01793844625353813,0.008141173981130123,1.0335536003112793,48960.0,4.33195686340332,1.0,111.32198333740234,31.278470993041992,5.224554538726807,11.659221649169922,0.0,0.0,2.5671732425689697,13793.669921875,3316.7431640625,1185,0.0,0.0,0.0,-0.8811217546463013,0.12924093008041382,109.58078002929688,14045.0595703125,3656.8203125
92716.395,-11.319653511047363,56.41297912597656,1.6128350496292114,-0.01710451953113079,0.015233819372951984,1.0340557098388672,48960.0,4.33195686340332,1.0,111.32198333740234,31.278470993041992,5.224554538726807,13.017875671386719,0.0,0.0,2.570655584335327,12294.7646484375,3279.44482421875,1368,0.0,0.0,0.0,-0.8811217546463013,0.12924093008041382,109.58078002929688,14377.5400390625,3832.5
92718.383,-12.172990798950195,54.945430755615234,1.3851103782653809,-0.017617296427488327,0.0232484620064497,1.031593680381775,48960.0,4.33195686340332,1.0,111.32198333740234,32.593692779541016,5.504998207092285,11.940085411071777,0.0,0.0,2.5741260051727295,13016.6220703125,3502.03466796875,1266,0.0,0.0,0.0,-1.1003249883651733,0.08250033855438232,109.58675384521484,9613.98046875,2727.3603515625
92720.387,-13.102605819702148,53.26710891723633,0.9068272709846497,-0.018186168745160103,0.02377987653017044,1.0275815725326538,48960.0,4.868744850158691,1.0,111.32198333740234,35.81441879272461,5.504998207092285,12.988973617553711,0.0,0.0,2.577596426010132,14519.0322265625,3488.351806640625,1449,0.0,0.0,0.0,-1.1003249883651733,0.08250033855438232,109.58675384521484,11018.62109375,3834.440185546875
92722.349,-14.310225486755371,50.70140075683594,0.6161654591560364,-0.01864650472998619,0.02029857411980629,1.0217698812484741,48960.0,4.868744850158691,1.0,111.32198333740234,37.02671432495117,5.83803129196167,12.507735252380371,0.0,0.0,2.581061601638794,12144.1611328125,4177.72705078125,1426,0.0,0.0,0.0,-1.3023743629455566,0.02699473686516285,109.58943176269531,11241.9208984375,4023.700439453125
92724.286,-15.248113632202148,47.33085250854492,0.5982794761657715,-0.019774720072746277,0.015282358974218369,1.0162442922592163,48960.0,4.868744850158691,1.0,111.32198333740234,37.02671432495117,5.83803129196167,12.979836463928223,0.0,0.0,2.584526777267456,10125.720703125,3866.338623046875,1485,0.0,0.0,0.0,-1.3023743629455566,0.02699473686516285,109.58943176269531,12254.259765625,1613.2801513671875
92726.28,-15.574970245361328,43.59130096435547,0.3588564693927765,-0.01823284476995468,0.017891619354486465,1.0137383937835693,48960.0,4.868744850158691,1.0,111.32198333740234,38.06688690185547,6.2022271156311035,12.719542503356934,0.0,0.0,2.58798885345459,10224.1943359375,3784.8681640625,1483,0.0,0.0,0.0,-1.4757364988327026,-0.03370456025004387,109.59088897705078,12254.259765625,1613.2801513671875
92728.239,-16.179224014282227,40.09703063964844,-0.1927708238363266,-0.01663130335509777,0.025575656443834305,1.010014533996582,48960.0,4.868744850158691,1.0,111.32198333740234,38.06688690185547,6.2022271156311035,12.97801685333252,0.0,0.0,2.5914509296417236,9103.884765625,3810.40771484375,1580,0.0,0.0,0.0,-1.4757364988327026,-0.03370456025004387,109.59088897705078,10088.380859375,1998.0196533203125
92730.265,-17.282550811767578,37.42912673950195,-0.685649037361145,-0.01544121839106083,0.0339503213763237,1.006062388420105,48960.0,5.191588878631592,0.9281070232391357,111.32198333740234,40.89362335205078,6.167376518249512,13.495187759399414,0.0,0.0,2.594918727874756,11867.5400390625,4318.84765625,1701,0.0,0.0,0.0,-1.6240150928497314,-0.09978905320167542,109.58805084228516,9602.8203125,4580.400390625
92732.21,-18.008886337280273,35.08561706542969,-0.8560380935668945,-0.01392992865294218,0.04206158220767975,1.002795696258545,48960.0,5.191588878631592,0.9281070232391357,111.32198333740234,40.89362335205078,6.167376518249512,13.001981735229492,0.0,0.0,2.598386526107788,9639.2509765625,4171.189453125,1662,0.0,0.0,0.0,-1.6240150928497314,-0.09978905320167542,109.58805084228516,10100.4609375,3216.860107421875
92734.167,-18.512861251831055,32.25981903076172,-0.876363217830658,-0.013160185888409615,0.04822051525115967,1.001908302307129,48960.0,5.191588878631592,0.9281070232391357,111.32198333740234,41.65700912475586,6.585153579711914,13.671060562133789,0.0,0.0,2.6018617153167725,9540.7109375,4456.0166015625,1745,0.0,0.0,0.0,-1.7512457370758057,-0.16941852867603302,109.5843734741211,8627.6611328125,4036.040283203125
92736.136,-19.03469467163086,28.565412521362305,-0.8263640403747559,-0.013252812437713146,0.052632857114076614,1.002656102180481,48960.0,5.191588878631592,0.9281070232391357,111.32198333740234,41.65700912475586,6.585153579711914,13.030996322631836,0.0,0.0,2.605336904525757,7762.5595703125,4234.3525390625,1662,0.0,0.0,0.0,-1.7512457370758057,-0.16941852867603302,109.5843734741211,9683.0,3103.00048828125
92738.113,-19.73613166809082,24.747926712036133,-0.7241260409355164,-0.014313338324427605,0.055424269288778305,1.0015019178390503,48960.0,5.191588878631592,0.9281070232391357,111.32198333740234,42.24011993408203,7.027643203735352,13.595130920410156,0.0,0.0,2.608818292617798,7622.42578125,4872.51123046875,1718,0.0,0.0,0.0,-1.8484309911727905,-0.24316683411598206,109.5812759399414,9238.12109375,6024.83984375
92740.126,-20.774246215820312,20.995349884033203,-0.6544904112815857,-0.015114063397049904,0.05700601264834404,0.9993698000907898,48960.0,5.514432430267334,0.2631450593471527,111.32198333740234,44.177181243896484,3.0378713607788086,13.056544303894043,0.0,0.0,2.612299680709839,8414.2451171875,1358.07568359375,1645,0.0,0.0,0.0,-1.8484309911727905,-0.24316683411598206,109.5812759399414,9350.2998046875,2848.800537109375
92742.098,-21.637495040893555,17.09918975830078,-0.8242514729499817,-0.01634052023291588,0.049438122659921646,0.9988462924957275,48960.0,5.514432430267334,0.2631450593471527,111.32198333740234,44.57749557495117,3.5285730361938477,13.68973159790039,0.0,0.0,2.615787982940674,6629.61865234375,4790.373046875,1741,0.0,0.0,0.0,-1.9151504039764404,-0.3249504268169403,109.57779693603516,8391.4794921875,5940.9599609375
92744.026,-21.930065155029297,12.86519718170166,-0.9997397065162659,-0.017939558252692223,0.03738386929035187,0.9977335333824158,48960.0,5.514432430267334,0.2631450593471527,111.32198333740234,44.57749557495117,3.5285730361938477,13.084394454956055,0.0,0.0,2.619276285171509,5440.908203125,4038.2216796875,1690,0.0,0.0,0.0,-1.9151504039764404,-0.3249504268169403,109.57779693603516,7867.240234375,4185.8203125
92746.021,-22.360931396484375,8.317289352416992,-0.9408674240112305,-0.018801959231495857,0.024499429389834404,0.9964296221733093,48960.0,5.514432430267334,0.2631450593471527,111.32198333740234,44.7684326171875,4.049504280090332,13.793540954589844,0.0,0.0,2.622772455215454,4695.1328125,4675.4130859375,1768,0.0,0.0,0.0,-1.9469733238220215,-0.4117722809314728,109.57389831542969,8672.6201171875,5222.6611328125
92747.976,-23.013948440551758,4.276116847991943,-0.7812291383743286,-0.019518883898854256,0.012976594269275665,0.993930995464325,48960.0,5.514432430267334,0.2631450593471527,111.32198333740234,44.7684326171875,4.049504280090332,13.114778518676758,0.0,0.0,2.6262686252593994,4325.80078125,4549.2822265625,1667,0.0,0.0,0.0,-1.9469733238220215,-0.4117722809314728,109.57389831542969,7519.060546875,3842.180419921875
92750.005,-23.564210891723633,0.8377899527549744,-0.665192186832428,-0.019253874197602272,0.011494345963001251,0.9908193349838257,48960.0,5.837276458740234,-0.8451249003410339,111.32198333740234,46.717552185058594,-2.0443105697631836,13.594697952270508,0.0,0.0,2.629770040512085,6016.3984375,-929.678955078125,1711,0.0,0.0,0.0,-1.9489824771881104,-0.5044064521789551,109.5712661743164,5168.5,5937.5205078125
92751.954,-24.104936599731445,-2.6421172618865967,-0.7975350618362427,-0.017825808376073837,0.017222335562109947,0.9890647530555725,48960.0,5.837276458740234,-0.8451249003410339,111.32198333740234,46.717552185058594,-2.0443105697631836,13.137574195861816,0.0,0.0,2.6332714557647705,4001.384765625,3714.63818359375,1672,0.0,0.0,0.0,-1.9489824771881104,-0.5044064521789551,109.5712661743164,5348.11962890625,6657.77978515625
92753.909,-24.322099685668945,-6.591983795166016,-0.9764459133148193,-0.016655733808875084,0.0243750661611557,0.9870741963386536,48960.0,5.837276458740234,-0.8451249003410339,111.32198333740234,46.5504035949707,-1.4781489372253418,13.785972595214844,0.0,0.0,2.636780023574829,2906.00146484375,4014.0849609375,1771,0.0,0.0,0.0,-1.9211238622665405,-0.5987667441368103,109.56770324707031,4829.2998046875,3202.22021484375
92755.868,-24.287487030029297,-10.700143814086914,-1.108644723892212,-0.014995560050010681,0.03226351737976074,0.9849498271942139,48960.0,5.837276458740234,-0.8451249003410339,111.32198333740234,46.5504035949707,-1.4781489372253418,13.165968894958496,0.0,0.0,2.6402885913848877,2296.41748046875,3395.441162109375,1712,0.0,0.0,0.0,-1.9211238622665405,-0.5987667441368103,109.56770324707031,5348.11962890625,6657.77978515625
92757.853,-24.220598220825195,-14.805619239807129,-1.1521117687225342,-0.013809005729854107,0.041276153177022934,0.9851722717285156,48960.0,5.837276458740234,-0.8451249003410339,111.32198333740234,46.18544006347656,-0.9246515035629272,13.85304069519043,0.0,0.0,2.6438047885894775,1354.14599609375,3859.34814453125,1800,0.0,0.0,0.0,-1.8602970838546753,-0.6910163164138794,109.56392669677734,4622.72021484375,2694.66015625
92759.867,-24.1062068939209,-19.04188346862793,-1.0346921682357788,-0.0122964633628726,0.049353405833244324,0.9872268438339233,48960.0,6.160120487213135,-1.1785695552825928,111.32198333740234,48.12250518798828,-2.9253194332122803,13.195660591125488,0.0,0.0,2.6473209857940674,2637.693359375,1590.8388671875,1707,0.0,0.0,0.0,-1.8602970838546753,-0.6910163164138794,109.56392669677734,2145.35986328125,5472.47998046875
92761.829,-23.786067962646484,-23.359302520751953,-0.8783561587333679,-0.012469020672142506,0.04754967242479324,0.9888924956321716,48960.0,6.160120487213135,-1.1785695552825928,111.32198333740234,47.55283737182617,-2.3868374824523926,13.588601112365723,0.0,0.0,2.650841474533081,-36.28466796875,3373.642578125,1736,0.0,0.0,0.0,-1.7653523683547974,-0.7807633280754089,109.56177520751953,1864.840087890625,7555.27978515625
92763.763,-23.51448631286621,-27.610679626464844,-0.9519169330596924,-0.014421161264181137,0.04176400974392891,0.9909557700157166,48960.0,6.160120487213135,-1.1785695552825928,111.32198333740234,47.55283737182617,-2.3868374824523926,13.21561050415039,0.0,0.0,2.6543619632720947,-197.208984375,2965.461181640625,1700,0.0,0.0,0.0,-1.7653523683547974,-0.7807633280754089,109.56177520751953,1308.260009765625,2530.719970703125
92765.748,-23.47039031982422,-31.912548065185547,-1.1896483898162842,-0.017812883481383324,0.0345027893781662,0.9933741092681885,48960.0,6.160120487213135,-1.1785695552825928,111.32198333740234,46.782264709472656,-1.8494428396224976,13.723173141479492,0.0,0.0,2.6578879356384277,-1573.873046875,3613.115234375,1789,0.0,0.0,0.0,-1.6369235515594482,-0.8703290820121765,109.55899047851562,1787.8800048828125,5950.67919921875
92767.71,-23.39399528503418,-36.12042236328125,-1.0661919116973877,-0.019018055871129036,0.03362664207816124,0.9951561093330383,48960.0,6.160120487213135,-1.1785695552825928,111.32198333740234,46.782264709472656,-1.8494428396224976,13.239371299743652,0.0,0.0,2.6614139080047607,-1556.629150390625,3174.386474609375,1716,0.0,0.0,0.0,-1.6369235515594482,-0.8703290820121765,109.55899047851562,-509.3397216796875,3994.080322265625
92769.75,-23.229169845581055,-39.954444885253906,-0.776168942451477,-0.01869874633848667,0.037169624119997025,0.9950165748596191,48960.0,6.160120487213135,-1.1785695552825928,111.32198333740234,45.821189880371094,-1.3205476999282837,13.318848609924316,0.0,0.0,2.66494083404541,-2716.31103515625,3559.3466796875,1691,0.0,0.0,0.0,-1.4767440557479858,-0.9584782719612122,109.5585708618164,207.3802947998047,7629.02001953125
92771.688,-22.84506607055664,-43.39492416381836,-0.7968058586120605,-0.01656896062195301,0.04038740321993828,0.996492326259613,48960.0,6.160120487213135,-1.1785695552825928,111.32198333740234,45.821189880371094,-1.3205476999282837,13.248942375183105,0.0,0.0,2.6684677600860596,-2216.41943359375,2940.599853515625,1685,0.0,0.0,0.0,-1.4767440557479858,-0.9584782719612122,109.5585708618164,-2900.439208984375,4100.61962890625
92773.641,-22.219831466674805,-46.857547760009766,-0.7296205759048462,-0.013650204986333847,0.04193264991044998,0.9985119104385376,48960.0,6.160120487213135,-1.1785695552825928,111.32198333740234,44.69378662109375,-0.8193826675415039,13.16408920288086,0.0,0.0,2.6719934940338135,-3767.084228515625,3117.013916015625,1667,0.0,0.0,0.0,-1.2888438701629639,-1.0420057773590088,109.5590591430664,-1127.8597412109375,6634.67919921875
92775.607,-21.656064987182617,-50.312538146972656,-0.6664215922355652,-0.01151117030531168,0.04276000335812569,1.0018537044525146,48960.0,6.160120487213135,-1.1785695552825928,111.32198333740234,44.69378662109375,-0.8193826675415039,13.253064155578613,0.0,0.0,2.6755192279815674,-3434.055419921875,2702.67724609375,1670,0.0,0.0,0.0,-1.2888438701629639,-1.0420057773590088,109.5590591430664,-2154.539794921875,5909.45947265625
92777.596,-21.331750869750977,-53.39997482299805,-0.6816577911376953,-0.009497293271124363,0.04165128245949745,1.0079081058502197,48960.0,6.160120487213135,-1.1785695552825928,111.32198333740234,43.4094352722168,-0.340085506439209,12.998355865478516,0.0,0.0,2.679042339324951,-4777.421875,3264.9873046875,1641,0.0,0.0,0.0,-1.0747852325439453,-1.1218886375427246,109.56048583984375,-1352.6600341796875,4754.2607421875
92779.609,-20.95663833618164,-56.204830169677734,-0.5523225665092468,-0.011641714721918106,0.035200390964746475,1.013143539428711,48960.0,6.160120487213135,-1.1785695552825928,111.32198333740234,43.4094352722168,-0.340085506439209,13.251550674438477,0.0,0.0,2.682565450668335,-4022.95068359375,2811.1484375,1656,0.0,0.0,0.0,-1.0747852325439453,-1.1218886375427246,109.56048583984375,-4272.3798828125,6477.6396484375
92781.57,-20.231679916381836,-58.685203552246094,-0.5672234296798706,-0.015207747928798199,0.02746313437819481,1.0180121660232544,48960.0,6.160120487213135,-1.1785695552825928,111.32198333740234,42.003787994384766,0.11976313591003418,12.791078567504883,0.0,0.0,2.6860833168029785,-5416.7275390625,2853.8837890625,1602,0.0,0.0,0.0,-0.8405110836029053,-1.1985300779342651,109.56304931640625,-5704.9404296875,5406.34033203125
92783.505,-19.524518966674805,-60.88625717163086,-0.6658129096031189,-0.019528502598404884,0.018313398584723473,1.0229902267456055,48960.0,6.160120487213135,-1.1785695552825928,111.32198333740234,42.003787994384766,0.11976313591003418,13.243205070495605,0.0,0.0,2.689601182937622,-4483.16015625,2416.271484375,1669,0.0,0.0,0.0,-0.8405110836029053,-1.1985300779342651,109.56304931640625,-3274.259765625,4856.74072265625
92785.49,-19.045042037963867,-63.0760612487793,-0.7763698697090149,-0.0238330140709877,0.010147464461624622,1.0268428325653076,48960.0,6.160120487213135,-1.1785695552825928,111.32198333740234,40.49979019165039,0.5597949028015137,12.817252159118652,0.0,0.0,2.6931142807006836,-6156.7919921875,2911.142578125,1631,0.0,0.0,0.0,-0.5898447036743164,-1.2718687057495117,109.56542205810547,-5365.02001953125,3867.160400390625
